~VERSION INFORMATION
VERS.           2.0   :CWLS Log ASCII Standard - VERSION 2.0
WRAP.           NO    :One Line per depth step
PROD.  Schlumberger   :LAS Producer
PROG.  DLIS to ASCII 19C2-270                          :LAS Program name and version
CREA.        2017/09/15 13:23                          :LAS Creation date {YYYY/MM/DD hh:mm}
DLIS_CREA.  2017-Sep-15 12:50                          :DLIS Creation date and time {YYYY-MMM-DD hh:mm}
SOURCE.     D5RL-00187_University of Utah_ME-ESW1_Run1_DSI_DoNotDistribute.dlis  :DLIS File Name
FILE-ID.     ConPr_R01_L001Up_DSI_DLIS_Custom          :File Identification Number
#--------------------------------------------------
~WELL INFORMATION
#MNEM.UNIT      DATA             DESCRIPTION
#---- ------ --------------   -----------------------------
STRT .F      2150.5          :START DEPTH     
STOP .F      7569.0          :STOP DEPTH     
STEP .F       0.5            :STEP     
NULL .          -999.25      :NULL VALUE
COMP .        University of Utah                       :COMPANY
WELL .        MU-ESW1                                  :WELL
FLD  .        None                                     :FIELD
LOC  .        From the S4 Corner of Sec. 32, T26S, R9W      :LOCATION
CNTY .        Beaver                                   :COUNTY
STAT .        Utah                                     :STATE
CTRY .        USA                                      :COUNTRY
API  .        1771001M00                               :API NUMBER
UWI  .        1771001M00                               :UNIQUE WELL ID
DATE .        15-Sep-2017                              :LOG DATE {DD-MMM-YYYY}
SRVC .        Schlumberger                             :SERVICE COMPANY
LATI .DEG     38.500562 degrees                        :LATITUDE
LONG .DEG     -112.88703 degrees                       :LONGITUDE
GDAT .                                                 :GeoDetic Datum
SECT .        32                                       :Section
RANG .        9W                                       :Range
TOWN .        26S                                      :Township
#-----------------------------------------------------------------------------
~PARAMETER INFORMATION
#MNEM.UNIT    VALUE                      DESCRIPTION
#---- -----   --------------------       ------------------------
CN   .        University of Utah         :Company Name
WN   .        MU-ESW1                    :Well Name
FN   .        None                       :Field Name
FL   .        From the S4 Corner of Sec. 32  T26S  R9W :Field Location
FL1  .        SHL  304' FNL & 522' FEL   :Field Location, Line 1
COUN .        Beaver                     :County or Parish
STAT .        Utah                       :State or Province
NATI .        USA                        :Nation
DATE .        15-Sep-2017                :Tools Above Rotary Table Date
APIN .        1771001M00                 :API Well Number
SECT .        32                         :Section
TOWN .        26S                        :Township
RANG .        9W                         :Range
DMF  .        KB                         :Drilling Measured From (Name of Drilling Elevation Reference)
LMF  .        KB                         :Logging Measured From (Name of Logging Elevation Reference)
PDAT .        GL                         :Permanent Datum
ENGI .        A.BLOCHOWICZ               :Engineer s Name
WITN .        JOE MOORE                  :Witness s Name
LATI .        38.500562 degrees          :Latitude
LONG .        -112.88703 degrees         :Longitude
LUL  .        Fort Morgan  CO            :Logging Unit Location
LUN  .        9108                       :Logging Unit Number
RUN  .        ONE.1                      :Run Number
SON  .        D5RL-00187                 :Service Order Number
BHT  .DEGF     253.00000                 :Bottom Hole Temperature
BS   .IN         8.75000                 :Bit Size
MDEN .G/C3       2.71000                 :Matrix Density for Density Porosity
DFD  .LB/G       8.60000                 :Drilling Fluid Density
DFV  .S         34.00000                 :Drilling Fluid Viscosity
DFL  .C3        10.20000                 :Drilling Fluid Loss
RMFS .OHMM       1.25000                 :Resistivity of Mud Filtrate Sample
EKB  .F       5557.50000                 :Elevation of Kelly Bushing
EGL  .F       5536.00000                 :Elevation of Ground Level
BLI  .F       7546.00000                 :Bottom Log Interval
BSAL .PPM      550.00000                 :Borehole Salinity
FLEV .F          8.00000                 :Depth of Drilling Fluid Level to LMF (Log Measured From)
MCST .DEGF      74.50000                 :Mudcake Sample Temperature
MFST .DEGF      74.50000                 :Mud Filtrate Sample Temperature
MRT  .DEGF     253.00000                 :Maximum Recorded Temperature
MST  .DEGF      74.50000                 :Mud Sample Temperature
RMCS .OHMM       1.69000                 :Resistivity of Mud Cake Sample
RMS  .OHMM       1.47000                 :Resistivity of Mud Sample
RW   .OHMM       1.00000                 :Connate Water Resistivity
TDD  .F       7536.00049                 :Driller Total Depth
TDL  .F       7536.00049                 :Logger Total Depth
TLI  .F       2175.00000                 :Top Log Interval
HIDE .                                   :Header Identifier
MATR .        LIME                       :Rock Matrix for Neutron Porosity Corrections
FNUM .           1.00000                 :F-Numerator for Formation Factor Formula
FEXP .           2.00000                 :Exponent "m" for Formation Factor Formula
DFT  .        WBM                        :Drilling Fluid Type
DFPH .           8.50000                 :Drilling Fluid pH
MCSS .        Calculated                 :Mudcake Sample Source
MFSS .        Calculated                 :Mud Filtrate Sample Source
FD   .G/C3       1.00000                 :Fluid Density
MSS  .        Active Tank                :Mud Sample Source
OS1  .                                   :Other Services Line 1
OS2  .                                   :Other Services Line 2
OS3  .                                   :Other Services Line 3
OS4  .                                   :Other Services Line 4
OS5  .                                   :Other Services Line 5
R1   .        Thank you for choosing Schlumberger! :Remarks Line 1
R2   .        Tool string run as per tool sketch and client logging program. :Remarks Line 2
R3   .        TD  7546 ft. CS  2175 ft   :Remarks Line 3
R4   .                                   :Remarks Line 4
R5   .                                   :Remarks Line 5
R6   .                                   :Remarks Line 6
R7   .                                   :Remarks Line 7
R8   .        2 CMEZs run on toolstring for centralization. :Remarks Line 8
TCS  .        22 00 00                   :Time Circulation Stopped
TLAB .        02 05 00                   :Time Logger At Bottom
EPD  .C3         5536.000000             :Elevation of Permanent Datum above Mean Sea Level
APD  .F          21.500000               :Elevation of Depth Reference (LMF) above Permanent Datum
#-----------------------------------------------------------------------------
~CURVE INFORMATION
#MNEM.UNIT   API CODE                                  DESCRIPTION
#---- -----  --------                                  -----------------------
DEPT .F                                                :DEPTH (BOREHOLE) {F10.1}
CDF  .LBF                                              :Calibrated Downhole Force {F11.4}
CHRP .                                                 :Peak Coherence, Receiver Array, Compressional - Monopole P S {F11.4}
CHR1 .                                                 :Peak Coherence, Receiver Array - Lower Dipole {F11.4}
CHR2 .                                                 :Peak Coherence, Receiver Array - Upper Dipole {F11.4}
CTEM .DEGF                                             :Cartridge Temperature {F11.4}
DCAL .IN                                               :Differential Caliper {F11.4}
DT1R .US/F                                             :Delta-T Shear, Receiver Array - Lower Dipole {F11.4}
DT2  .US/F                                             :Delta-T Shear - Upper Dipole {F11.4}
DT2R .US/F                                             :Delta-T Shear, Receiver Array - Upper Dipole {F11.4}
DT4P .US/F                                             :Delta-T Compressional - Monopole P S {F11.4}
DT4S .US/F                                             :Delta-T Shear - Monopole P S {F11.4}
DTCO .US/F                                             :Delta-T Compressional {F11.4}
DTRP .US/F                                             :Delta-T Compressional, Receiver Array - Monopole P S {F11.4}
DTRS .US/F                                             :Delta-T Shear, Receiver Array - Monopole P S {F11.4}
DTSM .US/F                                             :Delta-T Shear {F11.4}
ED   .F                                                :East Departure {F11.4}
GR_EDTC.GAPI                                           :Gamma Ray {F11.4}
GTEM .DEGF                                             :Generalized Borehole Temperature {F11.4}
ITT  .S                                                :Integrated Transit Time {F11.4}
ND   .F                                                :North Departure {F11.4}
PR   .                                                 :Poisson s Ratio {F11.4}
SPHI .CFCF                                             :Sonic Porosity {F11.4}
STIT .F                                                :Stuck Tool Indicator, Total {F11.4}
TENS .LBF                                              :Cable Tension {F11.4}
#-----------------------------------------------------------------------------
# 
#     DEPT       CDF        CHRP       CHR1       CHR2       CTEM       DCAL       DT1R       DT2        DT2R       DT4P       DT4S       DTCO       DTRP       DTRS       DTSM        ED      GR_EDTC      GTEM       ITT         ND         PR        SPHI       STIT       TENS
#
~A  
# ...
    6470.5  1552.7125     0.9439     0.9918     0.9843   234.7294    -0.0215    90.0313    90.4780    90.4780    52.2550    92.9155    52.2550    52.2274    93.2294    90.4780  -142.2151   191.0372   226.6262     0.0565   -25.4670     0.2497    -0.0448     0.0000  3679.4001
    6471.0  1562.1960     0.9460     0.9918     0.9906   234.7294    -0.0007    90.9711    91.7800    91.7800    52.0400    92.7258    52.0400    52.8693    93.3801    91.7800  -142.2214   185.4292   226.6385     0.0565   -25.4445     0.2631    -0.0476     0.0000  3662.9583
    6471.5  1561.4468     0.9319     0.9924     0.9928   234.7294    -0.0147    92.5191    92.8234    92.8234    50.8404    92.4719    50.8404    52.7135    93.4857    92.8234  -142.2278   176.0796   226.6507     0.0564   -25.4221     0.2857    -0.0634     0.0000  3644.4402
    6472.0  1561.4746     0.9555     0.9860     0.9875   234.7294     0.0130    91.1598    93.3077    93.3077    51.0160    92.3722    51.0160    52.8792    93.2378    93.3077  -142.2341   173.0564   226.6630     0.0564   -25.3997     0.2868    -0.0611     0.0000  3676.7500
    6472.5  1564.3848     0.9605     0.9870     0.9913   234.7294     0.0198    91.3570    93.2349    93.2349    50.7605    91.0814    50.7605    52.6359    91.5529    93.2349  -142.2403   184.9564   226.6752     0.0564   -25.3775     0.2894    -0.0645     0.0000  3705.4802
    6473.0  1563.0300     0.9434     0.9877     0.9920   234.7294     0.0130    90.4246    92.7775    92.7775    50.6435    90.1923    50.6435    52.7407    90.9494    92.7775  -142.2466   202.5545   226.6875     0.0564   -25.3554     0.2878    -0.0661     0.0000  3649.2500
    6473.5  1564.9990     0.9471     0.9917     0.9938   234.7294     0.0222    90.4351    92.6353    92.6353    51.8878    93.5345    51.8878    52.6539    92.2725    92.6353  -142.2528   220.3060   226.6998     0.0563   -25.3332     0.2714    -0.0495     0.0000  3655.2402
    6474.0  1567.1166     0.9448     0.9919     0.9936   234.7294     0.0502    90.0732    92.1078    92.1078    51.5262    93.4875    51.5262    52.6273    92.1013    92.1078  -142.2591   226.6545   226.7120     0.0563   -25.3109     0.2723    -0.0543     0.0000  3704.4167
    6474.5  1568.7112     0.9492     0.9910     0.9939   234.7294     0.0660    89.7712    92.0485    92.0485    51.2409    92.4013    51.2409    52.6433    92.2015    92.0485  -142.2653   225.4893   226.7243     0.0563   -25.2889     0.2755    -0.0580     0.0000  3659.6802
    6475.0  1567.0442     0.9466     0.9902     0.9948   234.7294     0.0660    89.4523    91.7299    91.7299    50.9637    91.8318    50.9637    52.9500    91.9731    91.7299  -142.2717   225.1286   226.7366     0.0563   -25.2663     0.2768    -0.0618     0.0000  3665.1201
    6475.5  1564.0930     0.9508     0.9898     0.9935   234.7294     0.0625    89.4958    90.8255    90.8255    51.4349    91.4995    51.4349    52.8619    91.9345    90.8255  -142.2779   225.9723   226.7488     0.0562   -25.2442     0.2639    -0.0555     0.0000  3699.7502
    6476.0  1564.7194     0.9452     0.9883     0.9937   234.7294     0.0730    89.2061    91.6643    91.6643    51.3446    91.6210    51.3446    53.0260    92.2595    91.6643  -142.2841   228.4355   226.7611     0.0562   -25.2222     0.2714    -0.0567     0.0000  3680.2002
    6476.5  1564.6113     0.9627     0.9867     0.9941   234.7294     0.0555    89.3511    91.5976    91.5976    52.2442    91.2529    52.2442    53.0101    92.0465    91.5976  -142.2904   223.3091   226.7733     0.0562   -25.2001     0.2589    -0.0449     0.0000  3633.3335
    6477.0  1560.4637     0.9351     0.9851     0.9922   234.7294     0.0572    88.7443    91.7303    91.7303    52.1574    92.3279    52.1574    52.6068    93.8541    91.7303  -142.2965   217.3275   226.7856     0.0562   -25.1785     0.2611    -0.0460     0.0000  3627.7500
    6477.5  1561.4279     0.9603     0.9855     0.9902   234.7294     0.0078    88.1326    92.2270    92.2270    52.2421    91.4533    52.2421    52.3007    92.2398    92.2270  -142.3026   212.6511   226.7979     0.0561   -25.1567     0.2638    -0.0450     0.0000  3664.7600
    6478.0  1565.7859     0.9588     0.9876     0.9920   234.7294     0.0078    88.0357    92.2062    92.2062    52.2643    90.2991    52.2643    52.1256    91.7886    92.2062  -142.3089   214.2244   226.8101     0.0561   -25.1345     0.2633    -0.0447     0.0000  3646.0000
    6478.5  1564.9421     0.9596     0.9911     0.9940   234.7294    -0.0112    88.5738    92.4762    92.4762    51.9759    90.2251    51.9759    52.1923    91.4158    92.4762  -142.3150   219.5370   226.8224     0.0561   -25.1128     0.2691    -0.0484     0.0000  3651.1250
    6479.0  1563.3269     0.9517     0.9914     0.9942   234.7294    -0.0078    88.6205    92.6258    92.6258    51.9762    90.1123    51.9762    51.7439    91.5515    92.6258  -142.3211   224.4097   226.8346     0.0561   -25.0911     0.2702    -0.0484     0.0000  3648.8801
    6479.5  1560.2965     0.9275     0.9930     0.9959   234.7294    -0.0459    88.8517    92.3685    92.3685    51.2669    90.1887    51.2669    51.9951    91.5579    92.3685  -142.3274   227.8361   226.8469     0.0560   -25.0690     0.2774    -0.0577     0.0000  3666.6399
    6480.0  1565.9982     0.9034     0.9913     0.9952   234.7294    -0.0234    89.6830    91.4439    91.4439    51.2616    89.7927    51.2616    52.4016    90.6021    91.4439  -142.3336   226.5203   226.8592     0.0560   -25.0470     0.2709    -0.0578     0.0000  3648.1201
    6480.5  1574.5233     0.9065     0.9900     0.9953   234.7294    -0.0234    89.9198    91.1172    91.1172    51.0206    89.3862    51.0206    52.7345    89.1977    91.1172  -142.3397   222.8918   226.8714     0.0560   -25.0254     0.2716    -0.0610     0.0000  3677.7500
    6481.0  1572.5090     0.9203     0.9926     0.9954   234.7294    -0.0285    89.7662    90.9519    90.9519    50.6939    92.0942    50.6939    52.1031    94.0683    90.9519  -142.3457   221.5653   226.8837     0.0560   -25.0039     0.2747    -0.0654     0.0000  3666.4800
    6481.5  1567.2393     0.8845     0.9949     0.9963   234.7294    -0.0129    90.1511    90.8607    90.8607    51.2206    91.6376    51.2206    53.3042    93.6669    90.8607  -142.3519   223.4257   226.8959     0.0559   -24.9822     0.2671    -0.0583     0.0000  3661.5002
    6482.0  1565.8033     0.8110     0.9923     0.9956   234.7294    -0.0043    90.7756    91.1151    91.1151    51.2619    92.1616    51.2619    52.9792    93.5291    91.1151  -142.3579   227.8102   226.9082     0.0559   -24.9607     0.2684    -0.0578     0.0000  3660.4802
    6482.5  1571.0059     0.8402     0.9951     0.9959   234.7294    -0.0008    90.4830    91.3524    91.3524    51.6110    92.5812    51.6110    53.3991    93.2963    91.3524  -142.3641   223.3492   226.9205     0.0559   -24.9389     0.2656    -0.0531     0.0000  3704.0000
    6483.0  1581.0341     0.7937     0.9932     0.9927   234.7294    -0.0043    89.9132    90.7409    90.7409    51.7032    92.1769    51.7032    53.0565    91.6103    90.7409  -142.3701   223.1100   226.9327     0.0559   -24.9175     0.2596    -0.0519     0.0000  3726.6250
    6483.5  1578.2771     0.6900     0.9955     0.9963   234.7294    -0.0147    90.2089    91.1379    91.1379    52.0699    91.9594    52.0699    53.1534    91.1525    91.1379  -142.3762   222.5604   226.9450     0.0558   -24.8959     0.2577    -0.0472     0.0000  3666.4399
    6484.0  1569.5791     0.8079     0.9960     0.9963   234.7294    -0.0112    90.2242    91.1658    91.1658    53.1993    91.5385    53.1993    54.7703    90.4029    91.1658  -142.3822   216.8702   226.9572     0.0558   -24.8746     0.2418    -0.0329     0.0000  3643.3201
    6484.5  1570.3461     0.7679     0.9933     0.9945   234.7294     0.0078    89.4746    90.4174    90.4174    53.4471    92.6480    53.4471    55.0773    93.0316    90.4174  -142.3881   212.0529   226.9695     0.0558   -24.8537     0.2315    -0.0299     0.0000  3659.2800
    6485.0  1567.3776     0.7928     0.9904     0.9946   234.7294     0.0060    89.0205    90.6119    90.6119    52.4415    91.9489    52.4415    52.5255    91.5556    90.6119  -142.3943   209.1399   226.9818     0.0557   -24.8318     0.2482    -0.0424     0.0000  3669.5000
