~VERSION INFORMATION
VERS.           2.0   :CWLS Log ASCII Standard - VERSION 2.0
WRAP.           NO    :One Line per depth step
PROD.  Schlumberger   :LAS Producer
PROG.  DLIS to ASCII 19C2-270                          :LAS Program name and version
CREA.        2017/09/15 13:23                          :LAS Creation date {YYYY/MM/DD hh:mm}
DLIS_CREA.  2017-Sep-15 12:50                          :DLIS Creation date and time {YYYY-MMM-DD hh:mm}
SOURCE.     D5RL-00187_University of Utah_ME-ESW1_Run1_DSI_DoNotDistribute.dlis  :DLIS File Name
FILE-ID.     ConPr_R01_L001Up_DSI_DLIS_Custom          :File Identification Number
#--------------------------------------------------
~WELL INFORMATION
#MNEM.UNIT      DATA             DESCRIPTION
#---- ------ --------------   -----------------------------
STRT .F      2150.5          :START DEPTH     
STOP .F      7569.0          :STOP DEPTH     
STEP .F       0.5            :STEP     
NULL .          -999.25      :NULL VALUE
COMP .        University of Utah                       :COMPANY
WELL .        MU-ESW1                                  :WELL
FLD  .        None                                     :FIELD
LOC  .        From the S4 Corner of Sec. 32, T26S, R9W      :LOCATION
CNTY .        Beaver                                   :COUNTY
STAT .        Utah                                     :STATE
CTRY .        USA                                      :COUNTRY
API  .        1771001M00                               :API NUMBER
UWI  .        1771001M00                               :UNIQUE WELL ID
DATE .        15-Sep-2017                              :LOG DATE {DD-MMM-YYYY}
SRVC .        Schlumberger                             :SERVICE COMPANY
LATI .DEG     38.500562 degrees                        :LATITUDE
LONG .DEG     -112.88703 degrees                       :LONGITUDE
GDAT .                                                 :GeoDetic Datum
SECT .        32                                       :Section
RANG .        9W                                       :Range
TOWN .        26S                                      :Township
#-----------------------------------------------------------------------------
~PARAMETER INFORMATION
#MNEM.UNIT    VALUE                      DESCRIPTION
#---- -----   --------------------       ------------------------
CN   .        University of Utah         :Company Name
WN   .        MU-ESW1                    :Well Name
FN   .        None                       :Field Name
FL   .        From the S4 Corner of Sec. 32  T26S  R9W :Field Location
FL1  .        SHL  304' FNL & 522' FEL   :Field Location, Line 1
COUN .        Beaver                     :County or Parish
STAT .        Utah                       :State or Province
NATI .        USA                        :Nation
DATE .        15-Sep-2017                :Tools Above Rotary Table Date
APIN .        1771001M00                 :API Well Number
SECT .        32                         :Section
TOWN .        26S                        :Township
RANG .        9W                         :Range
DMF  .        KB                         :Drilling Measured From (Name of Drilling Elevation Reference)
LMF  .        KB                         :Logging Measured From (Name of Logging Elevation Reference)
PDAT .        GL                         :Permanent Datum
ENGI .        A.BLOCHOWICZ               :Engineer s Name
WITN .        JOE MOORE                  :Witness s Name
LATI .        38.500562 degrees          :Latitude
LONG .        -112.88703 degrees         :Longitude
LUL  .        Fort Morgan  CO            :Logging Unit Location
LUN  .        9108                       :Logging Unit Number
RUN  .        ONE.1                      :Run Number
SON  .        D5RL-00187                 :Service Order Number
BHT  .DEGF     253.00000                 :Bottom Hole Temperature
BS   .IN         8.75000                 :Bit Size
MDEN .G/C3       2.71000                 :Matrix Density for Density Porosity
DFD  .LB/G       8.60000                 :Drilling Fluid Density
DFV  .S         34.00000                 :Drilling Fluid Viscosity
DFL  .C3        10.20000                 :Drilling Fluid Loss
RMFS .OHMM       1.25000                 :Resistivity of Mud Filtrate Sample
EKB  .F       5557.50000                 :Elevation of Kelly Bushing
EGL  .F       5536.00000                 :Elevation of Ground Level
BLI  .F       7546.00000                 :Bottom Log Interval
BSAL .PPM      550.00000                 :Borehole Salinity
FLEV .F          8.00000                 :Depth of Drilling Fluid Level to LMF (Log Measured From)
MCST .DEGF      74.50000                 :Mudcake Sample Temperature
MFST .DEGF      74.50000                 :Mud Filtrate Sample Temperature
MRT  .DEGF     253.00000                 :Maximum Recorded Temperature
MST  .DEGF      74.50000                 :Mud Sample Temperature
RMCS .OHMM       1.69000                 :Resistivity of Mud Cake Sample
RMS  .OHMM       1.47000                 :Resistivity of Mud Sample
RW   .OHMM       1.00000                 :Connate Water Resistivity
TDD  .F       7536.00049                 :Driller Total Depth
TDL  .F       7536.00049                 :Logger Total Depth
TLI  .F       2175.00000                 :Top Log Interval
HIDE .                                   :Header Identifier
MATR .        LIME                       :Rock Matrix for Neutron Porosity Corrections
FNUM .           1.00000                 :F-Numerator for Formation Factor Formula
FEXP .           2.00000                 :Exponent "m" for Formation Factor Formula
DFT  .        WBM                        :Drilling Fluid Type
DFPH .           8.50000                 :Drilling Fluid pH
MCSS .        Calculated                 :Mudcake Sample Source
MFSS .        Calculated                 :Mud Filtrate Sample Source
FD   .G/C3       1.00000                 :Fluid Density
MSS  .        Active Tank                :Mud Sample Source
OS1  .                                   :Other Services Line 1
OS2  .                                   :Other Services Line 2
OS3  .                                   :Other Services Line 3
OS4  .                                   :Other Services Line 4
OS5  .                                   :Other Services Line 5
R1   .        Thank you for choosing Schlumberger! :Remarks Line 1
R2   .        Tool string run as per tool sketch and client logging program. :Remarks Line 2
R3   .        TD  7546 ft. CS  2175 ft   :Remarks Line 3
R4   .                                   :Remarks Line 4
R5   .                                   :Remarks Line 5
R6   .                                   :Remarks Line 6
R7   .                                   :Remarks Line 7
R8   .        2 CMEZs run on toolstring for centralization. :Remarks Line 8
TCS  .        22 00 00                   :Time Circulation Stopped
TLAB .        02 05 00                   :Time Logger At Bottom
EPD  .C3         5536.000000             :Elevation of Permanent Datum above Mean Sea Level
APD  .F          21.500000               :Elevation of Depth Reference (LMF) above Permanent Datum
#-----------------------------------------------------------------------------
~CURVE INFORMATION
#MNEM.UNIT   API CODE                                  DESCRIPTION
#---- -----  --------                                  -----------------------
DEPT .F                                                :DEPTH (BOREHOLE) {F10.1}
CDF  .LBF                                              :Calibrated Downhole Force {F11.4}
CHRP .                                                 :Peak Coherence, Receiver Array, Compressional - Monopole P S {F11.4}
CHR1 .                                                 :Peak Coherence, Receiver Array - Lower Dipole {F11.4}
CHR2 .                                                 :Peak Coherence, Receiver Array - Upper Dipole {F11.4}
CTEM .DEGF                                             :Cartridge Temperature {F11.4}
DCAL .IN                                               :Differential Caliper {F11.4}
DT1R .US/F                                             :Delta-T Shear, Receiver Array - Lower Dipole {F11.4}
DT2  .US/F                                             :Delta-T Shear - Upper Dipole {F11.4}
DT2R .US/F                                             :Delta-T Shear, Receiver Array - Upper Dipole {F11.4}
DT4P .US/F                                             :Delta-T Compressional - Monopole P S {F11.4}
DT4S .US/F                                             :Delta-T Shear - Monopole P S {F11.4}
DTCO .US/F                                             :Delta-T Compressional {F11.4}
DTRP .US/F                                             :Delta-T Compressional, Receiver Array - Monopole P S {F11.4}
DTRS .US/F                                             :Delta-T Shear, Receiver Array - Monopole P S {F11.4}
DTSM .US/F                                             :Delta-T Shear {F11.4}
ED   .F                                                :East Departure {F11.4}
GR_EDTC.GAPI                                           :Gamma Ray {F11.4}
GTEM .DEGF                                             :Generalized Borehole Temperature {F11.4}
ITT  .S                                                :Integrated Transit Time {F11.4}
ND   .F                                                :North Departure {F11.4}
PR   .                                                 :Poisson s Ratio {F11.4}
SPHI .CFCF                                             :Sonic Porosity {F11.4}
STIT .F                                                :Stuck Tool Indicator, Total {F11.4}
TENS .LBF                                              :Cable Tension {F11.4}
#-----------------------------------------------------------------------------
# 
#     DEPT       CDF        CHRP       CHR1       CHR2       CTEM       DCAL       DT1R       DT2        DT2R       DT4P       DT4S       DTCO       DTRP       DTRS       DTSM        ED      GR_EDTC      GTEM       ITT         ND         PR        SPHI       STIT       TENS
#
~A  
# ...
    3590.5  1533.4174     0.8552     0.9841     0.9888   195.2000    -0.0059   101.9658    99.3139    99.3139    55.1248    96.1308    55.1248    53.6718    97.2841    99.3139     2.5424   163.1514   156.1190     0.2095   -31.4378     0.2774    -0.0099     0.0000  2489.0000
    3591.0  1531.1527     0.7892     0.9859     0.9912   195.2000    -0.0094   100.6639    97.9991    97.9991    54.8282    94.8109    54.8282    51.2771    93.2556    97.9991     2.5351   162.1907   156.1313     0.2095   -31.4447     0.2722    -0.0134     0.0000  2529.7500
    3591.5  1535.7987     0.7541     0.9873     0.9909   195.2000    -0.0006    99.0846    95.7779    95.7779    54.0275    97.5845    54.0275    49.6986    95.9453    95.7779     2.5277   162.4811   156.1436     0.2095   -31.4516     0.2666    -0.0228     0.0000  2486.6250
    3592.0  1542.8032     0.8792     0.9828     0.9905   195.2000    -0.0077    97.8911    95.5980    95.5980    55.2258    97.5112    55.2258    50.3455    96.4248    95.5980     2.5203   151.1094   156.1559     0.2094   -31.4585     0.2496    -0.0088     0.0000  2546.7085
    3592.5  1539.0377     0.8602     0.9843     0.9917   195.2000    -0.0077    97.6254    96.0907    96.0907    55.9047    98.2818    55.9047    51.8933    96.2529    96.0907     2.5129   141.9460   156.1682     0.2094   -31.4654     0.2442    -0.0011     0.0000  2513.3333
    3593.0  1535.8525     0.8987     0.9836     0.9897   195.2000     0.0389    98.4264    97.4351    97.4351    57.2756    98.4563    57.2756    54.0690    96.6551    97.4351     2.5055   122.6447   156.1804     0.2094   -31.4724     0.2360     0.0139     0.0000  2484.8752
    3593.5  1538.2911     0.8768     0.9842     0.9853   195.2000     0.0716    99.7405   100.5111   100.5111    56.5310   100.5183    56.5310    53.9493    96.8308   100.5111     2.4980   109.1659   156.1927     0.2094   -31.4793     0.2686     0.0059     0.0000  2494.8750
    3594.0  1540.8295     0.8485     0.9850     0.9843   195.2000     0.0939   100.3829   101.0479   101.0479    57.4356   102.1477    57.4356    56.8925    98.5491   101.0479     2.4904    97.8362   156.2050     0.2093   -31.4863     0.2614     0.0156     0.0000  2509.4167
    3594.5  1546.9299     0.9138     0.9908     0.9865   195.2000     0.1585   101.5273   102.0163   102.0163    57.5136   106.1574    57.5136    56.5078   104.0639   102.0163     2.4828    91.5457   156.2172     0.2093   -31.4933     0.2670     0.0164     0.0000  2533.6665
    3595.0  1537.8434     0.8455     0.9882     0.9866   195.2000     0.1674   102.9131   102.4266   102.4266    56.8406   103.6355    56.8406    54.8252   100.5168   102.4266     2.4752    89.0450   156.2295     0.2093   -31.5003     0.2775     0.0092     0.0000  2541.7917
    3595.5  1551.6829     0.7700     0.9869     0.9793   195.2000     0.1095   103.2994   102.3917   102.3917    57.0490   103.4166    57.0490    55.3724   100.8693   102.3917     2.4676    86.0462   156.2418     0.2092   -31.5074     0.2749     0.0115     0.0000  2561.9167
    3596.0  1539.6136     0.8666     0.9837     0.9824   195.2000     0.0848   103.5661   102.6432   102.6432    57.9212   104.7955    57.9212    56.6178   102.8377   102.6432     2.4599    90.3796   156.2540     0.2092   -31.5144     0.2664     0.0207     0.0000  2556.8333
    3596.5  1543.9473     0.9192     0.9863     0.9858   195.2000     0.1475   103.6258   103.0802   103.0802    57.1742   108.1858    57.1742    54.5484   106.9130   103.0802     2.4521   101.1773   156.2663     0.2092   -31.5215     0.2778     0.0128     0.0000  2528.9583
    3597.0  1539.9728     0.8532     0.9862     0.9777   195.2000     0.1589   104.4019   103.6266   103.6266    56.6539   111.0842    56.6539    52.9171   113.2616   103.6266     2.4444   115.4653   156.2786     0.2092   -31.5286     0.2868     0.0072     0.0000  2484.1250
    3597.5  1553.5991     0.7806     0.9861     0.9676   195.2000     0.1328   105.5836   101.1314   101.1314    55.6706   111.5404    55.6706    51.6476   113.3404   101.1314     2.4366   130.7357   156.2908     0.2091   -31.5357     0.2826    -0.0037     0.0000  2526.7500
    3598.0  1543.4495     0.6874     0.9897     0.9718   195.2000     0.1726   105.6748   101.5387   101.5387    57.4718   116.9598    57.4718    53.9910   117.7567   101.5387     2.4289   135.2443   156.3031     0.2091   -31.5428     0.2643     0.0160     0.0000  2527.4167
    3598.5  1559.7355     0.8604     0.9912     0.9757   195.2000     0.1779   105.8946   103.7188   103.7188    57.7010   122.2591    57.7010    55.7443   122.3178   103.7188     2.4209   126.9113   156.3154     0.2091   -31.5500     0.2759     0.0184     0.0000  2555.8401
    3599.0  1547.9253     0.8392     0.9908     0.9733   195.2000     0.1728   107.2361   105.8004   105.8004    58.1595   117.1072    58.1595    58.5003   112.3424   105.8004     2.4129   109.7953   156.3277     0.2090   -31.5573     0.2835     0.0232     0.0000  2508.4583
    3599.5  1550.4625     0.8131     0.9906     0.9643   195.2000     0.2551   107.6934   108.8636   108.8636    60.1085   116.4013    60.1085    61.6393   114.3025   108.8636     2.4052    90.0005   156.3399     0.2090   -31.5643     0.2807     0.0427     0.0000  2548.2610
    3600.0  1543.7019     0.7677     0.9939     0.9654   195.2000     0.3426   107.7795   110.8549   110.8549    59.0617   116.6390    59.0617    57.4078   114.5744   110.8549     2.3974    77.9976   156.3522     0.2090   -31.5713     0.3018     0.0324     0.0000  2513.2500
    3600.5  1561.8301     0.7849     0.9929     0.9638   195.2000     0.3839   108.6367   111.3249   111.3249    59.1681   108.3567    59.1681    60.5869   112.7936   111.3249     2.3894    71.4025   156.3645     0.2090   -31.5785     0.3032     0.0335     0.0000  2506.0000
    3601.0  1558.4874     0.7710     0.9902     0.9686   195.2000     0.3434   108.5830   111.7344   111.7344    57.4640   104.0360    57.4640    62.3615   108.0937   111.7344     2.3814    69.9365   156.3767     0.2089   -31.5857     0.3202     0.0159     0.0000  2589.0415
    3601.5  1557.6908     0.8819     0.9810     0.9834   195.2000     0.2601   104.6681   107.3519   107.3519    53.6190   100.5778    53.6190    56.5158   104.7951   107.3519     2.3734    66.6469   156.3890     0.2089   -31.5929     0.3338    -0.0278     0.0000  2641.5417
    3602.0  1540.0574     0.7985     0.9796     0.9900   195.2000     0.2412   101.6505   104.6301   104.6301    52.1887    97.7681    52.1887    55.2241   102.7307   104.6301     2.3654    62.6975   156.4013     0.2089   -31.6002     0.3344    -0.0456     0.0000  2592.1599
    3602.5  1557.1807     0.8142     0.9792     0.9834   195.2000     0.2272    99.2901   102.9920   102.9920    51.9057    98.0044    51.9057    54.6630   103.2409   102.9920     2.3572    61.4009   156.4135     0.2088   -31.6075     0.3298    -0.0493     0.0000  2579.5835
    3603.0  1548.3942     0.7968     0.9786     0.9782   195.2000     0.2107    98.3747   101.6052   101.6052    52.3053    95.7964    52.3053    54.2300    98.1823   101.6052     2.3491    63.8716   156.4258     0.2088   -31.6147     0.3197    -0.0441     0.0000  2577.5601
    3603.5  1544.0352     0.7071     0.9865     0.9790   195.2000     0.2136    97.0793    97.8677    97.8677    52.5363    95.8975    52.5363    53.4316    96.7971    97.8677     2.3409    69.1572   156.4381     0.2088   -31.6221     0.2976    -0.0412     0.0000  2576.2917
    3604.0  1544.0503     0.7441     0.9869     0.9786   195.2000     0.1983    96.0674    97.5968    97.5968    52.6628    97.1121    52.6628    53.4588    97.6465    97.5968     2.3328    80.9590   156.4504     0.2088   -31.6293     0.2946    -0.0396     0.0000  2574.4167
    3604.5  1550.2274     0.7949     0.9898     0.9760   195.2000     0.1353    96.7421    97.1810    97.1810    53.1235    97.1621    53.1235    53.1865    97.5418    97.1810     2.3247   102.0611   156.4626     0.2087   -31.6365     0.2869    -0.0338     0.0000  2613.0000
    3605.0  1542.2084     0.7515     0.9908     0.9760   195.2000     0.1368    97.6856    97.1810    97.1810    52.8443    99.1806    52.8443    51.5000    99.3660    97.1810     2.3164   118.1010   156.4749     0.2087   -31.6439     0.2901    -0.0373     0.0000  2579.6799
