~VERSION INFORMATION
VERS.           2.0   :CWLS Log ASCII Standard - VERSION 2.0
WRAP.           NO    :One Line per depth step
PROD.  Schlumberger   :LAS Producer
PROG.  DLIS to ASCII 19C2-270                          :LAS Program name and version
CREA.        2017/09/15 13:23                          :LAS Creation date {YYYY/MM/DD hh:mm}
DLIS_CREA.  2017-Sep-15 12:50                          :DLIS Creation date and time {YYYY-MMM-DD hh:mm}
SOURCE.     D5RL-00187_University of Utah_ME-ESW1_Run1_DSI_DoNotDistribute.dlis  :DLIS File Name
FILE-ID.     ConPr_R01_L001Up_DSI_DLIS_Custom          :File Identification Number
#--------------------------------------------------
~WELL INFORMATION
#MNEM.UNIT      DATA             DESCRIPTION
#---- ------ --------------   -----------------------------
STRT .F      2150.5          :START DEPTH     
STOP .F      7569.0          :STOP DEPTH     
STEP .F       0.5            :STEP     
NULL .          -999.25      :NULL VALUE
COMP .        University of Utah                       :COMPANY
WELL .        MU-ESW1                                  :WELL
FLD  .        None                                     :FIELD
LOC  .        From the S4 Corner of Sec. 32, T26S, R9W      :LOCATION
CNTY .        Beaver                                   :COUNTY
STAT .        Utah                                     :STATE
CTRY .        USA                                      :COUNTRY
API  .        1771001M00                               :API NUMBER
UWI  .        1771001M00                               :UNIQUE WELL ID
DATE .        15-Sep-2017                              :LOG DATE {DD-MMM-YYYY}
SRVC .        Schlumberger                             :SERVICE COMPANY
LATI .DEG     38.500562 degrees                        :LATITUDE
LONG .DEG     -112.88703 degrees                       :LONGITUDE
GDAT .                                                 :GeoDetic Datum
SECT .        32                                       :Section
RANG .        9W                                       :Range
TOWN .        26S                                      :Township
#-----------------------------------------------------------------------------
~PARAMETER INFORMATION
#MNEM.UNIT    VALUE                      DESCRIPTION
#---- -----   --------------------       ------------------------
CN   .        University of Utah         :Company Name
WN   .        MU-ESW1                    :Well Name
FN   .        None                       :Field Name
FL   .        From the S4 Corner of Sec. 32  T26S  R9W :Field Location
FL1  .        SHL  304' FNL & 522' FEL   :Field Location, Line 1
COUN .        Beaver                     :County or Parish
STAT .        Utah                       :State or Province
NATI .        USA                        :Nation
DATE .        15-Sep-2017                :Tools Above Rotary Table Date
APIN .        1771001M00                 :API Well Number
SECT .        32                         :Section
TOWN .        26S                        :Township
RANG .        9W                         :Range
DMF  .        KB                         :Drilling Measured From (Name of Drilling Elevation Reference)
LMF  .        KB                         :Logging Measured From (Name of Logging Elevation Reference)
PDAT .        GL                         :Permanent Datum
ENGI .        A.BLOCHOWICZ               :Engineer s Name
WITN .        JOE MOORE                  :Witness s Name
LATI .        38.500562 degrees          :Latitude
LONG .        -112.88703 degrees         :Longitude
LUL  .        Fort Morgan  CO            :Logging Unit Location
LUN  .        9108                       :Logging Unit Number
RUN  .        ONE.1                      :Run Number
SON  .        D5RL-00187                 :Service Order Number
BHT  .DEGF     253.00000                 :Bottom Hole Temperature
BS   .IN         8.75000                 :Bit Size
MDEN .G/C3       2.71000                 :Matrix Density for Density Porosity
DFD  .LB/G       8.60000                 :Drilling Fluid Density
DFV  .S         34.00000                 :Drilling Fluid Viscosity
DFL  .C3        10.20000                 :Drilling Fluid Loss
RMFS .OHMM       1.25000                 :Resistivity of Mud Filtrate Sample
EKB  .F       5557.50000                 :Elevation of Kelly Bushing
EGL  .F       5536.00000                 :Elevation of Ground Level
BLI  .F       7546.00000                 :Bottom Log Interval
BSAL .PPM      550.00000                 :Borehole Salinity
FLEV .F          8.00000                 :Depth of Drilling Fluid Level to LMF (Log Measured From)
MCST .DEGF      74.50000                 :Mudcake Sample Temperature
MFST .DEGF      74.50000                 :Mud Filtrate Sample Temperature
MRT  .DEGF     253.00000                 :Maximum Recorded Temperature
MST  .DEGF      74.50000                 :Mud Sample Temperature
RMCS .OHMM       1.69000                 :Resistivity of Mud Cake Sample
RMS  .OHMM       1.47000                 :Resistivity of Mud Sample
RW   .OHMM       1.00000                 :Connate Water Resistivity
TDD  .F       7536.00049                 :Driller Total Depth
TDL  .F       7536.00049                 :Logger Total Depth
TLI  .F       2175.00000                 :Top Log Interval
HIDE .                                   :Header Identifier
MATR .        LIME                       :Rock Matrix for Neutron Porosity Corrections
FNUM .           1.00000                 :F-Numerator for Formation Factor Formula
FEXP .           2.00000                 :Exponent "m" for Formation Factor Formula
DFT  .        WBM                        :Drilling Fluid Type
DFPH .           8.50000                 :Drilling Fluid pH
MCSS .        Calculated                 :Mudcake Sample Source
MFSS .        Calculated                 :Mud Filtrate Sample Source
FD   .G/C3       1.00000                 :Fluid Density
MSS  .        Active Tank                :Mud Sample Source
OS1  .                                   :Other Services Line 1
OS2  .                                   :Other Services Line 2
OS3  .                                   :Other Services Line 3
OS4  .                                   :Other Services Line 4
OS5  .                                   :Other Services Line 5
R1   .        Thank you for choosing Schlumberger! :Remarks Line 1
R2   .        Tool string run as per tool sketch and client logging program. :Remarks Line 2
R3   .        TD  7546 ft. CS  2175 ft   :Remarks Line 3
R4   .                                   :Remarks Line 4
R5   .                                   :Remarks Line 5
R6   .                                   :Remarks Line 6
R7   .                                   :Remarks Line 7
R8   .        2 CMEZs run on toolstring for centralization. :Remarks Line 8
TCS  .        22 00 00                   :Time Circulation Stopped
TLAB .        02 05 00                   :Time Logger At Bottom
EPD  .C3         5536.000000             :Elevation of Permanent Datum above Mean Sea Level
APD  .F          21.500000               :Elevation of Depth Reference (LMF) above Permanent Datum
#-----------------------------------------------------------------------------
~CURVE INFORMATION
#MNEM.UNIT   API CODE                                  DESCRIPTION
#---- -----  --------                                  -----------------------
DEPT .F                                                :DEPTH (BOREHOLE) {F10.1}
CDF  .LBF                                              :Calibrated Downhole Force {F11.4}
CHRP .                                                 :Peak Coherence, Receiver Array, Compressional - Monopole P S {F11.4}
CHR1 .                                                 :Peak Coherence, Receiver Array - Lower Dipole {F11.4}
CHR2 .                                                 :Peak Coherence, Receiver Array - Upper Dipole {F11.4}
CTEM .DEGF                                             :Cartridge Temperature {F11.4}
DCAL .IN                                               :Differential Caliper {F11.4}
DT1R .US/F                                             :Delta-T Shear, Receiver Array - Lower Dipole {F11.4}
DT2  .US/F                                             :Delta-T Shear - Upper Dipole {F11.4}
DT2R .US/F                                             :Delta-T Shear, Receiver Array - Upper Dipole {F11.4}
DT4P .US/F                                             :Delta-T Compressional - Monopole P S {F11.4}
DT4S .US/F                                             :Delta-T Shear - Monopole P S {F11.4}
DTCO .US/F                                             :Delta-T Compressional {F11.4}
DTRP .US/F                                             :Delta-T Compressional, Receiver Array - Monopole P S {F11.4}
DTRS .US/F                                             :Delta-T Shear, Receiver Array - Monopole P S {F11.4}
DTSM .US/F                                             :Delta-T Shear {F11.4}
ED   .F                                                :East Departure {F11.4}
GR_EDTC.GAPI                                           :Gamma Ray {F11.4}
GTEM .DEGF                                             :Generalized Borehole Temperature {F11.4}
ITT  .S                                                :Integrated Transit Time {F11.4}
ND   .F                                                :North Departure {F11.4}
PR   .                                                 :Poisson s Ratio {F11.4}
SPHI .CFCF                                             :Sonic Porosity {F11.4}
STIT .F                                                :Stuck Tool Indicator, Total {F11.4}
TENS .LBF                                              :Cable Tension {F11.4}
#-----------------------------------------------------------------------------
# 
#     DEPT       CDF        CHRP       CHR1       CHR2       CTEM       DCAL       DT1R       DT2        DT2R       DT4P       DT4S       DTCO       DTRP       DTRS       DTSM        ED      GR_EDTC      GTEM       ITT         ND         PR        SPHI       STIT       TENS
#
~A  
# ...
    3950.5  1559.6448     0.8803     0.9559     0.9580   201.1294     0.3657   100.4938   103.5334   103.5334    52.0940    96.4922    52.0940    51.7160    96.9399   103.5334   -11.4670    55.4808   164.9466     0.1899   -37.7606     0.3305    -0.0469     0.0000  2726.8401
    3951.0  1583.5524     0.8721     0.9270     0.9552   201.1294     0.3784   103.1604   101.0789   101.0789    52.4481    97.9530    52.4481    51.9743    95.7647   101.0789   -11.4986    50.3753   164.9588     0.1899   -37.7674     0.3158    -0.0423     0.0000  2775.7083
    3951.5  1541.3888     0.9132     0.9117     0.9543   201.1294     0.4068   102.6240   103.9392   103.9392    52.9703    97.4543    52.9703    53.9343    95.0640   103.9392   -11.5302    46.4129   164.9711     0.1899   -37.7742     0.3246    -0.0357     0.0000  2709.2000
    3952.0  1554.8107     0.9541     0.8466     0.9576   201.1294     0.4511    93.2386   103.1824   103.1824    51.5967    95.6163    51.5967    51.5330    97.2546   103.1824   -11.5620    44.4555   164.9833     0.1899   -37.7810     0.3333    -0.0533     0.0000  2747.8750
    3952.5  1549.3422     0.8571     0.9607     0.7176   201.1294     0.4729    96.4568   106.8485   106.8485    50.7426    99.6407    50.7426    51.6566   103.6554   106.8485   -11.5938    44.5246   164.9956     0.1898   -37.7878     0.3544    -0.0648     0.0000  2750.9600
    3953.0  1564.8832     0.8781     0.9535     0.8909   201.1294     0.4597    97.2125    97.9018    97.9018    48.1967    98.5530    48.1967    47.5072   104.7409    97.9018   -11.6256    47.2363   165.0078     0.1898   -37.7946     0.3401    -0.1012     0.0000  2772.4167
    3953.5  1551.9214     0.9168     0.9563     0.9419   201.1294     0.5229    96.7907    98.1056    98.1056    47.9613    94.3849    47.9613    50.0733    98.2176    98.1056   -11.6575    54.2786   165.0201     0.1898   -37.8014     0.3430    -0.1048     0.0000  2774.9199
    3954.0  1564.1409     0.9001     0.9759     0.7537   201.1294     0.5300    98.9136    97.3702    97.3702    48.5876    95.5753    48.5876    51.7858   101.6836    97.3702   -11.6897    55.9313   165.0323     0.1898   -37.8082     0.3342    -0.0953     0.0000  2770.4583
    3954.5  1556.8008     0.8169     0.9296     0.8268   201.1294     0.5158   100.0369   103.2706   103.2706    49.6729    96.6003    49.6729    52.9212   104.3422   103.2706   -11.7217    56.3960   165.0446     0.1897   -37.8150     0.3495    -0.0796     0.0000  2716.5200
    3955.0  1562.6910     0.7578     0.6755     0.5915   201.1294     0.5053    95.7678   111.1324   111.1324    50.4290    95.0920    50.4290    53.1052   102.3796   111.1324   -11.7540    51.9846   165.0568     0.1897   -37.8218     0.3703    -0.0690     0.0000  2755.8750
    3955.5  1537.4435     0.8232     0.8819     0.3843   201.1294     0.4888    94.0295   117.5684   117.5684    51.5767    95.8617    51.5767    53.3596   105.5702   117.5684   -11.7861    51.0060   165.0690     0.1897   -37.8285     0.3808    -0.0536     0.0000  2704.8000
    3956.0  1538.6006     0.7521     0.5263     0.8961   201.1294     0.4827    92.9796   101.0714   101.0714    52.5191   100.9345    52.5191    51.8534   110.0943   101.0714   -11.8182    50.9263   165.0813     0.1897   -37.8352     0.3151    -0.0414     0.0000  2775.7083
    3956.5  1533.2335     0.7790     0.8170     0.9239   201.1294     0.4589    94.4659   101.0102   101.0102    53.4347   100.9593    53.4347    56.5322   109.5221   101.0102   -11.8504    55.2154   165.0935     0.1896   -37.8419     0.3057    -0.0300     0.0000  2755.8000
    3957.0  1550.8107     0.8871     0.8358     0.9239   201.3055     0.4000    94.0355   101.0102   101.0102    53.2306    98.8435    53.2306    54.8732   104.5961   101.0102   -11.8830    59.7221   165.1058     0.1896   -37.8487     0.3078    -0.0325     0.0000  2706.8335
    3957.5  1541.3574     0.8242     0.7266     0.8252   201.5247     0.2818    95.3293   100.6860   100.6860    54.0181    95.3924    54.0181    54.7260    97.4006   100.6860   -11.9155    66.6993   165.1180     0.1896   -37.8554     0.2979    -0.0229     0.0000  2654.6399
    3958.0  1535.0560     0.9014     0.6174     0.8432   201.5247     0.1991    96.6231    89.6746    89.6746    52.7279    90.1183    52.7279    52.9057    91.0867    89.6746   -11.9481    66.6943   165.1303     0.1896   -37.8622     0.2358    -0.0388     0.0000  2689.1667
    3958.5  1516.6014     0.9462     0.7548     0.7805   201.7882     0.1648    95.7611    99.6773    99.6773    51.9941    91.9334    51.9941    52.7306    93.6841    99.6773   -11.9809    64.6420   165.1425     0.1895   -37.8689     0.3131    -0.0482     0.0000  2689.7200
    3959.0  1532.6345     0.8998     0.7184     0.7178   201.8409     0.1159    97.1059    90.4789    90.4789    51.8030    93.0391    51.8030    50.5548    92.0884    90.4789   -12.0135    58.6277   165.1548     0.1895   -37.8756     0.2562    -0.0506     0.0000  2674.3333
    3959.5  1530.5933     0.8665  -999.2500     0.8728   202.1951     0.1541    97.9164    96.7222    96.7222    51.8871    90.0940    51.8871    50.0034    92.3663    96.7222   -12.0462    55.8686   165.1670     0.1895   -37.8823     0.2980    -0.0495     0.0000  2710.5200
    3960.0  1538.6489     0.9026     0.6456     0.7310   202.0979     0.2049   101.7502   100.2804   100.2804    53.3149    98.5116    53.3149    50.6540    98.2993   100.2804   -12.0788    51.8077   165.1793     0.1894   -37.8890     0.3030    -0.0315     0.0000  2720.5835
    3960.5  1540.3326     0.8841     0.5155     0.6763   202.1861     0.4150   106.4478   107.6693   107.6693    53.4178   101.8936    53.4178    49.8789   103.5799   107.6693   -12.1116    53.5062   165.1915     0.1894   -37.8956     0.3367    -0.0302     0.0000  2702.2402
    3961.0  1542.7976     0.8783     0.5588     0.8630   202.5525     0.4342    92.1406   105.4701   105.4701    54.5818   102.2108    54.5818    50.0280   104.1368   105.4701   -12.1451    53.6021   165.2037     0.1894   -37.9024     0.3171    -0.0162     0.0000  2675.2002
    3961.5  1566.1395     0.8147     0.3728     0.7760   202.6166     0.3495   100.5260   106.0075   106.0075    57.3641   107.0647    57.3641    55.3885   110.8474   106.0075   -12.1781    56.1907   165.2160     0.1894   -37.9091     0.2930     0.0149     0.0000  2769.1667
    3962.0  1560.3103     0.8139     0.9425     0.9396   202.9493     0.3074   104.4056   109.1578   109.1578    57.2306   108.3004    57.2306    57.3814   109.9105   109.1578   -12.2110    56.5620   165.2282     0.1893   -37.9157     0.3105     0.0134     0.0000  2723.3201
    3962.5  1536.9991     0.7759     0.8540     0.7888   203.0268     0.4516   105.9685   104.5620   104.5620    58.6830   108.3185    58.6830    58.8312   110.9553   104.5620   -12.2440    58.2792   165.2405     0.1893   -37.9224     0.2701     0.0286     0.0000  2684.2085
    3963.0  1554.4761     0.7516     0.8522     0.8657   203.1059     0.3458   102.4425   112.8112   112.8112    58.1046   107.8871    58.1046    57.5628   108.0558   112.8112   -12.2773    58.3856   165.2527     0.1893   -37.9290     0.3195     0.0226     0.0000  2784.6802
    3963.5  1555.4938     0.6038     0.8131     0.9434   203.1059     0.3447   104.4394   113.7422   113.7422    60.0890   106.3569    60.0890    59.2808   104.9798   113.7422   -12.3104    54.7595   165.2650     0.1893   -37.9356     0.3064     0.0425     0.0000  2729.0833
    3964.0  1550.6597     0.6319     0.8736     0.8219   203.1059     0.3988   105.5843   110.3226   110.3226    55.0605   108.5900    55.0605    54.7531   111.1907   110.3226   -12.3437    50.2830   165.2772     0.1892   -37.9423     0.3341    -0.0107     0.0000  2714.6001
    3964.5  1523.9867     0.6991     0.8756     0.8894   203.1059     0.2832   104.5845   107.5740   107.5740    54.4413   103.1963    54.4413    56.6534   102.8385   107.5740   -12.3772    49.0811   165.2895     0.1892   -37.9489     0.3278    -0.0179     0.0000  2685.7917
    3965.0  1579.6121     0.7177     0.5544     0.7927   203.1059     0.1657   104.5267   116.8205   116.8205    54.3226   103.0620    54.3226    52.8474   104.8700   116.8205   -12.4109    49.4503   165.3017     0.1892   -37.9556     0.3621    -0.0193     0.0000  2766.7600
