~VERSION INFORMATION
VERS.           2.0   :CWLS Log ASCII Standard - VERSION 2.0
WRAP.           NO    :One Line per depth step
PROD.  Schlumberger   :LAS Producer
PROG.  DLIS to ASCII 19C2-270                          :LAS Program name and version
CREA.        2017/09/15 13:23                          :LAS Creation date {YYYY/MM/DD hh:mm}
DLIS_CREA.  2017-Sep-15 12:50                          :DLIS Creation date and time {YYYY-MMM-DD hh:mm}
SOURCE.     D5RL-00187_University of Utah_ME-ESW1_Run1_DSI_DoNotDistribute.dlis  :DLIS File Name
FILE-ID.     ConPr_R01_L001Up_DSI_DLIS_Custom          :File Identification Number
#--------------------------------------------------
~WELL INFORMATION
#MNEM.UNIT      DATA             DESCRIPTION
#---- ------ --------------   -----------------------------
STRT .F      2150.5          :START DEPTH     
STOP .F      7569.0          :STOP DEPTH     
STEP .F       0.5            :STEP     
NULL .          -999.25      :NULL VALUE
COMP .        University of Utah                       :COMPANY
WELL .        MU-ESW1                                  :WELL
FLD  .        None                                     :FIELD
LOC  .        From the S4 Corner of Sec. 32, T26S, R9W      :LOCATION
CNTY .        Beaver                                   :COUNTY
STAT .        Utah                                     :STATE
CTRY .        USA                                      :COUNTRY
API  .        1771001M00                               :API NUMBER
UWI  .        1771001M00                               :UNIQUE WELL ID
DATE .        15-Sep-2017                              :LOG DATE {DD-MMM-YYYY}
SRVC .        Schlumberger                             :SERVICE COMPANY
LATI .DEG     38.500562 degrees                        :LATITUDE
LONG .DEG     -112.88703 degrees                       :LONGITUDE
GDAT .                                                 :GeoDetic Datum
SECT .        32                                       :Section
RANG .        9W                                       :Range
TOWN .        26S                                      :Township
#-----------------------------------------------------------------------------
~PARAMETER INFORMATION
#MNEM.UNIT    VALUE                      DESCRIPTION
#---- -----   --------------------       ------------------------
CN   .        University of Utah         :Company Name
WN   .        MU-ESW1                    :Well Name
FN   .        None                       :Field Name
FL   .        From the S4 Corner of Sec. 32  T26S  R9W :Field Location
FL1  .        SHL  304' FNL & 522' FEL   :Field Location, Line 1
COUN .        Beaver                     :County or Parish
STAT .        Utah                       :State or Province
NATI .        USA                        :Nation
DATE .        15-Sep-2017                :Tools Above Rotary Table Date
APIN .        1771001M00                 :API Well Number
SECT .        32                         :Section
TOWN .        26S                        :Township
RANG .        9W                         :Range
DMF  .        KB                         :Drilling Measured From (Name of Drilling Elevation Reference)
LMF  .        KB                         :Logging Measured From (Name of Logging Elevation Reference)
PDAT .        GL                         :Permanent Datum
ENGI .        A.BLOCHOWICZ               :Engineer s Name
WITN .        JOE MOORE                  :Witness s Name
LATI .        38.500562 degrees          :Latitude
LONG .        -112.88703 degrees         :Longitude
LUL  .        Fort Morgan  CO            :Logging Unit Location
LUN  .        9108                       :Logging Unit Number
RUN  .        ONE.1                      :Run Number
SON  .        D5RL-00187                 :Service Order Number
BHT  .DEGF     253.00000                 :Bottom Hole Temperature
BS   .IN         8.75000                 :Bit Size
MDEN .G/C3       2.71000                 :Matrix Density for Density Porosity
DFD  .LB/G       8.60000                 :Drilling Fluid Density
DFV  .S         34.00000                 :Drilling Fluid Viscosity
DFL  .C3        10.20000                 :Drilling Fluid Loss
RMFS .OHMM       1.25000                 :Resistivity of Mud Filtrate Sample
EKB  .F       5557.50000                 :Elevation of Kelly Bushing
EGL  .F       5536.00000                 :Elevation of Ground Level
BLI  .F       7546.00000                 :Bottom Log Interval
BSAL .PPM      550.00000                 :Borehole Salinity
FLEV .F          8.00000                 :Depth of Drilling Fluid Level to LMF (Log Measured From)
MCST .DEGF      74.50000                 :Mudcake Sample Temperature
MFST .DEGF      74.50000                 :Mud Filtrate Sample Temperature
MRT  .DEGF     253.00000                 :Maximum Recorded Temperature
MST  .DEGF      74.50000                 :Mud Sample Temperature
RMCS .OHMM       1.69000                 :Resistivity of Mud Cake Sample
RMS  .OHMM       1.47000                 :Resistivity of Mud Sample
RW   .OHMM       1.00000                 :Connate Water Resistivity
TDD  .F       7536.00049                 :Driller Total Depth
TDL  .F       7536.00049                 :Logger Total Depth
TLI  .F       2175.00000                 :Top Log Interval
HIDE .                                   :Header Identifier
MATR .        LIME                       :Rock Matrix for Neutron Porosity Corrections
FNUM .           1.00000                 :F-Numerator for Formation Factor Formula
FEXP .           2.00000                 :Exponent "m" for Formation Factor Formula
DFT  .        WBM                        :Drilling Fluid Type
DFPH .           8.50000                 :Drilling Fluid pH
MCSS .        Calculated                 :Mudcake Sample Source
MFSS .        Calculated                 :Mud Filtrate Sample Source
FD   .G/C3       1.00000                 :Fluid Density
MSS  .        Active Tank                :Mud Sample Source
OS1  .                                   :Other Services Line 1
OS2  .                                   :Other Services Line 2
OS3  .                                   :Other Services Line 3
OS4  .                                   :Other Services Line 4
OS5  .                                   :Other Services Line 5
R1   .        Thank you for choosing Schlumberger! :Remarks Line 1
R2   .        Tool string run as per tool sketch and client logging program. :Remarks Line 2
R3   .        TD  7546 ft. CS  2175 ft   :Remarks Line 3
R4   .                                   :Remarks Line 4
R5   .                                   :Remarks Line 5
R6   .                                   :Remarks Line 6
R7   .                                   :Remarks Line 7
R8   .        2 CMEZs run on toolstring for centralization. :Remarks Line 8
TCS  .        22 00 00                   :Time Circulation Stopped
TLAB .        02 05 00                   :Time Logger At Bottom
EPD  .C3         5536.000000             :Elevation of Permanent Datum above Mean Sea Level
APD  .F          21.500000               :Elevation of Depth Reference (LMF) above Permanent Datum
#-----------------------------------------------------------------------------
~CURVE INFORMATION
#MNEM.UNIT   API CODE                                  DESCRIPTION
#---- -----  --------                                  -----------------------
DEPT .F                                                :DEPTH (BOREHOLE) {F10.1}
CDF  .LBF                                              :Calibrated Downhole Force {F11.4}
CHRP .                                                 :Peak Coherence, Receiver Array, Compressional - Monopole P S {F11.4}
CHR1 .                                                 :Peak Coherence, Receiver Array - Lower Dipole {F11.4}
CHR2 .                                                 :Peak Coherence, Receiver Array - Upper Dipole {F11.4}
CTEM .DEGF                                             :Cartridge Temperature {F11.4}
DCAL .IN                                               :Differential Caliper {F11.4}
DT1R .US/F                                             :Delta-T Shear, Receiver Array - Lower Dipole {F11.4}
DT2  .US/F                                             :Delta-T Shear - Upper Dipole {F11.4}
DT2R .US/F                                             :Delta-T Shear, Receiver Array - Upper Dipole {F11.4}
DT4P .US/F                                             :Delta-T Compressional - Monopole P S {F11.4}
DT4S .US/F                                             :Delta-T Shear - Monopole P S {F11.4}
DTCO .US/F                                             :Delta-T Compressional {F11.4}
DTRP .US/F                                             :Delta-T Compressional, Receiver Array - Monopole P S {F11.4}
DTRS .US/F                                             :Delta-T Shear, Receiver Array - Monopole P S {F11.4}
DTSM .US/F                                             :Delta-T Shear {F11.4}
ED   .F                                                :East Departure {F11.4}
GR_EDTC.GAPI                                           :Gamma Ray {F11.4}
GTEM .DEGF                                             :Generalized Borehole Temperature {F11.4}
ITT  .S                                                :Integrated Transit Time {F11.4}
ND   .F                                                :North Departure {F11.4}
PR   .                                                 :Poisson s Ratio {F11.4}
SPHI .CFCF                                             :Sonic Porosity {F11.4}
STIT .F                                                :Stuck Tool Indicator, Total {F11.4}
TENS .LBF                                              :Cable Tension {F11.4}
#-----------------------------------------------------------------------------
# 
#     DEPT       CDF        CHRP       CHR1       CHR2       CTEM       DCAL       DT1R       DT2        DT2R       DT4P       DT4S       DTCO       DTRP       DTRS       DTSM        ED      GR_EDTC      GTEM       ITT         ND         PR        SPHI       STIT       TENS
#
~A  
# ...
    6830.5  1582.1383     0.9223     0.9711     0.9001   238.6823     0.0380    97.9244    94.8464    94.8464    55.4359   101.6785    55.4359    55.5760   101.2532    94.8464  -158.0804   172.3960   235.4481     0.0371   -15.4355     0.2406    -0.0064     0.0000  3756.8696
    6831.0  1594.6606     0.9199     0.9103     0.6454   238.6823    -0.0041    97.9588   102.2901   102.2901    55.6165    98.6519    55.6165    56.2878   101.3522   102.2901  -158.1131   172.8969   235.4604     0.0371   -15.4321     0.2902    -0.0043     0.0000  3778.6252
    6831.5  1589.1285     0.8768     0.8233     0.3908   238.6823    -0.0112    98.6854   109.7338   109.7338    54.2579    99.4997    54.2579    53.8690   102.9447   109.7338  -158.1456   164.6457   235.4726     0.0371   -15.4288     0.3382    -0.0201     0.0000  3766.3481
    6832.0  1585.2368     0.8831     0.9480     0.4919   238.6823    -0.0147   101.8646   103.4201   103.4201    55.1890    99.5598    55.1890    55.9946    97.1474   103.4201  -158.1782   157.3290   235.4848     0.0370   -15.4254     0.3009    -0.0092     0.0000  3767.2087
    6832.5  1591.6068     0.9008     0.9690     0.9564   238.6823     0.0467    99.0391    95.5566    95.5566    56.1484    96.6389    56.1484    56.9845    95.4351    95.5566  -158.2109   154.6843   235.4971     0.0370   -15.4221     0.2363     0.0017     0.0000  3794.0869
    6833.0  1594.5253     0.8767     0.9084     0.4228   238.6823     0.0608    94.7972    99.5544    99.5544    55.5963    96.9610    55.5963    55.4094    93.8404    99.5544  -158.2427   160.9131   235.5093     0.0370   -15.4189     0.2734    -0.0045     0.0000  3794.6523
    6833.5  1592.6510     0.9519     0.8432     0.5653   238.6823     0.0450    96.2951    97.3367    97.3367    56.9186    96.8954    56.9186    55.2301    93.3964    97.3367  -158.2749   162.9659   235.5216     0.0370   -15.4156     0.2402     0.0101     0.0000  3797.7920
    6834.0  1594.1128     0.9399     0.9588     0.8864   238.6823     0.0398    97.7292    98.3835    98.3835    56.0737    96.6576    56.0737    54.0507    92.8296    98.3835  -158.3071   159.4520   235.5339     0.0369   -15.4123     0.2594     0.0008     0.0000  3804.2173
    6834.5  1586.3143     0.9252     0.9692     0.8122   238.6823     0.0695    97.7179    95.2037    95.2037    55.5457    96.4449    55.5457    54.3445    92.2576    95.2037  -158.3391   159.9504   235.5461     0.0369   -15.4091     0.2420    -0.0051     0.0000  3749.3333
    6835.0  1584.9713     0.9039     0.9761     0.9268   238.6823     0.1184    93.6674    94.1332    94.1332    55.6246    96.3287    55.6246    53.8355    91.4302    94.1332  -158.3714   155.4695   235.5583     0.0369   -15.4058     0.2317    -0.0042     0.0000  3740.7827
    6835.5  1588.8093     0.9163     0.9608     0.9566   238.6823     0.1655    93.9809    94.0405    94.0405    54.7331    96.6157    54.7331    52.5738    91.6105    94.0405  -158.4034   156.2244   235.5706     0.0368   -15.4026     0.2439    -0.0145     0.0000  3759.5002
    6836.0  1615.4543     0.8862     0.9498     0.9706   238.6823     0.1861    93.0844    93.0066    93.0066    54.3998    91.4581    54.3998    52.7312    91.9267    93.0066  -158.4356   158.9068   235.5828     0.0368   -15.3994     0.2400    -0.0184     0.0000  3837.0435
    6836.5  1615.1794     0.8872     0.9382     0.8450   238.6823     0.1498    94.7948    94.2743    94.2743    55.6529    90.5202    55.6529    52.9201    90.5520    94.2743  -158.4668   168.6790   235.5951     0.0368   -15.3962     0.2326    -0.0039     0.0000  3810.3914
    6837.0  1587.0217     0.8018     0.9799     0.9756   238.6823     0.0992    93.4905    93.8398    93.8398    57.7070    93.0545    57.7070    55.5801    91.3961    93.8398  -158.4987   174.0586   235.6073     0.0368   -15.3930     0.1959     0.0185     0.0000  3765.4167
    6837.5  1583.0193     0.7758     0.9808     0.9824   238.6823     0.0606    92.8909    94.4289    94.4289    58.0611    90.7381    58.0611    57.1512    90.3091    94.4289  -158.5307   170.8933   235.6196     0.0367   -15.3898     0.1961     0.0222     0.0000  3747.0869
    6838.0  1579.1602     0.7896     0.9739     0.9830   238.6823     0.0764    92.3209    95.3665    95.3665    57.1798    89.4519    57.1798    54.9492    88.4863    95.3665  -158.5619   164.1689   235.6318     0.0367   -15.3867     0.2194     0.0129     0.0000  3751.0000
    6838.5  1582.4490     0.8189     0.9860     0.9916   238.6823     0.0590    93.4348    95.5679    95.5679    56.5068    90.7161    56.5068    53.7243    85.6580    95.5679  -158.5930   158.8026   235.6441     0.0367   -15.3837     0.2312     0.0056     0.0000  3748.2610
    6839.0  1584.8777     0.7040     0.9828     0.9870   238.6823     0.0870    92.4138    95.5250    95.5250    55.2771    95.2678    55.2771    52.8387    95.7297    95.5250  -158.6240   160.0059   235.6563     0.0366   -15.3806     0.2483    -0.0082     0.0000  3782.2607
    6839.5  1583.8002     0.7803     0.9824     0.9870   238.6823     0.1026    91.6753    95.6276    95.6276    56.6972    96.5298    56.6972    54.4573    96.3347    95.6276  -158.6556   161.8134   235.6686     0.0366   -15.3775     0.2290     0.0077     0.0000  3792.4583
    6840.0  1587.8022     0.7706     0.9861     0.9926   238.6823     0.0713    91.1136    95.3451    95.3451    56.7678    96.5328    56.7678    55.8174    95.7102    95.3451  -158.6872   168.4487   235.6808     0.0366   -15.3744     0.2254     0.0085     0.0000  3784.7827
    6840.5  1583.3896     0.9238     0.9870     0.9933   238.6823    -0.0059    90.7442    96.0531    96.0531    57.3878    96.4851    57.3878    56.7358    97.9150    96.0531  -158.7180   171.7218   235.6931     0.0366   -15.3713     0.2224     0.0151     0.0000  3752.6958
    6841.0  1578.3608     0.8886     0.9863     0.9929   238.6823    -0.0372    90.6099    96.2754    96.2754    56.0498    97.7762    56.0498    53.4267    98.1362    96.2754  -158.7488   178.4440   235.7053     0.0365   -15.3683     0.2436     0.0006     0.0000  3718.0869
    6841.5  1579.2960     0.8461     0.9868     0.9919   238.6823    -0.0129    90.2525    95.9159    95.9159    54.7804    94.9376    54.7804    54.7778    94.3498    95.9159  -158.7802   176.2289   235.7175     0.0365   -15.3653     0.2580    -0.0139     0.0000  3755.5002
    6842.0  1583.5896     0.8933     0.9918     0.9929   238.6823     0.0327    91.1471    94.7301    94.7301    52.5835    97.4425    52.5835    53.6477   100.2915    94.7301  -158.8115   175.0578   235.7298     0.0365   -15.3622     0.2773    -0.0406     0.0000  3766.2175
    6842.5  1587.2085     0.9493     0.9834     0.9862   238.6823     0.1009    91.0943    95.2390    95.2390    52.2402    96.9042    52.2402    52.5711   100.1988    95.2390  -158.8421   175.2802   235.7421     0.0364   -15.3592     0.2848    -0.0450     0.0000  3776.3477
    6843.0  1590.7030     0.8482     0.9892     0.9934   238.6823     0.0695    92.8241    94.9336    94.9336    50.1027    95.5302    50.1027    52.2762    99.5946    94.9336  -158.8725   184.3708   235.7543     0.0364   -15.3563     0.3070    -0.0736     0.0000  3781.4348
    6843.5  1591.8008     0.8718     0.9806     0.9906   238.6823     0.0866    93.2539    94.5583    94.5583    50.6778    92.7265    50.6778    53.9874    95.0730    94.5583  -158.9035   186.1844   235.7665     0.0364   -15.3533     0.2985    -0.0656     0.0000  3809.0833
    6844.0  1585.9226     0.8546     0.9789     0.9913   238.6823     0.0676    94.5137    95.3019    95.3019    50.8527    93.8950    50.8527    55.7369    97.2169    95.3019  -158.9344   183.4391   235.7788     0.0364   -15.3503     0.3010    -0.0633     0.0000  3779.6521
    6844.5  1580.3112     0.9177     0.9789     0.9848   238.6823     0.0659    94.5137    94.7020    94.7020    52.7057    92.7495    52.7057    56.1236    95.8258    94.7020  -158.9647   184.8906   235.7911     0.0363   -15.3474     0.2756    -0.0391     0.0000  3734.0872
    6845.0  1579.0066     0.8784     0.9450     0.9883   238.6823     0.0307    93.8143    93.9561    93.9561    50.4521    93.1248    50.4521    52.6434    96.5081    93.9561  -158.9947   188.1295   235.8033     0.0363   -15.3445     0.2974    -0.0687     0.0000  3760.2610
