~VERSION INFORMATION
VERS.           2.0   :CWLS Log ASCII Standard - VERSION 2.0
WRAP.           NO    :One Line per depth step
PROD.  Schlumberger   :LAS Producer
PROG.  DLIS to ASCII 19C2-270                          :LAS Program name and version
CREA.        2017/09/15 13:23                          :LAS Creation date {YYYY/MM/DD hh:mm}
DLIS_CREA.  2017-Sep-15 12:50                          :DLIS Creation date and time {YYYY-MMM-DD hh:mm}
SOURCE.     D5RL-00187_University of Utah_ME-ESW1_Run1_DSI_DoNotDistribute.dlis  :DLIS File Name
FILE-ID.     ConPr_R01_L001Up_DSI_DLIS_Custom          :File Identification Number
#--------------------------------------------------
~WELL INFORMATION
#MNEM.UNIT      DATA             DESCRIPTION
#---- ------ --------------   -----------------------------
STRT .F      2150.5          :START DEPTH     
STOP .F      7569.0          :STOP DEPTH     
STEP .F       0.5            :STEP     
NULL .          -999.25      :NULL VALUE
COMP .        University of Utah                       :COMPANY
WELL .        MU-ESW1                                  :WELL
FLD  .        None                                     :FIELD
LOC  .        From the S4 Corner of Sec. 32, T26S, R9W      :LOCATION
CNTY .        Beaver                                   :COUNTY
STAT .        Utah                                     :STATE
CTRY .        USA                                      :COUNTRY
API  .        1771001M00                               :API NUMBER
UWI  .        1771001M00                               :UNIQUE WELL ID
DATE .        15-Sep-2017                              :LOG DATE {DD-MMM-YYYY}
SRVC .        Schlumberger                             :SERVICE COMPANY
LATI .DEG     38.500562 degrees                        :LATITUDE
LONG .DEG     -112.88703 degrees                       :LONGITUDE
GDAT .                                                 :GeoDetic Datum
SECT .        32                                       :Section
RANG .        9W                                       :Range
TOWN .        26S                                      :Township
#-----------------------------------------------------------------------------
~PARAMETER INFORMATION
#MNEM.UNIT    VALUE                      DESCRIPTION
#---- -----   --------------------       ------------------------
CN   .        University of Utah         :Company Name
WN   .        MU-ESW1                    :Well Name
FN   .        None                       :Field Name
FL   .        From the S4 Corner of Sec. 32  T26S  R9W :Field Location
FL1  .        SHL  304' FNL & 522' FEL   :Field Location, Line 1
COUN .        Beaver                     :County or Parish
STAT .        Utah                       :State or Province
NATI .        USA                        :Nation
DATE .        15-Sep-2017                :Tools Above Rotary Table Date
APIN .        1771001M00                 :API Well Number
SECT .        32                         :Section
TOWN .        26S                        :Township
RANG .        9W                         :Range
DMF  .        KB                         :Drilling Measured From (Name of Drilling Elevation Reference)
LMF  .        KB                         :Logging Measured From (Name of Logging Elevation Reference)
PDAT .        GL                         :Permanent Datum
ENGI .        A.BLOCHOWICZ               :Engineer s Name
WITN .        JOE MOORE                  :Witness s Name
LATI .        38.500562 degrees          :Latitude
LONG .        -112.88703 degrees         :Longitude
LUL  .        Fort Morgan  CO            :Logging Unit Location
LUN  .        9108                       :Logging Unit Number
RUN  .        ONE.1                      :Run Number
SON  .        D5RL-00187                 :Service Order Number
BHT  .DEGF     253.00000                 :Bottom Hole Temperature
BS   .IN         8.75000                 :Bit Size
MDEN .G/C3       2.71000                 :Matrix Density for Density Porosity
DFD  .LB/G       8.60000                 :Drilling Fluid Density
DFV  .S         34.00000                 :Drilling Fluid Viscosity
DFL  .C3        10.20000                 :Drilling Fluid Loss
RMFS .OHMM       1.25000                 :Resistivity of Mud Filtrate Sample
EKB  .F       5557.50000                 :Elevation of Kelly Bushing
EGL  .F       5536.00000                 :Elevation of Ground Level
BLI  .F       7546.00000                 :Bottom Log Interval
BSAL .PPM      550.00000                 :Borehole Salinity
FLEV .F          8.00000                 :Depth of Drilling Fluid Level to LMF (Log Measured From)
MCST .DEGF      74.50000                 :Mudcake Sample Temperature
MFST .DEGF      74.50000                 :Mud Filtrate Sample Temperature
MRT  .DEGF     253.00000                 :Maximum Recorded Temperature
MST  .DEGF      74.50000                 :Mud Sample Temperature
RMCS .OHMM       1.69000                 :Resistivity of Mud Cake Sample
RMS  .OHMM       1.47000                 :Resistivity of Mud Sample
RW   .OHMM       1.00000                 :Connate Water Resistivity
TDD  .F       7536.00049                 :Driller Total Depth
TDL  .F       7536.00049                 :Logger Total Depth
TLI  .F       2175.00000                 :Top Log Interval
HIDE .                                   :Header Identifier
MATR .        LIME                       :Rock Matrix for Neutron Porosity Corrections
FNUM .           1.00000                 :F-Numerator for Formation Factor Formula
FEXP .           2.00000                 :Exponent "m" for Formation Factor Formula
DFT  .        WBM                        :Drilling Fluid Type
DFPH .           8.50000                 :Drilling Fluid pH
MCSS .        Calculated                 :Mudcake Sample Source
MFSS .        Calculated                 :Mud Filtrate Sample Source
FD   .G/C3       1.00000                 :Fluid Density
MSS  .        Active Tank                :Mud Sample Source
OS1  .                                   :Other Services Line 1
OS2  .                                   :Other Services Line 2
OS3  .                                   :Other Services Line 3
OS4  .                                   :Other Services Line 4
OS5  .                                   :Other Services Line 5
R1   .        Thank you for choosing Schlumberger! :Remarks Line 1
R2   .        Tool string run as per tool sketch and client logging program. :Remarks Line 2
R3   .        TD  7546 ft. CS  2175 ft   :Remarks Line 3
R4   .                                   :Remarks Line 4
R5   .                                   :Remarks Line 5
R6   .                                   :Remarks Line 6
R7   .                                   :Remarks Line 7
R8   .        2 CMEZs run on toolstring for centralization. :Remarks Line 8
TCS  .        22 00 00                   :Time Circulation Stopped
TLAB .        02 05 00                   :Time Logger At Bottom
EPD  .C3         5536.000000             :Elevation of Permanent Datum above Mean Sea Level
APD  .F          21.500000               :Elevation of Depth Reference (LMF) above Permanent Datum
#-----------------------------------------------------------------------------
~CURVE INFORMATION
#MNEM.UNIT   API CODE                                  DESCRIPTION
#---- -----  --------                                  -----------------------
DEPT .F                                                :DEPTH (BOREHOLE) {F10.1}
CDF  .LBF                                              :Calibrated Downhole Force {F11.4}
CHRP .                                                 :Peak Coherence, Receiver Array, Compressional - Monopole P S {F11.4}
CHR1 .                                                 :Peak Coherence, Receiver Array - Lower Dipole {F11.4}
CHR2 .                                                 :Peak Coherence, Receiver Array - Upper Dipole {F11.4}
CTEM .DEGF                                             :Cartridge Temperature {F11.4}
DCAL .IN                                               :Differential Caliper {F11.4}
DT1R .US/F                                             :Delta-T Shear, Receiver Array - Lower Dipole {F11.4}
DT2  .US/F                                             :Delta-T Shear - Upper Dipole {F11.4}
DT2R .US/F                                             :Delta-T Shear, Receiver Array - Upper Dipole {F11.4}
DT4P .US/F                                             :Delta-T Compressional - Monopole P S {F11.4}
DT4S .US/F                                             :Delta-T Shear - Monopole P S {F11.4}
DTCO .US/F                                             :Delta-T Compressional {F11.4}
DTRP .US/F                                             :Delta-T Compressional, Receiver Array - Monopole P S {F11.4}
DTRS .US/F                                             :Delta-T Shear, Receiver Array - Monopole P S {F11.4}
DTSM .US/F                                             :Delta-T Shear {F11.4}
ED   .F                                                :East Departure {F11.4}
GR_EDTC.GAPI                                           :Gamma Ray {F11.4}
GTEM .DEGF                                             :Generalized Borehole Temperature {F11.4}
ITT  .S                                                :Integrated Transit Time {F11.4}
ND   .F                                                :North Departure {F11.4}
PR   .                                                 :Poisson s Ratio {F11.4}
SPHI .CFCF                                             :Sonic Porosity {F11.4}
STIT .F                                                :Stuck Tool Indicator, Total {F11.4}
TENS .LBF                                              :Cable Tension {F11.4}
#-----------------------------------------------------------------------------
# 
#     DEPT       CDF        CHRP       CHR1       CHR2       CTEM       DCAL       DT1R       DT2        DT2R       DT4P       DT4S       DTCO       DTRP       DTRS       DTSM        ED      GR_EDTC      GTEM       ITT         ND         PR        SPHI       STIT       TENS
#
~A  
# ...
    3230.5  1544.3931     0.7891     0.9176     0.9584   189.2706     1.9032   157.9832   161.5396   161.5396    77.6172   175.7458    77.6172    78.8736   183.3014   161.5396     0.9357   169.9367   147.2835     0.2326   -29.5934     0.3499     0.1741     0.0000  2542.3201
    3231.0  1536.2793     0.8004     0.9549     0.9650   189.2706     1.9205   158.1232   160.3883   160.3883    78.1214   178.8344    78.1214    77.9571   182.3067   160.3883     0.9344   165.1352   147.2958     0.2326   -29.5825     0.3445     0.1770     0.0000  2507.9167
    3231.5  1538.2236     0.7809     0.9714     0.9688   189.2706     1.9287   161.9191   159.3819   159.3819    75.3787   180.6566    75.3787    68.6698   178.7789   159.3819     0.9333   153.7940   147.3081     0.2325   -29.5717     0.3559     0.1607     0.0000  2502.7917
    3232.0  1540.3318     0.8114     0.9827     0.9723   189.2706     1.8908   162.0604   160.3611   160.3611    65.5860   180.4075    65.5860    69.1146   184.0252   160.3611     0.9322   141.6357   147.3203     0.2325   -29.5609     0.3996     0.0913     0.0000  2530.0833
    3232.5  1527.5552     0.8549     0.9848     0.9782   189.2706     1.8447   163.8833   159.8711   159.8711    72.4685   182.4985    72.4685    70.5391   184.1943   159.8711     0.9312   137.5335   147.3326     0.2325   -29.5501     0.3707     0.1420     0.0000  2505.1667
    3233.0  1533.7657     0.8744     0.9844     0.9781   189.2706     1.8388   167.2223   158.8599   158.8599    71.4412   182.2670    71.4412    71.1688   184.3633   158.8599     0.9303   135.2409   147.3449     0.2324   -29.5394     0.3732     0.1351     0.0000  2520.7085
    3233.5  1532.0060     0.9704     0.9820     0.9766   189.2706     1.8373   169.0053   155.6871   155.6871    71.8236   178.2874    71.8236    71.6853   174.7917   155.6871     0.9294   137.1711   147.3571     0.2324   -29.5285     0.3648     0.1377     0.0000  2498.8750
    3234.0  1541.2277     0.9829     0.9643     0.9742   189.2706     1.8661   163.4987   151.5746   151.5746    71.2683   176.3575    71.2683    71.9112   167.5925   151.5746     0.9287   141.8392   147.3694     0.2324   -29.5178     0.3581     0.1339     0.0000  2528.0835
    3234.5  1537.5447     0.9741     0.9557     0.9767   189.2706     1.8848   159.4815   151.1018   151.1018    72.0725   168.1034    72.0725    72.7001   162.1054   151.1018     0.9280   140.7230   147.3817     0.2323   -29.5071     0.3527     0.1394     0.0000  2550.4165
    3235.0  1535.7949     0.9603     0.9494     0.9808   189.2706     1.8920   157.5906   151.5458   151.5458    70.0186   164.7370    70.0186    72.7876   156.6183   151.5458     0.9274   139.3384   147.3940     0.2323   -29.4962     0.3643     0.1251     0.0000  2481.0000
    3235.5  1536.6488     0.9372     0.9515     0.9820   189.2706     1.8824   154.6180   150.4284   150.4284    68.9171   164.0885    68.9171    72.9738   151.1311   150.4284     0.9269   136.7185   147.4062     0.2322   -29.4855     0.3672     0.1171     0.0000  2495.5000
    3236.0  1531.7898     0.8797     0.9656     0.9807   189.2706     1.8767   154.0586   151.2795   151.2795    69.3949   163.6766    69.3949    71.3159   145.6440   151.2795     0.9265   137.2557   147.4185     0.2322   -29.4750     0.3667     0.1206     0.0000  2515.7917
    3236.5  1535.2039     0.8015     0.9776     0.9816   189.2706     1.8804   154.4117   152.0993   152.0993    69.5072   151.6578    69.5072    68.0244   140.5950   152.0993     0.9262   138.6344   147.4308     0.2322   -29.4645     0.3680     0.1215     0.0000  2493.0833
    3237.0  1530.7865     0.9105     0.9843     0.9837   189.2706     1.8861   154.4083   152.5047   152.5047    70.8218   149.7982    70.8218    71.9373   142.2253   152.5047     0.9259   137.5179   147.4430     0.2321   -29.4539     0.3625     0.1308     0.0000  2500.3201
    3237.5  1536.1333     0.7774     0.9883     0.9807   189.2706     1.8887   155.4596   153.7953   153.7953    68.0743   155.7801    68.0743    69.1799   138.5327   153.7953     0.9258   134.9038   147.4553     0.2321   -29.4432     0.3782     0.1109     0.0000  2489.0000
    3238.0  1538.8066     0.7490     0.9831     0.9743   189.2706     1.9125   158.2640   155.5469   155.5469    71.0739   145.8440    71.0739    71.4073   140.1858   155.5469     0.9257   131.5808   147.4676     0.2321   -29.4328     0.3681     0.1326     0.0000  2529.7917
    3238.5  1521.9976     0.8325     0.9796     0.9844   189.2706     1.9162   158.6131   153.6013   153.6013    69.3897   143.9269    69.3897    70.5675   146.2939   153.6013     0.9257   129.2049   147.4799     0.2320   -29.4224     0.3718     0.1206     0.0000  2533.0000
    3239.0  1530.6693     0.7948     0.9707     0.9870   189.2706     1.9076   158.8874   153.2204   153.2204    71.7909   148.8232    71.7909    68.7019   161.1831   153.2204     0.9258   129.5762   147.4921     0.2320   -29.4120     0.3594     0.1375     0.0000  2540.6667
    3239.5  1532.8175     0.8324     0.9609     0.9870   189.2706     1.8906   159.0543   153.5251   153.5251    77.9569   152.0389    77.9569    80.1549   172.7113   153.5251     0.9259   134.9997   147.5044     0.2320   -29.4017     0.3263     0.1760     0.0000  2519.2500
    3240.0  1517.3691     0.6994     0.9739     0.9820   189.2706     1.8804   159.8842   161.3104   161.3104    77.2724   158.2527    77.2724    77.3479   169.7601   161.3104     0.9262   139.6836   147.5167     0.2319   -29.3914     0.3511     0.1721     0.0000  2514.0835
    3240.5  1524.2206     0.6879     0.9712     0.9754   189.2706     1.8692   160.0356   164.1666   164.1666    76.7548   154.0246    76.7548    76.4217   167.7421   164.1666     0.9265   145.7455   147.5289     0.2319   -29.3811     0.3601     0.1690     0.0000  2539.9167
    3241.0  1504.0748     0.7119     0.9728     0.9764   189.2706     1.8344   160.2138   164.3487   164.3487    72.6157   150.4093    72.6157    76.2568   166.9497   164.3487     0.9269   144.6520   147.5412     0.2319   -29.3707     0.3787     0.1430     0.0000  2493.0400
    3241.5  1541.0107     0.7461     0.9797     0.9750   189.2706     1.8283   161.3288   166.3397   166.3397    73.3824   161.5349    73.3824    79.0820   183.9428   166.3397     0.9274   144.9383   147.5535     0.2318   -29.3603     0.3792     0.1480     0.0000  2494.7917
    3242.0  1512.7300     0.7040     0.9869     0.9674   189.2706     1.7965   162.1258   164.4489   164.4489    73.8116   152.9626    73.8116    77.8767   164.8607   164.4489     0.9280   144.2984   147.5658     0.2318   -29.3501     0.3739     0.1508     0.0000  2479.5002
    3242.5  1524.3271     0.7472     0.9879     0.9618   189.2706     1.7512   162.4866   162.8516   162.8516    73.3638   152.2895    73.3638    76.5899   166.3666   162.8516     0.9287   141.9430   147.5780     0.2317   -29.3400     0.3727     0.1479     0.0000  2510.5417
    3243.0  1544.0540     0.8078     0.9852     0.9558   189.2706     1.8336   162.7169   161.1324   161.1324    73.0894   155.1612    73.0894    76.4441   167.8724   161.1324     0.9294   139.7324   147.5903     0.2317   -29.3298     0.3705     0.1461     0.0000  2573.2085
    3243.5  1528.4048     0.8734     0.9790     0.9578   189.2706     1.8287   165.0659   160.7032   160.7032    74.5160   158.8139    74.5160    78.9932   166.1527   160.7032     0.9302   133.5748   147.6026     0.2317   -29.3198     0.3631     0.1553     0.0000  2554.8750
    3244.0  1542.3135     0.9085     0.9548     0.9644   189.2706     1.6951   163.5177   163.2984   163.2984    75.6654   150.9406    75.6654    79.6796   141.3807   163.2984     0.9312   126.2263   147.6148     0.2316   -29.3096     0.3633     0.1624     0.0000  2550.5000
    3244.5  1527.7666     0.8936     0.9432     0.9642   189.2706     1.7941   163.6206   166.6573   166.6573    76.3153   163.5688    76.3153    79.2648   157.6118   166.6573     0.9322   118.6544   147.6271     0.2316   -29.2995     0.3673     0.1664     0.0000  2529.0000
    3245.0  1517.1780     0.9187     0.9446     0.9643   189.2706     1.7318   164.6195   167.0041   167.0041    81.1818   163.8148    81.1818    81.3522   159.7424   167.0041     0.9332   114.3815   147.6394     0.2316   -29.2895     0.3453     0.1939     0.0000  2495.8750
