~VERSION INFORMATION
VERS.           2.0   :CWLS Log ASCII Standard - VERSION 2.0
WRAP.           NO    :One Line per depth step
PROD.  Schlumberger   :LAS Producer
PROG.  DLIS to ASCII 19C2-270                          :LAS Program name and version
CREA.        2017/09/15 13:23                          :LAS Creation date {YYYY/MM/DD hh:mm}
DLIS_CREA.  2017-Sep-15 12:50                          :DLIS Creation date and time {YYYY-MMM-DD hh:mm}
SOURCE.     D5RL-00187_University of Utah_ME-ESW1_Run1_DSI_DoNotDistribute.dlis  :DLIS File Name
FILE-ID.     ConPr_R01_L001Up_DSI_DLIS_Custom          :File Identification Number
#--------------------------------------------------
~WELL INFORMATION
#MNEM.UNIT      DATA             DESCRIPTION
#---- ------ --------------   -----------------------------
STRT .F      2150.5          :START DEPTH     
STOP .F      7569.0          :STOP DEPTH     
STEP .F       0.5            :STEP     
NULL .          -999.25      :NULL VALUE
COMP .        University of Utah                       :COMPANY
WELL .        MU-ESW1                                  :WELL
FLD  .        None                                     :FIELD
LOC  .        From the S4 Corner of Sec. 32, T26S, R9W      :LOCATION
CNTY .        Beaver                                   :COUNTY
STAT .        Utah                                     :STATE
CTRY .        USA                                      :COUNTRY
API  .        1771001M00                               :API NUMBER
UWI  .        1771001M00                               :UNIQUE WELL ID
DATE .        15-Sep-2017                              :LOG DATE {DD-MMM-YYYY}
SRVC .        Schlumberger                             :SERVICE COMPANY
LATI .DEG     38.500562 degrees                        :LATITUDE
LONG .DEG     -112.88703 degrees                       :LONGITUDE
GDAT .                                                 :GeoDetic Datum
SECT .        32                                       :Section
RANG .        9W                                       :Range
TOWN .        26S                                      :Township
#-----------------------------------------------------------------------------
~PARAMETER INFORMATION
#MNEM.UNIT    VALUE                      DESCRIPTION
#---- -----   --------------------       ------------------------
CN   .        University of Utah         :Company Name
WN   .        MU-ESW1                    :Well Name
FN   .        None                       :Field Name
FL   .        From the S4 Corner of Sec. 32  T26S  R9W :Field Location
FL1  .        SHL  304' FNL & 522' FEL   :Field Location, Line 1
COUN .        Beaver                     :County or Parish
STAT .        Utah                       :State or Province
NATI .        USA                        :Nation
DATE .        15-Sep-2017                :Tools Above Rotary Table Date
APIN .        1771001M00                 :API Well Number
SECT .        32                         :Section
TOWN .        26S                        :Township
RANG .        9W                         :Range
DMF  .        KB                         :Drilling Measured From (Name of Drilling Elevation Reference)
LMF  .        KB                         :Logging Measured From (Name of Logging Elevation Reference)
PDAT .        GL                         :Permanent Datum
ENGI .        A.BLOCHOWICZ               :Engineer s Name
WITN .        JOE MOORE                  :Witness s Name
LATI .        38.500562 degrees          :Latitude
LONG .        -112.88703 degrees         :Longitude
LUL  .        Fort Morgan  CO            :Logging Unit Location
LUN  .        9108                       :Logging Unit Number
RUN  .        ONE.1                      :Run Number
SON  .        D5RL-00187                 :Service Order Number
BHT  .DEGF     253.00000                 :Bottom Hole Temperature
BS   .IN         8.75000                 :Bit Size
MDEN .G/C3       2.71000                 :Matrix Density for Density Porosity
DFD  .LB/G       8.60000                 :Drilling Fluid Density
DFV  .S         34.00000                 :Drilling Fluid Viscosity
DFL  .C3        10.20000                 :Drilling Fluid Loss
RMFS .OHMM       1.25000                 :Resistivity of Mud Filtrate Sample
EKB  .F       5557.50000                 :Elevation of Kelly Bushing
EGL  .F       5536.00000                 :Elevation of Ground Level
BLI  .F       7546.00000                 :Bottom Log Interval
BSAL .PPM      550.00000                 :Borehole Salinity
FLEV .F          8.00000                 :Depth of Drilling Fluid Level to LMF (Log Measured From)
MCST .DEGF      74.50000                 :Mudcake Sample Temperature
MFST .DEGF      74.50000                 :Mud Filtrate Sample Temperature
MRT  .DEGF     253.00000                 :Maximum Recorded Temperature
MST  .DEGF      74.50000                 :Mud Sample Temperature
RMCS .OHMM       1.69000                 :Resistivity of Mud Cake Sample
RMS  .OHMM       1.47000                 :Resistivity of Mud Sample
RW   .OHMM       1.00000                 :Connate Water Resistivity
TDD  .F       7536.00049                 :Driller Total Depth
TDL  .F       7536.00049                 :Logger Total Depth
TLI  .F       2175.00000                 :Top Log Interval
HIDE .                                   :Header Identifier
MATR .        LIME                       :Rock Matrix for Neutron Porosity Corrections
FNUM .           1.00000                 :F-Numerator for Formation Factor Formula
FEXP .           2.00000                 :Exponent "m" for Formation Factor Formula
DFT  .        WBM                        :Drilling Fluid Type
DFPH .           8.50000                 :Drilling Fluid pH
MCSS .        Calculated                 :Mudcake Sample Source
MFSS .        Calculated                 :Mud Filtrate Sample Source
FD   .G/C3       1.00000                 :Fluid Density
MSS  .        Active Tank                :Mud Sample Source
OS1  .                                   :Other Services Line 1
OS2  .                                   :Other Services Line 2
OS3  .                                   :Other Services Line 3
OS4  .                                   :Other Services Line 4
OS5  .                                   :Other Services Line 5
R1   .        Thank you for choosing Schlumberger! :Remarks Line 1
R2   .        Tool string run as per tool sketch and client logging program. :Remarks Line 2
R3   .        TD  7546 ft. CS  2175 ft   :Remarks Line 3
R4   .                                   :Remarks Line 4
R5   .                                   :Remarks Line 5
R6   .                                   :Remarks Line 6
R7   .                                   :Remarks Line 7
R8   .        2 CMEZs run on toolstring for centralization. :Remarks Line 8
TCS  .        22 00 00                   :Time Circulation Stopped
TLAB .        02 05 00                   :Time Logger At Bottom
EPD  .C3         5536.000000             :Elevation of Permanent Datum above Mean Sea Level
APD  .F          21.500000               :Elevation of Depth Reference (LMF) above Permanent Datum
#-----------------------------------------------------------------------------
~CURVE INFORMATION
#MNEM.UNIT   API CODE                                  DESCRIPTION
#---- -----  --------                                  -----------------------
DEPT .F                                                :DEPTH (BOREHOLE) {F10.1}
CDF  .LBF                                              :Calibrated Downhole Force {F11.4}
CHRP .                                                 :Peak Coherence, Receiver Array, Compressional - Monopole P S {F11.4}
CHR1 .                                                 :Peak Coherence, Receiver Array - Lower Dipole {F11.4}
CHR2 .                                                 :Peak Coherence, Receiver Array - Upper Dipole {F11.4}
CTEM .DEGF                                             :Cartridge Temperature {F11.4}
DCAL .IN                                               :Differential Caliper {F11.4}
DT1R .US/F                                             :Delta-T Shear, Receiver Array - Lower Dipole {F11.4}
DT2  .US/F                                             :Delta-T Shear - Upper Dipole {F11.4}
DT2R .US/F                                             :Delta-T Shear, Receiver Array - Upper Dipole {F11.4}
DT4P .US/F                                             :Delta-T Compressional - Monopole P S {F11.4}
DT4S .US/F                                             :Delta-T Shear - Monopole P S {F11.4}
DTCO .US/F                                             :Delta-T Compressional {F11.4}
DTRP .US/F                                             :Delta-T Compressional, Receiver Array - Monopole P S {F11.4}
DTRS .US/F                                             :Delta-T Shear, Receiver Array - Monopole P S {F11.4}
DTSM .US/F                                             :Delta-T Shear {F11.4}
ED   .F                                                :East Departure {F11.4}
GR_EDTC.GAPI                                           :Gamma Ray {F11.4}
GTEM .DEGF                                             :Generalized Borehole Temperature {F11.4}
ITT  .S                                                :Integrated Transit Time {F11.4}
ND   .F                                                :North Departure {F11.4}
PR   .                                                 :Poisson s Ratio {F11.4}
SPHI .CFCF                                             :Sonic Porosity {F11.4}
STIT .F                                                :Stuck Tool Indicator, Total {F11.4}
TENS .LBF                                              :Cable Tension {F11.4}
#-----------------------------------------------------------------------------
# 
#     DEPT       CDF        CHRP       CHR1       CHR2       CTEM       DCAL       DT1R       DT2        DT2R       DT4P       DT4S       DTCO       DTRP       DTRS       DTSM        ED      GR_EDTC      GTEM       ITT         ND         PR        SPHI       STIT       TENS
#
~A  
# ...
    7550.5  1274.0908     0.8820     0.9774     0.9842   189.2706    -1.9746    99.5726   100.4815   100.4815    52.2844   102.1661    52.2844    52.2562   102.1948   100.4815  -182.1251   132.3820   253.1103     0.0000   -14.2587     0.3144    -0.0444     0.0000  3374.7502
    7551.0  1229.0389     0.8820     0.9774     0.9842   189.2706    -2.0302    99.5726   100.4815   100.4815    52.2844   102.1661    52.2844    52.2562   102.1948   100.4815  -182.1527   132.3820   253.1226     0.0000   -14.2610     0.3144    -0.0444     0.0000  3312.6250
    7551.5  1177.9784     0.8820     0.9774     0.9842   189.2706    -2.0570    99.5726   100.4815   100.4815    52.2844   102.1661    52.2844    52.2562   102.1948   100.4815  -182.1802   132.3820   253.1348     0.0000   -14.2632     0.3144    -0.0444     0.0000  3281.7500
    7552.0  1136.0984     0.8820     0.9774     0.9842   189.2706    -2.0824    99.5726   100.4815   100.4815    52.2844   102.1661    52.2844    52.2562   102.1948   100.4815  -182.2078   132.3820   253.1470     0.0000   -14.2655     0.3144    -0.0444     0.0000  3219.3125
    7552.5  1081.5459     0.8820     0.9774     0.9842   189.2706    -2.0891    99.5726   100.4815   100.4815    52.2844   102.1661    52.2844    52.2562   102.1948   100.4815  -182.2355   132.3820   253.1593     0.0000   -14.2678     0.3144    -0.0444     0.0000  3169.1877
    7553.0  1035.1676     0.8820     0.9774     0.9842   189.2706    -2.0927    99.5726   100.4815   100.4815    52.2844   102.1661    52.2844    52.2562   102.1948   100.4815  -182.2627   132.3820   253.1716     0.0000   -14.2700     0.3144    -0.0444     4.0685  3155.3333
    7553.5   995.1091     0.8820     0.9774     0.9842   189.2706    -2.1064    99.5726   100.4815   100.4815    52.2844   102.1661    52.2844    52.2562   102.1948   100.4815  -182.2897   132.3820   253.1838     0.0000   -14.2722     0.3144    -0.0444     3.3146  3097.0625
    7554.0   951.7920     0.8820     0.9774     0.9842   189.2706    -2.1144    99.5726   100.4815   100.4815    52.2844   102.1661    52.2844    52.2562   102.1948   100.4815  -182.3175   132.3820   253.1961     0.0000   -14.2745     0.3144    -0.0444     2.5406  2999.5000
    7554.5   909.1697     0.8820     0.9774     0.9842   189.2706    -2.1163    99.5726   100.4815   100.4815    52.2844   102.1661    52.2844    52.2562   102.1948   100.4815  -182.3455   132.3820   253.2083     0.0000   -14.2768     0.3144    -0.0444     1.6274  2922.0000
    7555.0   863.6298     0.8820     0.9774     0.9842   189.2706    -2.1296    99.5726   100.4815   100.4815    52.2844   102.1661    52.2844    52.2562   102.1948   100.4815  -182.3736   132.3820   253.2206     0.0000   -14.2791     0.3144    -0.0444     0.8137  2877.9375
    7555.5   812.9854     0.8820     0.9774     0.9842   189.2706    -2.1454    99.5726   100.4815   100.4815    52.2844   102.1661    52.2844    52.2562   102.1948   100.4815  -182.4008   132.3820   253.2328     0.0000   -14.2814     0.3144    -0.0444     0.0000  2823.0667
    7556.0   766.1791     0.8820     0.9774     0.9842   189.2706    -2.1570    99.5726   100.4815   100.4815    52.2844   102.1661    52.2844    52.2562   102.1948   100.4815  -182.4280   132.3820   253.2451     0.0000   -14.2836     0.3144    -0.0444     0.0000  2814.1875
    7556.5   722.6076     0.8820     0.9774     0.9842   189.2706    -2.1550    99.5726   100.4815   100.4815    52.2844   102.1661    52.2844    52.2562   102.1948   100.4815  -182.4561   132.3820   253.2573     0.0000   -14.2859     0.3144    -0.0444     0.0000  2743.4375
    7557.0   674.5181     0.8820     0.9774     0.9842   189.2706    -2.1716    99.5726   100.4815   100.4815    52.2844   102.1661    52.2844    52.2562   102.1948   100.4815  -182.4840   132.3820   253.2696     0.0000   -14.2882     0.3144    -0.0444     0.0000  2708.1252
    7557.5   634.4691     0.8820     0.9774     0.9842   189.2706    -2.1705    99.5726   100.4815   100.4815    52.2844   102.1661    52.2844    52.2562   102.1948   100.4815  -182.5112   132.3820   253.2819     0.0000   -14.2905     0.3144    -0.0444     0.0000  2637.4001
    7558.0   592.0062     0.8820     0.9774     0.9842   189.2706    -2.1790    99.5726   100.4815   100.4815    52.2844   102.1661    52.2844    52.2562   102.1948   100.4815  -182.5394   132.3820   253.2941     0.0000   -14.2928     0.3144    -0.0444     2.6796  2598.3335
    7558.5   550.5191     0.8820     0.9774     0.9842   189.2706    -2.1775    99.5726   100.4815   100.4815    52.2844   102.1661    52.2844    52.2562   102.1948   100.4815  -182.5663   132.3820   253.3064     0.0000   -14.2950     0.3144    -0.0444     2.1436  2537.3889
    7559.0   507.7215     0.8820     0.9774     0.9842   189.2706    -2.1757    99.5726   100.4815   100.4815    52.2844   102.1661    52.2844    52.2562   102.1948   100.4815  -182.5932   132.3820   253.3186     0.0000   -14.2972     0.3144    -0.0444     1.6077  2440.3684
    7559.5   461.2500     0.8820     0.9774     0.9842   189.2706    -2.1775    99.5726   100.4815   100.4815    52.2844   102.1661    52.2844    52.2562   102.1948   100.4815  -182.6208   132.3820   253.3309     0.0000   -14.2995     0.3144    -0.0444     1.0718  2415.4211
    7560.0   419.2155     0.8820     0.9774     0.9842   189.2706    -2.1740    99.5726   100.4815   100.4815    52.2844   102.1661    52.2844    52.2562   102.1948   100.4815  -182.6486   132.3820   253.3431     0.0000   -14.3017     0.3144    -0.0444     0.5359  2333.4211
    7560.5   377.5815     0.8820     0.9774     0.9842   189.2706    -2.1905    99.5726   100.4815   100.4815    52.2844   102.1661    52.2844    52.2562   102.1948   100.4815  -182.6763   132.3820   253.3554     0.0000   -14.3040     0.3144    -0.0444     0.0000  2300.7368
    7561.0   337.4968     0.8820     0.9774     0.9842   189.2706    -2.1858    99.5726   100.4815   100.4815    52.2844   102.1661    52.2844    52.2562   102.1948   100.4815  -182.7047   132.3820   253.3676     0.0000   -14.3064     0.3144    -0.0444     0.0000  2252.0500
    7561.5   297.6816     0.8820     0.9774     0.9842   189.2706    -2.1874    99.5726   100.4815   100.4815    52.2844   102.1661    52.2844    52.2562   102.1948   100.4815  -182.7323   132.3820   253.3799     0.0000   -14.3086     0.3144    -0.0444     0.0000  2189.8501
    7562.0   252.0778     0.8820     0.9774     0.9842   189.2706    -2.4546    99.5726   100.4815   100.4815    52.2844   102.1661    52.2844    52.2562   102.1948   100.4815  -182.7596   132.3820   253.3922     0.0000   -14.3109     0.3144    -0.0444     0.0000  2124.0476
    7562.5   216.2439     0.8820     0.9774     0.9842   189.2706    -4.7949    99.5726   100.4815   100.4815    52.2844   102.1661    52.2844    52.2562   102.1948   100.4815  -182.7875   132.3820   253.4044     0.0000   -14.3132     0.3144    -0.0444     0.0000  2069.7727
    7563.0   177.0270     0.8820     0.9774     0.9842   189.2706    -4.8036    99.5726   100.4815   100.4815    52.2844   102.1661    52.2844    52.2562   102.1948   100.4815  -182.8154   132.3820   253.4167     0.0000   -14.3155     0.3144    -0.0444     0.0000  2066.4763
    7563.5   135.5877     0.8820     0.9774     0.9842   189.2706    -4.8036    99.5726   100.4815   100.4815    52.2844   102.1661    52.2844    52.2562   102.1948   100.4815  -182.8430   132.3820   253.4289     0.0000   -14.3177     0.3144    -0.0444     0.0000  1980.8181
    7564.0    97.2524     0.8820     0.9774     0.9842   189.2706    -4.8054    99.5726   100.4815   100.4815    52.2844   102.1661    52.2844    52.2562   102.1948   100.4815  -182.8703   132.3820   253.4412     0.0000   -14.3200     0.3144    -0.0444     0.0000  1917.0001
    7564.5    70.4268     0.8820     0.9774     0.9842   189.2706    -4.8071    99.5726   100.4815   100.4815    52.2844   102.1661    52.2844    52.2562   102.1948   100.4815  -182.8972   132.3820   253.4534     0.0000   -14.3222     0.3144    -0.0444     0.0000  1873.9092
    7565.0    63.1309     0.8820     0.9774     0.9842   189.2706    -4.8089    99.5726   100.4815   100.4815    52.2844   102.1661    52.2844    52.2562   102.1948   100.4815  -182.9247   132.3820   253.4657     0.0000   -14.3244     0.3144    -0.0444     0.0000  1876.6086
