~VERSION INFORMATION
VERS.           2.0   :CWLS Log ASCII Standard - VERSION 2.0
WRAP.           NO    :One Line per depth step
PROD.  Schlumberger   :LAS Producer
PROG.  DLIS to ASCII 19C2-270                          :LAS Program name and version
CREA.        2017/09/15 13:23                          :LAS Creation date {YYYY/MM/DD hh:mm}
DLIS_CREA.  2017-Sep-15 12:50                          :DLIS Creation date and time {YYYY-MMM-DD hh:mm}
SOURCE.     D5RL-00187_University of Utah_ME-ESW1_Run1_DSI_DoNotDistribute.dlis  :DLIS File Name
FILE-ID.     ConPr_R01_L001Up_DSI_DLIS_Custom          :File Identification Number
#--------------------------------------------------
~WELL INFORMATION
#MNEM.UNIT      DATA             DESCRIPTION
#---- ------ --------------   -----------------------------
STRT .F      2150.5          :START DEPTH     
STOP .F      7569.0          :STOP DEPTH     
STEP .F       0.5            :STEP     
NULL .          -999.25      :NULL VALUE
COMP .        University of Utah                       :COMPANY
WELL .        MU-ESW1                                  :WELL
FLD  .        None                                     :FIELD
LOC  .        From the S4 Corner of Sec. 32, T26S, R9W      :LOCATION
CNTY .        Beaver                                   :COUNTY
STAT .        Utah                                     :STATE
CTRY .        USA                                      :COUNTRY
API  .        1771001M00                               :API NUMBER
UWI  .        1771001M00                               :UNIQUE WELL ID
DATE .        15-Sep-2017                              :LOG DATE {DD-MMM-YYYY}
SRVC .        Schlumberger                             :SERVICE COMPANY
LATI .DEG     38.500562 degrees                        :LATITUDE
LONG .DEG     -112.88703 degrees                       :LONGITUDE
GDAT .                                                 :GeoDetic Datum
SECT .        32                                       :Section
RANG .        9W                                       :Range
TOWN .        26S                                      :Township
#-----------------------------------------------------------------------------
~PARAMETER INFORMATION
#MNEM.UNIT    VALUE                      DESCRIPTION
#---- -----   --------------------       ------------------------
CN   .        University of Utah         :Company Name
WN   .        MU-ESW1                    :Well Name
FN   .        None                       :Field Name
FL   .        From the S4 Corner of Sec. 32  T26S  R9W :Field Location
FL1  .        SHL  304' FNL & 522' FEL   :Field Location, Line 1
COUN .        Beaver                     :County or Parish
STAT .        Utah                       :State or Province
NATI .        USA                        :Nation
DATE .        15-Sep-2017                :Tools Above Rotary Table Date
APIN .        1771001M00                 :API Well Number
SECT .        32                         :Section
TOWN .        26S                        :Township
RANG .        9W                         :Range
DMF  .        KB                         :Drilling Measured From (Name of Drilling Elevation Reference)
LMF  .        KB                         :Logging Measured From (Name of Logging Elevation Reference)
PDAT .        GL                         :Permanent Datum
ENGI .        A.BLOCHOWICZ               :Engineer s Name
WITN .        JOE MOORE                  :Witness s Name
LATI .        38.500562 degrees          :Latitude
LONG .        -112.88703 degrees         :Longitude
LUL  .        Fort Morgan  CO            :Logging Unit Location
LUN  .        9108                       :Logging Unit Number
RUN  .        ONE.1                      :Run Number
SON  .        D5RL-00187                 :Service Order Number
BHT  .DEGF     253.00000                 :Bottom Hole Temperature
BS   .IN         8.75000                 :Bit Size
MDEN .G/C3       2.71000                 :Matrix Density for Density Porosity
DFD  .LB/G       8.60000                 :Drilling Fluid Density
DFV  .S         34.00000                 :Drilling Fluid Viscosity
DFL  .C3        10.20000                 :Drilling Fluid Loss
RMFS .OHMM       1.25000                 :Resistivity of Mud Filtrate Sample
EKB  .F       5557.50000                 :Elevation of Kelly Bushing
EGL  .F       5536.00000                 :Elevation of Ground Level
BLI  .F       7546.00000                 :Bottom Log Interval
BSAL .PPM      550.00000                 :Borehole Salinity
FLEV .F          8.00000                 :Depth of Drilling Fluid Level to LMF (Log Measured From)
MCST .DEGF      74.50000                 :Mudcake Sample Temperature
MFST .DEGF      74.50000                 :Mud Filtrate Sample Temperature
MRT  .DEGF     253.00000                 :Maximum Recorded Temperature
MST  .DEGF      74.50000                 :Mud Sample Temperature
RMCS .OHMM       1.69000                 :Resistivity of Mud Cake Sample
RMS  .OHMM       1.47000                 :Resistivity of Mud Sample
RW   .OHMM       1.00000                 :Connate Water Resistivity
TDD  .F       7536.00049                 :Driller Total Depth
TDL  .F       7536.00049                 :Logger Total Depth
TLI  .F       2175.00000                 :Top Log Interval
HIDE .                                   :Header Identifier
MATR .        LIME                       :Rock Matrix for Neutron Porosity Corrections
FNUM .           1.00000                 :F-Numerator for Formation Factor Formula
FEXP .           2.00000                 :Exponent "m" for Formation Factor Formula
DFT  .        WBM                        :Drilling Fluid Type
DFPH .           8.50000                 :Drilling Fluid pH
MCSS .        Calculated                 :Mudcake Sample Source
MFSS .        Calculated                 :Mud Filtrate Sample Source
FD   .G/C3       1.00000                 :Fluid Density
MSS  .        Active Tank                :Mud Sample Source
OS1  .                                   :Other Services Line 1
OS2  .                                   :Other Services Line 2
OS3  .                                   :Other Services Line 3
OS4  .                                   :Other Services Line 4
OS5  .                                   :Other Services Line 5
R1   .        Thank you for choosing Schlumberger! :Remarks Line 1
R2   .        Tool string run as per tool sketch and client logging program. :Remarks Line 2
R3   .        TD  7546 ft. CS  2175 ft   :Remarks Line 3
R4   .                                   :Remarks Line 4
R5   .                                   :Remarks Line 5
R6   .                                   :Remarks Line 6
R7   .                                   :Remarks Line 7
R8   .        2 CMEZs run on toolstring for centralization. :Remarks Line 8
TCS  .        22 00 00                   :Time Circulation Stopped
TLAB .        02 05 00                   :Time Logger At Bottom
EPD  .C3         5536.000000             :Elevation of Permanent Datum above Mean Sea Level
APD  .F          21.500000               :Elevation of Depth Reference (LMF) above Permanent Datum
#-----------------------------------------------------------------------------
~CURVE INFORMATION
#MNEM.UNIT   API CODE                                  DESCRIPTION
#---- -----  --------                                  -----------------------
DEPT .F                                                :DEPTH (BOREHOLE) {F10.1}
CDF  .LBF                                              :Calibrated Downhole Force {F11.4}
CHRP .                                                 :Peak Coherence, Receiver Array, Compressional - Monopole P S {F11.4}
CHR1 .                                                 :Peak Coherence, Receiver Array - Lower Dipole {F11.4}
CHR2 .                                                 :Peak Coherence, Receiver Array - Upper Dipole {F11.4}
CTEM .DEGF                                             :Cartridge Temperature {F11.4}
DCAL .IN                                               :Differential Caliper {F11.4}
DT1R .US/F                                             :Delta-T Shear, Receiver Array - Lower Dipole {F11.4}
DT2  .US/F                                             :Delta-T Shear - Upper Dipole {F11.4}
DT2R .US/F                                             :Delta-T Shear, Receiver Array - Upper Dipole {F11.4}
DT4P .US/F                                             :Delta-T Compressional - Monopole P S {F11.4}
DT4S .US/F                                             :Delta-T Shear - Monopole P S {F11.4}
DTCO .US/F                                             :Delta-T Compressional {F11.4}
DTRP .US/F                                             :Delta-T Compressional, Receiver Array - Monopole P S {F11.4}
DTRS .US/F                                             :Delta-T Shear, Receiver Array - Monopole P S {F11.4}
DTSM .US/F                                             :Delta-T Shear {F11.4}
ED   .F                                                :East Departure {F11.4}
GR_EDTC.GAPI                                           :Gamma Ray {F11.4}
GTEM .DEGF                                             :Generalized Borehole Temperature {F11.4}
ITT  .S                                                :Integrated Transit Time {F11.4}
ND   .F                                                :North Departure {F11.4}
PR   .                                                 :Poisson s Ratio {F11.4}
SPHI .CFCF                                             :Sonic Porosity {F11.4}
STIT .F                                                :Stuck Tool Indicator, Total {F11.4}
TENS .LBF                                              :Cable Tension {F11.4}
#-----------------------------------------------------------------------------
# 
#     DEPT       CDF        CHRP       CHR1       CHR2       CTEM       DCAL       DT1R       DT2        DT2R       DT4P       DT4S       DTCO       DTRP       DTRS       DTSM        ED      GR_EDTC      GTEM       ITT         ND         PR        SPHI       STIT       TENS
#
~A  
# ...
    5030.5  1588.9263     0.7705     0.7675     0.8068   220.8941     0.1167   100.0079    94.9917    94.9917    51.9333    95.5854    51.9333    53.1342    95.5826    94.9917  -126.1887   183.6948   191.2986     0.1331   -46.8746     0.2868    -0.0489     0.0000  3093.5002
    5031.0  1585.9612     0.8948     0.9864     0.9587   220.8941     0.1341    97.4888    95.1910    95.1910    51.4892    94.3926    51.4892    52.1170    93.0808    95.1910  -126.2122   194.2332   191.3109     0.1331   -46.8804     0.2932    -0.0548     0.0000  3084.4348
    5031.5  1581.6981     0.8792     0.9720     0.9397   220.8941     0.1654    98.0135    95.8467    95.8467    52.3504    96.2278    52.3504    52.8258    94.5496    95.8467  -126.2359   206.9525   191.3232     0.1330   -46.8863     0.2874    -0.0436     0.0000  3085.0435
    5032.0  1580.3828     0.8275     0.9823     0.9282   220.8941     0.1915   100.8840    95.6567    95.6567    55.2502    97.5304    55.2502    55.2180    98.8334    95.6567  -126.2590   215.6235   191.3354     0.1330   -46.8920     0.2497    -0.0085     0.0000  3064.0000
    5032.5  1591.4987     0.8106     0.9829     0.9169   220.8941     0.1861   103.2622    98.4520    98.4520    57.9746   107.7964    57.9746    56.8048   109.0870    98.4520  -126.2821   200.3588   191.3477     0.1330   -46.8978     0.2346     0.0213     0.0000  3105.6086
    5033.0  1578.5461     0.8080     0.9608     0.9287   220.8941     0.3329   105.6167    97.2996    97.2996    58.6040   108.5998    58.6040    58.2116   109.2131    97.2996  -126.3050   154.1659   191.3599     0.1330   -46.9036     0.2154     0.0278     0.0000  3084.4092
    5033.5  1572.0441     0.8726     0.9700     0.9298   220.8941     0.4194   104.6456   102.0963   102.0963    58.3815   106.3489    58.3815    58.3551   104.0974   102.0963  -126.3279   108.2556   191.3722     0.1329   -46.9094     0.2571     0.0255     0.0000  3066.5652
    5034.0  1598.8877     0.8453     0.9629     0.9456   220.8941     0.4231   104.0839   103.2825   103.2825    57.6689   106.3049    57.6689    58.8524   105.1060   103.2825  -126.3508    82.5451   191.3845     0.1329   -46.9152     0.2735     0.0181     0.0000  3137.9546
    5034.5  1585.2269     0.8891     0.9234     0.9338   220.8941     0.4299   101.8720   100.5119   100.5119    55.0173   102.6747    55.0173    56.6148   100.8851   100.5119  -126.3735   101.5938   191.3967     0.1329   -46.9210     0.2861    -0.0112     0.0000  3087.9565
    5035.0  1574.1692     0.9125     0.9341     0.8723   220.8941     0.2016    98.1880   105.0685   105.0685    52.6898    98.9578    52.6898    54.4619    98.7920   105.0685  -126.3966   142.9747   191.4090     0.1329   -46.9269     0.3320    -0.0393     0.0000  3075.7827
    5035.5  1574.2926     0.7814     0.9761     0.9618   220.8941     0.1495    97.0675    97.4052    97.4052    52.1246    96.9525    52.1246    53.5974    97.1678    97.4052  -126.4190   187.1175   191.4212     0.1328   -46.9327     0.2994    -0.0465     0.0000  3087.3638
    5036.0  1563.9089     0.9374     0.9784     0.9727   220.8941     0.2102    92.3810    95.3734    95.3734    51.3781    95.5031    51.3781    52.3702    95.3808    95.3734  -126.4412   210.8016   191.4335     0.1328   -46.9385     0.2956    -0.0562     0.0000  3025.0872
    5036.5  1576.1017     0.8841     0.9774     0.9397   220.8941     0.1810    92.5351    93.8646    93.8646    51.2326    95.4181    51.2326    52.6375    95.7668    93.8646  -126.4639   215.3381   191.4457     0.1328   -46.9444     0.2878    -0.0582     0.0000  3098.6958
    5037.0  1566.8158     0.9455     0.9829     0.9738   220.8941     0.2090    93.1465    92.1866    92.1866    50.8852    95.4719    50.8852    51.9058    95.7104    92.1866  -126.4859   199.3540   191.4580     0.1327   -46.9502     0.2809    -0.0628     0.0000  3061.7273
    5037.5  1573.4843     0.8406     0.9376     0.7360   220.8941     0.1827    94.0329    84.8075    84.8075    50.8477    94.4712    50.8477    51.7440    94.2222    84.8075  -126.5079   186.9233   191.4703     0.1327   -46.9559     0.2194    -0.0633     0.0000  3101.8696
    5038.0  1569.7444     0.7775     0.9703     0.7345   220.8941     0.1282    91.0990    88.0176    88.0176    51.4218    92.1616    51.4218    51.4409    89.9762    88.0176  -126.5301   186.5992   191.4825     0.1327   -46.9618     0.2409    -0.0556     0.0000  3071.4348
    5038.5  1561.3783     0.7667     0.8281     0.6943   220.8941     0.1594    93.7395    94.5326    94.5326    51.6713    91.5409    51.6713    50.7783    89.2565    94.5326  -126.5522   192.5832   191.4948     0.1327   -46.9677     0.2870    -0.0524     0.0000  3055.8262
    5039.0  1564.6539     0.8118     0.9587     0.8447   220.8941     0.2357    88.0014    90.2248    90.2248    52.0386    91.0681    52.0386    50.4265    89.3090    90.2248  -126.5739   192.6168   191.5070     0.1326   -46.9735     0.2508    -0.0476     0.0000  3057.4092
    5039.5  1572.1798     0.9260     0.9613     0.7363   220.8941     0.2900    88.8631    82.6156    82.6156    52.3416    91.1030    52.3416    50.0834    89.3762    82.6156  -126.5954   177.1433   191.5193     0.1326   -46.9793     0.1647    -0.0437     0.0000  3083.6089
    5040.0  1566.5988     0.9367     0.9852     0.9727   220.8941     0.3247    91.3366    90.4534    90.4534    52.1123    91.7238    52.1123    49.8128    90.5893    90.4534  -126.6171   163.8477   191.5316     0.1326   -46.9851     0.2516    -0.0466     0.0000  3048.7393
    5040.5  1570.8805     0.8744     0.9495     0.8659   220.8941     0.4060    92.4080    85.2549    85.2549    52.5542    91.6245    52.5542    50.1465    90.4525    85.2549  -126.6387   154.8893   191.5438     0.1326   -46.9910     0.1936    -0.0410     0.0000  3085.1738
    5041.0  1574.6382     0.9122     0.9418     0.8938   220.8941     0.3990    90.1631    92.0867    92.0867    51.8858    94.2014    51.8858    50.6137    95.5060    92.0867  -126.6598   153.5224   191.5561     0.1325   -46.9968     0.2674    -0.0496     0.0000  3087.0000
    5041.5  1567.3033     0.9290     0.8917     0.3789   220.8941     0.3579    91.0197    89.4289    89.4289    51.5116    92.4126    51.5116    50.3438    91.1481    89.4289  -126.6807   158.7355   191.5684     0.1325   -47.0025     0.2517    -0.0545     0.0000  3065.0002
    5042.0  1568.2229     0.9253     0.9817     0.9242   220.8941     0.2907    91.0262    92.9257    92.9257    51.7461    92.7219    51.7461    49.8338    91.0929    92.9257  -126.7020   159.0633   191.5806     0.1325   -47.0084     0.2753    -0.0514     0.0000  3071.6086
    5042.5  1566.0909     0.9154     0.9781     0.9598   220.8941     0.2425    90.0748    92.3927    92.3927    52.0692    92.9103    52.0692    50.1519    91.4402    92.3927  -126.7232   158.7214   191.5929     0.1325   -47.0142     0.2673    -0.0472     0.0000  3081.1306
    5043.0  1568.4957     0.8950     0.9882     0.9792   220.8941     0.1634    92.8913    92.1308    92.1308    52.3654    95.5503    52.3654    50.5086    95.7767    92.1308  -126.7444   154.4158   191.6051     0.1324   -47.0201     0.2614    -0.0434     0.0000  3058.8696
    5043.5  1568.6324     0.9319     0.9907     0.9487   220.8941     0.1394    93.3236    91.6832    91.6832    52.8545    96.0889    52.8545    50.8975    96.4158    91.6832  -126.7650   156.5892   191.6174     0.1324   -47.0259     0.2511    -0.0372     0.0000  3060.7273
    5044.0  1570.3708     0.9266     0.9861     0.9714   220.8941     0.1568    92.9480    92.2243    92.2243    52.6473    96.6578    52.6473    50.2590    96.3255    92.2243  -126.7856   164.7798   191.6297     0.1324   -47.0317     0.2583    -0.0398     0.0000  3061.9565
    5044.5  1580.0463     0.8939     0.9892     0.8706   220.8941     0.1743    93.6338    92.6284    92.6284    53.9118    95.5621    53.9118    50.5090    94.5774    92.6284  -126.8065   167.4224   191.6419     0.1324   -47.0376     0.2439    -0.0242     0.0000  3073.7827
    5045.0  1578.5164     0.9091     0.9915     0.9838   220.8941     0.1586    94.2277    92.1647    92.1647    54.6441    95.5026    54.6441    51.5427    94.8156    92.1647  -126.8272   174.1639   191.6542     0.1323   -47.0435     0.2290    -0.0155     0.0000  3067.7825
