~VERSION INFORMATION
VERS.           2.0   :CWLS Log ASCII Standard - VERSION 2.0
WRAP.           NO    :One Line per depth step
PROD.  Schlumberger   :LAS Producer
PROG.  DLIS to ASCII 19C2-270                          :LAS Program name and version
CREA.        2017/09/15 13:23                          :LAS Creation date {YYYY/MM/DD hh:mm}
DLIS_CREA.  2017-Sep-15 12:50                          :DLIS Creation date and time {YYYY-MMM-DD hh:mm}
SOURCE.     D5RL-00187_University of Utah_ME-ESW1_Run1_DSI_DoNotDistribute.dlis  :DLIS File Name
FILE-ID.     ConPr_R01_L001Up_DSI_DLIS_Custom          :File Identification Number
#--------------------------------------------------
~WELL INFORMATION
#MNEM.UNIT      DATA             DESCRIPTION
#---- ------ --------------   -----------------------------
STRT .F      2150.5          :START DEPTH     
STOP .F      7569.0          :STOP DEPTH     
STEP .F       0.5            :STEP     
NULL .          -999.25      :NULL VALUE
COMP .        University of Utah                       :COMPANY
WELL .        MU-ESW1                                  :WELL
FLD  .        None                                     :FIELD
LOC  .        From the S4 Corner of Sec. 32, T26S, R9W      :LOCATION
CNTY .        Beaver                                   :COUNTY
STAT .        Utah                                     :STATE
CTRY .        USA                                      :COUNTRY
API  .        1771001M00                               :API NUMBER
UWI  .        1771001M00                               :UNIQUE WELL ID
DATE .        15-Sep-2017                              :LOG DATE {DD-MMM-YYYY}
SRVC .        Schlumberger                             :SERVICE COMPANY
LATI .DEG     38.500562 degrees                        :LATITUDE
LONG .DEG     -112.88703 degrees                       :LONGITUDE
GDAT .                                                 :GeoDetic Datum
SECT .        32                                       :Section
RANG .        9W                                       :Range
TOWN .        26S                                      :Township
#-----------------------------------------------------------------------------
~PARAMETER INFORMATION
#MNEM.UNIT    VALUE                      DESCRIPTION
#---- -----   --------------------       ------------------------
CN   .        University of Utah         :Company Name
WN   .        MU-ESW1                    :Well Name
FN   .        None                       :Field Name
FL   .        From the S4 Corner of Sec. 32  T26S  R9W :Field Location
FL1  .        SHL  304' FNL & 522' FEL   :Field Location, Line 1
COUN .        Beaver                     :County or Parish
STAT .        Utah                       :State or Province
NATI .        USA                        :Nation
DATE .        15-Sep-2017                :Tools Above Rotary Table Date
APIN .        1771001M00                 :API Well Number
SECT .        32                         :Section
TOWN .        26S                        :Township
RANG .        9W                         :Range
DMF  .        KB                         :Drilling Measured From (Name of Drilling Elevation Reference)
LMF  .        KB                         :Logging Measured From (Name of Logging Elevation Reference)
PDAT .        GL                         :Permanent Datum
ENGI .        A.BLOCHOWICZ               :Engineer s Name
WITN .        JOE MOORE                  :Witness s Name
LATI .        38.500562 degrees          :Latitude
LONG .        -112.88703 degrees         :Longitude
LUL  .        Fort Morgan  CO            :Logging Unit Location
LUN  .        9108                       :Logging Unit Number
RUN  .        ONE.1                      :Run Number
SON  .        D5RL-00187                 :Service Order Number
BHT  .DEGF     253.00000                 :Bottom Hole Temperature
BS   .IN         8.75000                 :Bit Size
MDEN .G/C3       2.71000                 :Matrix Density for Density Porosity
DFD  .LB/G       8.60000                 :Drilling Fluid Density
DFV  .S         34.00000                 :Drilling Fluid Viscosity
DFL  .C3        10.20000                 :Drilling Fluid Loss
RMFS .OHMM       1.25000                 :Resistivity of Mud Filtrate Sample
EKB  .F       5557.50000                 :Elevation of Kelly Bushing
EGL  .F       5536.00000                 :Elevation of Ground Level
BLI  .F       7546.00000                 :Bottom Log Interval
BSAL .PPM      550.00000                 :Borehole Salinity
FLEV .F          8.00000                 :Depth of Drilling Fluid Level to LMF (Log Measured From)
MCST .DEGF      74.50000                 :Mudcake Sample Temperature
MFST .DEGF      74.50000                 :Mud Filtrate Sample Temperature
MRT  .DEGF     253.00000                 :Maximum Recorded Temperature
MST  .DEGF      74.50000                 :Mud Sample Temperature
RMCS .OHMM       1.69000                 :Resistivity of Mud Cake Sample
RMS  .OHMM       1.47000                 :Resistivity of Mud Sample
RW   .OHMM       1.00000                 :Connate Water Resistivity
TDD  .F       7536.00049                 :Driller Total Depth
TDL  .F       7536.00049                 :Logger Total Depth
TLI  .F       2175.00000                 :Top Log Interval
HIDE .                                   :Header Identifier
MATR .        LIME                       :Rock Matrix for Neutron Porosity Corrections
FNUM .           1.00000                 :F-Numerator for Formation Factor Formula
FEXP .           2.00000                 :Exponent "m" for Formation Factor Formula
DFT  .        WBM                        :Drilling Fluid Type
DFPH .           8.50000                 :Drilling Fluid pH
MCSS .        Calculated                 :Mudcake Sample Source
MFSS .        Calculated                 :Mud Filtrate Sample Source
FD   .G/C3       1.00000                 :Fluid Density
MSS  .        Active Tank                :Mud Sample Source
OS1  .                                   :Other Services Line 1
OS2  .                                   :Other Services Line 2
OS3  .                                   :Other Services Line 3
OS4  .                                   :Other Services Line 4
OS5  .                                   :Other Services Line 5
R1   .        Thank you for choosing Schlumberger! :Remarks Line 1
R2   .        Tool string run as per tool sketch and client logging program. :Remarks Line 2
R3   .        TD  7546 ft. CS  2175 ft   :Remarks Line 3
R4   .                                   :Remarks Line 4
R5   .                                   :Remarks Line 5
R6   .                                   :Remarks Line 6
R7   .                                   :Remarks Line 7
R8   .        2 CMEZs run on toolstring for centralization. :Remarks Line 8
TCS  .        22 00 00                   :Time Circulation Stopped
TLAB .        02 05 00                   :Time Logger At Bottom
EPD  .C3         5536.000000             :Elevation of Permanent Datum above Mean Sea Level
APD  .F          21.500000               :Elevation of Depth Reference (LMF) above Permanent Datum
#-----------------------------------------------------------------------------
~CURVE INFORMATION
#MNEM.UNIT   API CODE                                  DESCRIPTION
#---- -----  --------                                  -----------------------
DEPT .F                                                :DEPTH (BOREHOLE) {F10.1}
CDF  .LBF                                              :Calibrated Downhole Force {F11.4}
CHRP .                                                 :Peak Coherence, Receiver Array, Compressional - Monopole P S {F11.4}
CHR1 .                                                 :Peak Coherence, Receiver Array - Lower Dipole {F11.4}
CHR2 .                                                 :Peak Coherence, Receiver Array - Upper Dipole {F11.4}
CTEM .DEGF                                             :Cartridge Temperature {F11.4}
DCAL .IN                                               :Differential Caliper {F11.4}
DT1R .US/F                                             :Delta-T Shear, Receiver Array - Lower Dipole {F11.4}
DT2  .US/F                                             :Delta-T Shear - Upper Dipole {F11.4}
DT2R .US/F                                             :Delta-T Shear, Receiver Array - Upper Dipole {F11.4}
DT4P .US/F                                             :Delta-T Compressional - Monopole P S {F11.4}
DT4S .US/F                                             :Delta-T Shear - Monopole P S {F11.4}
DTCO .US/F                                             :Delta-T Compressional {F11.4}
DTRP .US/F                                             :Delta-T Compressional, Receiver Array - Monopole P S {F11.4}
DTRS .US/F                                             :Delta-T Shear, Receiver Array - Monopole P S {F11.4}
DTSM .US/F                                             :Delta-T Shear {F11.4}
ED   .F                                                :East Departure {F11.4}
GR_EDTC.GAPI                                           :Gamma Ray {F11.4}
GTEM .DEGF                                             :Generalized Borehole Temperature {F11.4}
ITT  .S                                                :Integrated Transit Time {F11.4}
ND   .F                                                :North Departure {F11.4}
PR   .                                                 :Poisson s Ratio {F11.4}
SPHI .CFCF                                             :Sonic Porosity {F11.4}
STIT .F                                                :Stuck Tool Indicator, Total {F11.4}
TENS .LBF                                              :Cable Tension {F11.4}
#-----------------------------------------------------------------------------
# 
#     DEPT       CDF        CHRP       CHR1       CHR2       CTEM       DCAL       DT1R       DT2        DT2R       DT4P       DT4S       DTCO       DTRP       DTRS       DTSM        ED      GR_EDTC      GTEM       ITT         ND         PR        SPHI       STIT       TENS
#
~A  
# ...
    4670.5  1548.8583     0.8977     0.9673     0.9718   214.9647    -0.0667    93.6068    92.6515    92.6515    50.5467    93.3658    50.5467    51.4286    94.3611    92.6515   -88.3452   213.4205   182.5139     0.1518   -47.2801     0.2881    -0.0674     0.0000  3008.9167
    4671.0  1547.9609     0.9122     0.9758     0.9849   214.9647    -0.0703    93.2633    93.6116    93.6116    50.6321    93.5776    50.6321    51.1274    93.7551    93.6116   -88.4098   205.4444   182.5260     0.1518   -47.2788     0.2932    -0.0663     0.0000  2983.0801
    4671.5  1549.8146     0.9228     0.9666     0.9812   214.9647    -0.0685    93.1278    93.7220    93.7220    50.6008    94.5684    50.6008    51.1413    94.5249    93.7220   -88.4749   201.7865   182.5382     0.1518   -47.2774     0.2943    -0.0667     0.0000  2955.5000
    4672.0  1556.5516     0.9159     0.9776     0.9852   214.9647    -0.0737    93.1174    93.5906    93.5906    49.5670    94.0533    49.5670    50.9563    93.5791    93.5906   -88.5397   195.2390   182.5504     0.1517   -47.2760     0.3051    -0.0811     0.0000  2980.5200
    4672.5  1554.9570     0.9232     0.9828     0.9859   214.9647    -0.0702    92.3930    93.3213    93.3213    50.2058    93.5585    50.2058    51.0593    93.4598    93.3213   -88.6054   195.5820   182.5625     0.1517   -47.2747     0.2963    -0.0721     0.0000  2984.2000
    4673.0  1555.7865     0.8995     0.9719     0.9829   214.9647    -0.0737    91.7203    93.5414    93.5414    51.8758    93.6204    51.8758    51.6863    93.5180    93.5414   -88.6696   200.7215   182.5747     0.1517   -47.2733     0.2779    -0.0497     0.0000  2995.2083
    4673.5  1551.7507     0.9280     0.9752     0.9815   214.9647    -0.0668    92.7016    92.4709    92.4709    50.2566    93.3549    50.2566    51.3947    93.1605    92.4709   -88.7339   207.3023   182.5869     0.1517   -47.2719     0.2904    -0.0714     0.0000  2982.3999
    4674.0  1554.9570     0.7666     0.9673     0.9827   214.9647    -0.0667    91.5898    91.3300    91.3300    52.2221    92.4652    52.2221    52.4152    92.3037    91.3300   -88.7996   205.3946   182.5990     0.1516   -47.2705     0.2571    -0.0452     0.0000  2978.6401
    4674.5  1556.0577     0.8229     0.9554     0.9790   214.9647    -0.0720    95.1359    89.3667    89.3667    52.0506    92.0355    52.0506    51.3656    90.3253    89.3667   -88.8650   199.6789   182.6112     0.1516   -47.2691     0.2433    -0.0474     0.0000  2952.8000
    4675.0  1557.1527     0.8531     0.9757     0.9776   214.9647    -0.0685    95.6254    88.6809    88.6809    52.2308    92.3203    52.2308    52.3931    92.0736    88.6809   -88.9292   189.7597   182.6234     0.1516   -47.2678     0.2344    -0.0451     0.0000  2959.9583
    4675.5  1554.2871     0.7978     0.9662     0.9761   214.9647    -0.0703    96.2325    87.9951    87.9951    52.3705    92.1286    52.3705    51.1890    92.3267    87.9951   -88.9932   184.6212   182.6356     0.1515   -47.2664     0.2258    -0.0433     0.0000  2973.2800
    4676.0  1558.8607     0.7013     0.8658     0.8097   214.9647    -0.0737    95.3488    92.1850    92.1850    52.8485    92.4471    52.8485    51.5458    92.8352    92.1850   -89.0587   183.6263   182.6477     0.1515   -47.2650     0.2552    -0.0373     0.0000  3008.1602
    4676.5  1548.7202     0.8208     0.7748     0.9701   214.9647    -0.0737    95.5237    92.0492    92.0492    53.2535    93.5048    53.2535    52.3005    92.0199    92.0492   -89.1230   184.9026   182.6599     0.1515   -47.2636     0.2485    -0.0322     0.0000  2942.3750
    4677.0  1556.2970     0.7680     0.8346     0.9683   214.9647    -0.0720    98.1900    94.6609    94.6609    53.7707    96.0961    53.7707    53.3371    93.2152    94.6609   -89.1872   178.5013   182.6721     0.1515   -47.2622     0.2618    -0.0259     0.0000  2984.1201
    4677.5  1555.5914     0.8772     0.6515     0.9137   214.9647    -0.0737    99.8244    97.3661    97.3661    53.6409    95.7842    53.6409    52.9747    96.4222    97.3661   -89.2523   170.7702   182.6842     0.1514   -47.2608     0.2821    -0.0275     0.0000  2975.3599
    4678.0  1555.7377     0.7907     0.8322     0.4661   214.9647     0.0327    90.4189    94.8846    94.8846    51.2524    96.0897    51.2524    50.6920    96.2012    94.8846   -89.3165   167.3165   182.6964     0.1514   -47.2593     0.2940    -0.0579     0.0000  3002.5833
    4678.5  1556.2134     0.7343     0.8322     0.5079   214.9647     0.0309    90.4189    84.9778    84.9778    51.7818    95.7185    51.7818    52.3560    95.1589    84.9778   -89.3810   176.1691   182.7086     0.1514   -47.2579     0.2047    -0.0509     0.0000  2972.6799
    4679.0  1556.3101     0.8589     0.7751     0.9176   214.9647     0.0555   114.4019    93.8465    93.8465    51.7338    95.2427    51.7338    52.7722    93.7475    93.8465   -89.4466   177.0817   182.7207     0.1514   -47.2565     0.2817    -0.0515     0.0000  2984.5200
    4679.5  1562.5167     0.7434  -999.2500     0.7357   214.9647     0.0677   116.1727    95.7551    95.7551    52.3461    93.6469    52.3461    53.1225    92.0289    95.7551   -89.5107   173.4387   182.7329     0.1513   -47.2551     0.2869    -0.0436     0.0000  3012.3750
    4680.0  1560.3827     0.7492  -999.2500     0.3988   214.9647     0.0713   116.5465    73.4970    73.4970    51.7694    92.7933    51.7694    51.8264    91.2740    73.4970   -89.5745   163.3701   182.7451     0.1513   -47.2536     0.0077    -0.0511     0.0000  2998.8799
    4680.5  1561.7289     0.7236  -999.2500     0.8873   214.9647     0.0713   108.0779    94.5481    94.5481    52.1069    93.2795    52.1069    53.0507    91.7784    94.5481   -89.6399   164.3692   182.7573     0.1513   -47.2522     0.2819    -0.0467     0.0000  2999.3201
    4681.0  1561.7289     0.7749  -999.2500     0.9526   214.9647     0.0713   102.4033    94.3036    94.3036    52.8131    94.3856    52.8131    52.6853    93.8007    94.3036   -89.7039   172.2516   182.7694     0.1513   -47.2507     0.2715    -0.0377     0.0000  2965.8750
    4681.5  1565.0272     0.6405     0.4893     0.9289   214.9647     0.0730    96.7287    94.8676    94.8676    53.6700    94.5046    53.6700    53.3964    93.8281    94.8676   -89.7683   182.3707   182.7816     0.1512   -47.2493     0.2646    -0.0271     0.0000  2991.7600
    4682.0  1559.9341     0.8647     0.9179     0.7837   214.9647     0.0974    92.9093    95.1298    95.1298    54.5036    94.2248    54.5036    53.6280    93.0799    95.1298   -89.8326   180.0016   182.7938     0.1512   -47.2479     0.2557    -0.0172     0.0000  2972.8333
    4682.5  1559.5239     0.8089     0.8501     0.8441   214.9647     0.0712    94.9087    95.5969    95.5969    55.0042    94.4470    55.0042    54.5803    94.3860    95.5969   -89.8964   174.0223   182.8060     0.1512   -47.2464     0.2526    -0.0113     0.0000  2964.8000
    4683.0  1558.3239     0.8649     0.4294     0.9609   214.9647     0.0730   103.6878    94.9136    94.9136    55.3231    94.1392    55.3231    54.0486    94.8585    94.9136   -89.9617   169.7762   182.8181     0.1512   -47.2449     0.2427    -0.0076     0.0000  2992.2000
    4683.5  1555.8184     0.8524     0.9417     0.9465   214.9647     0.0695    93.8706    95.3419    95.3419    54.9873    93.4194    54.9873    54.0745    93.8176    95.3419   -90.0269   171.0506   182.8303     0.1511   -47.2434     0.2508    -0.0115     0.0000  2985.2800
    4684.0  1554.9570     0.6307     0.9198     0.9403   214.9647     0.0713    92.1073    93.3787    93.3787    54.3248    92.2322    54.3248    54.2039    92.0262    93.3787   -90.0908   171.5076   182.8425     0.1511   -47.2420     0.2442    -0.0193     0.0000  2952.0835
    4684.5  1557.3730     0.7394     0.4835     0.7701   214.9647     0.0660    95.3961    94.5252    94.5252    52.9811    91.8063    52.9811    53.6214    91.9618    94.5252   -90.1544   171.0572   182.8546     0.1511   -47.2405     0.2710    -0.0356     0.0000  2952.1201
    4685.0  1557.0552     0.9046     0.7899     0.9724   214.9647     0.0678    99.2636    94.0402    94.0402    52.0497    93.0775    52.0497    51.9632    94.4552    94.0402   -90.2182   176.2430   182.8668     0.1510   -47.2391     0.2792    -0.0474     0.0000  2993.4167
