~VERSION INFORMATION
VERS.           2.0   :CWLS Log ASCII Standard - VERSION 2.0
WRAP.           NO    :One Line per depth step
PROD.  Schlumberger   :LAS Producer
PROG.  DLIS to ASCII 19C2-270                          :LAS Program name and version
CREA.        2017/09/15 13:23                          :LAS Creation date {YYYY/MM/DD hh:mm}
DLIS_CREA.  2017-Sep-15 12:50                          :DLIS Creation date and time {YYYY-MMM-DD hh:mm}
SOURCE.     D5RL-00187_University of Utah_ME-ESW1_Run1_DSI_DoNotDistribute.dlis  :DLIS File Name
FILE-ID.     ConPr_R01_L001Up_DSI_DLIS_Custom          :File Identification Number
#--------------------------------------------------
~WELL INFORMATION
#MNEM.UNIT      DATA             DESCRIPTION
#---- ------ --------------   -----------------------------
STRT .F      2150.5          :START DEPTH     
STOP .F      7569.0          :STOP DEPTH     
STEP .F       0.5            :STEP     
NULL .          -999.25      :NULL VALUE
COMP .        University of Utah                       :COMPANY
WELL .        MU-ESW1                                  :WELL
FLD  .        None                                     :FIELD
LOC  .        From the S4 Corner of Sec. 32, T26S, R9W      :LOCATION
CNTY .        Beaver                                   :COUNTY
STAT .        Utah                                     :STATE
CTRY .        USA                                      :COUNTRY
API  .        1771001M00                               :API NUMBER
UWI  .        1771001M00                               :UNIQUE WELL ID
DATE .        15-Sep-2017                              :LOG DATE {DD-MMM-YYYY}
SRVC .        Schlumberger                             :SERVICE COMPANY
LATI .DEG     38.500562 degrees                        :LATITUDE
LONG .DEG     -112.88703 degrees                       :LONGITUDE
GDAT .                                                 :GeoDetic Datum
SECT .        32                                       :Section
RANG .        9W                                       :Range
TOWN .        26S                                      :Township
#-----------------------------------------------------------------------------
~PARAMETER INFORMATION
#MNEM.UNIT    VALUE                      DESCRIPTION
#---- -----   --------------------       ------------------------
CN   .        University of Utah         :Company Name
WN   .        MU-ESW1                    :Well Name
FN   .        None                       :Field Name
FL   .        From the S4 Corner of Sec. 32  T26S  R9W :Field Location
FL1  .        SHL  304' FNL & 522' FEL   :Field Location, Line 1
COUN .        Beaver                     :County or Parish
STAT .        Utah                       :State or Province
NATI .        USA                        :Nation
DATE .        15-Sep-2017                :Tools Above Rotary Table Date
APIN .        1771001M00                 :API Well Number
SECT .        32                         :Section
TOWN .        26S                        :Township
RANG .        9W                         :Range
DMF  .        KB                         :Drilling Measured From (Name of Drilling Elevation Reference)
LMF  .        KB                         :Logging Measured From (Name of Logging Elevation Reference)
PDAT .        GL                         :Permanent Datum
ENGI .        A.BLOCHOWICZ               :Engineer s Name
WITN .        JOE MOORE                  :Witness s Name
LATI .        38.500562 degrees          :Latitude
LONG .        -112.88703 degrees         :Longitude
LUL  .        Fort Morgan  CO            :Logging Unit Location
LUN  .        9108                       :Logging Unit Number
RUN  .        ONE.1                      :Run Number
SON  .        D5RL-00187                 :Service Order Number
BHT  .DEGF     253.00000                 :Bottom Hole Temperature
BS   .IN         8.75000                 :Bit Size
MDEN .G/C3       2.71000                 :Matrix Density for Density Porosity
DFD  .LB/G       8.60000                 :Drilling Fluid Density
DFV  .S         34.00000                 :Drilling Fluid Viscosity
DFL  .C3        10.20000                 :Drilling Fluid Loss
RMFS .OHMM       1.25000                 :Resistivity of Mud Filtrate Sample
EKB  .F       5557.50000                 :Elevation of Kelly Bushing
EGL  .F       5536.00000                 :Elevation of Ground Level
BLI  .F       7546.00000                 :Bottom Log Interval
BSAL .PPM      550.00000                 :Borehole Salinity
FLEV .F          8.00000                 :Depth of Drilling Fluid Level to LMF (Log Measured From)
MCST .DEGF      74.50000                 :Mudcake Sample Temperature
MFST .DEGF      74.50000                 :Mud Filtrate Sample Temperature
MRT  .DEGF     253.00000                 :Maximum Recorded Temperature
MST  .DEGF      74.50000                 :Mud Sample Temperature
RMCS .OHMM       1.69000                 :Resistivity of Mud Cake Sample
RMS  .OHMM       1.47000                 :Resistivity of Mud Sample
RW   .OHMM       1.00000                 :Connate Water Resistivity
TDD  .F       7536.00049                 :Driller Total Depth
TDL  .F       7536.00049                 :Logger Total Depth
TLI  .F       2175.00000                 :Top Log Interval
HIDE .                                   :Header Identifier
MATR .        LIME                       :Rock Matrix for Neutron Porosity Corrections
FNUM .           1.00000                 :F-Numerator for Formation Factor Formula
FEXP .           2.00000                 :Exponent "m" for Formation Factor Formula
DFT  .        WBM                        :Drilling Fluid Type
DFPH .           8.50000                 :Drilling Fluid pH
MCSS .        Calculated                 :Mudcake Sample Source
MFSS .        Calculated                 :Mud Filtrate Sample Source
FD   .G/C3       1.00000                 :Fluid Density
MSS  .        Active Tank                :Mud Sample Source
OS1  .                                   :Other Services Line 1
OS2  .                                   :Other Services Line 2
OS3  .                                   :Other Services Line 3
OS4  .                                   :Other Services Line 4
OS5  .                                   :Other Services Line 5
R1   .        Thank you for choosing Schlumberger! :Remarks Line 1
R2   .        Tool string run as per tool sketch and client logging program. :Remarks Line 2
R3   .        TD  7546 ft. CS  2175 ft   :Remarks Line 3
R4   .                                   :Remarks Line 4
R5   .                                   :Remarks Line 5
R6   .                                   :Remarks Line 6
R7   .                                   :Remarks Line 7
R8   .        2 CMEZs run on toolstring for centralization. :Remarks Line 8
TCS  .        22 00 00                   :Time Circulation Stopped
TLAB .        02 05 00                   :Time Logger At Bottom
EPD  .C3         5536.000000             :Elevation of Permanent Datum above Mean Sea Level
APD  .F          21.500000               :Elevation of Depth Reference (LMF) above Permanent Datum
#-----------------------------------------------------------------------------
~CURVE INFORMATION
#MNEM.UNIT   API CODE                                  DESCRIPTION
#---- -----  --------                                  -----------------------
DEPT .F                                                :DEPTH (BOREHOLE) {F10.1}
CDF  .LBF                                              :Calibrated Downhole Force {F11.4}
CHRP .                                                 :Peak Coherence, Receiver Array, Compressional - Monopole P S {F11.4}
CHR1 .                                                 :Peak Coherence, Receiver Array - Lower Dipole {F11.4}
CHR2 .                                                 :Peak Coherence, Receiver Array - Upper Dipole {F11.4}
CTEM .DEGF                                             :Cartridge Temperature {F11.4}
DCAL .IN                                               :Differential Caliper {F11.4}
DT1R .US/F                                             :Delta-T Shear, Receiver Array - Lower Dipole {F11.4}
DT2  .US/F                                             :Delta-T Shear - Upper Dipole {F11.4}
DT2R .US/F                                             :Delta-T Shear, Receiver Array - Upper Dipole {F11.4}
DT4P .US/F                                             :Delta-T Compressional - Monopole P S {F11.4}
DT4S .US/F                                             :Delta-T Shear - Monopole P S {F11.4}
DTCO .US/F                                             :Delta-T Compressional {F11.4}
DTRP .US/F                                             :Delta-T Compressional, Receiver Array - Monopole P S {F11.4}
DTRS .US/F                                             :Delta-T Shear, Receiver Array - Monopole P S {F11.4}
DTSM .US/F                                             :Delta-T Shear {F11.4}
ED   .F                                                :East Departure {F11.4}
GR_EDTC.GAPI                                           :Gamma Ray {F11.4}
GTEM .DEGF                                             :Generalized Borehole Temperature {F11.4}
ITT  .S                                                :Integrated Transit Time {F11.4}
ND   .F                                                :North Departure {F11.4}
PR   .                                                 :Poisson s Ratio {F11.4}
SPHI .CFCF                                             :Sonic Porosity {F11.4}
STIT .F                                                :Stuck Tool Indicator, Total {F11.4}
TENS .LBF                                              :Cable Tension {F11.4}
#-----------------------------------------------------------------------------
# 
#     DEPT       CDF        CHRP       CHR1       CHR2       CTEM       DCAL       DT1R       DT2        DT2R       DT4P       DT4S       DTCO       DTRP       DTRS       DTSM        ED      GR_EDTC      GTEM       ITT         ND         PR        SPHI       STIT       TENS
#
~A  
# ...
    5390.5  1532.8624     0.8566     0.9750     0.9686   224.8470     0.5730    95.8859   101.4448   101.4448    52.3712    88.4957    52.3712    54.9553    90.5920   101.4448  -136.1378   282.8601   200.1314     0.1143   -48.3129     0.3183    -0.0433     0.0000  3238.1924
    5391.0  1523.1868     0.8140     0.9814     0.9649   224.8470     0.5785    98.6530    99.9378    99.9378    52.0175    88.3779    52.0175    55.0787    90.4849    99.9378  -136.1440   292.9742   200.1437     0.1142   -48.3193     0.3142    -0.0479     0.0000  3197.4399
    5391.5  1511.3915     0.8075     0.9866     0.9743   224.8470     0.5526    97.8349    96.8902    96.8902    51.8998    90.2372    51.8998    53.2319    96.4911    96.8902  -136.1501   308.6712   200.1559     0.1142   -48.3257     0.2988    -0.0494     0.0000  3205.6538
    5392.0  1521.0840     0.8293     0.9880     0.9644   224.8470     0.5112    98.1017    94.2430    94.2430    51.9321    89.8122    51.9321    52.5726    94.6027    94.2430  -136.1561   322.0374   200.1682     0.1142   -48.3322     0.2820    -0.0490     0.0000  3224.0000
    5392.5  1516.7510     0.7854     0.9847     0.9563   224.8470     0.5027    96.7630    91.8004    91.8004    52.8023    90.6091    52.8023    51.9054    94.6853    91.8004  -136.1619   333.5409   200.1805     0.1142   -48.3384     0.2528    -0.0378     0.0000  3199.2800
    5393.0  1512.4460     0.7521     0.9643     0.9577   224.8470     0.4677    97.0163    89.4276    89.4276    53.0392    93.4114    53.0392    51.4365    96.7491    89.4276  -136.1679   335.8454   200.1927     0.1141   -48.3448     0.2287    -0.0349     0.0000  3197.7693
    5393.5  1527.2896     0.7618     0.9881     0.9567   224.8470     0.4097    93.5635    89.1544    89.1544    53.4239    93.9492    53.4239    52.3083    96.6414    89.1544  -136.1738   335.5603   200.2050     0.1141   -48.3512     0.2199    -0.0301     0.0000  3226.8801
    5394.0  1520.8125     0.8407     0.9901     0.9613   224.8470     0.4080    93.3201    90.4147    90.4147    53.2243    96.2565    53.2243    52.2643    95.7560    90.4147  -136.1794   330.9968   200.2173     0.1141   -48.3574     0.2349    -0.0326     0.0000  3199.5200
    5394.5  1524.9911     0.8729     0.9898     0.9715   224.8470     0.4114    94.0678    89.9170    89.9170    54.6332    95.3328    54.6332    53.9482    95.4050    89.9170  -136.1851   319.1055   200.2296     0.1140   -48.3636     0.2074    -0.0156     0.0000  3208.6155
    5395.0  1533.2649     0.9293     0.9923     0.9683   224.8470     0.4482    94.5165    91.6071    91.6071    55.3265    95.6600    55.3265    55.1540    96.1607    91.6071  -136.1908   301.3141   200.2418     0.1140   -48.3698     0.2129    -0.0076     0.0000  3226.8076
    5395.5  1536.8064     0.8994     0.9941     0.9656   224.8470     0.4815    94.1102    93.8590    93.8590    54.4273    97.2333    54.4273    54.7471    97.2768    93.8590  -136.1964   294.5695   200.2541     0.1140   -48.3760     0.2467    -0.0181     0.0000  3250.2002
    5396.0  1545.7275     0.9577     0.9911     0.9796   224.8470     0.5043    93.7015    95.7632    95.7632    54.0889    95.2971    54.0889    54.3013    97.7051    95.7632  -136.2018   288.1175   200.2664     0.1140   -48.3820     0.2658    -0.0221     0.0000  3241.6799
    5396.5  1536.3269     0.9108     0.9902     0.9807   224.8470     0.5235    93.1360    95.9270    95.9270    53.4317    94.8064    53.4317    53.5855    97.0282    95.9270  -136.2072   290.4137   200.2787     0.1139   -48.3881     0.2751    -0.0300     0.0000  3229.5000
    5397.0  1536.7335     0.8672     0.9910     0.9841   224.8470     0.5305    92.9628    95.2230    95.2230    53.7732    94.7567    53.7732    52.7471    95.7226    95.2230  -136.2126   292.3313   200.2909     0.1139   -48.3942     0.2659    -0.0259     0.0000  3231.6399
    5397.5  1543.2629     0.8979     0.9894     0.9842   224.8470     0.5304    92.4431    94.7826    94.7826    51.8531    97.2181    51.8531    52.5317    95.5807    94.7826  -136.2180   294.4619   200.3032     0.1139   -48.4003     0.2864    -0.0500     0.0000  3229.3572
    5398.0  1532.5905     0.8589     0.9919     0.9815   224.8470     0.5408    92.0472    94.3276    94.3276    52.7282    99.6419    52.7282    53.3430    95.5241    94.3276  -136.2232   292.9569   200.3155     0.1139   -48.4063     0.2728    -0.0388     0.0000  3233.9644
    5398.5  1531.3102     0.8887     0.9920     0.9827   224.8470     0.5566    92.3766    94.1279    94.1279    53.8269    98.0204    53.8269    53.9095    94.6063    94.1279  -136.2283   298.8076   200.3277     0.1138   -48.4121     0.2570    -0.0252     0.0000  3233.3215
    5399.0  1549.2859     0.8572     0.9913     0.9829   224.8470     0.5695    92.6900    93.1933    93.1933    54.1447    98.1842    54.1447    53.7520    95.0532    93.1933  -136.2335   290.5365   200.3400     0.1138   -48.4181     0.2452    -0.0214     0.0000  3264.1614
    5399.5  1539.1373     0.8893     0.9900     0.9837   224.8470     0.5816    92.0233    93.4901    93.4901    53.5575    96.7396    53.5575    53.1880    95.6240    93.4901  -136.2385   278.0222   200.3523     0.1138   -48.4240     0.2558    -0.0285     0.0000  3236.1563
    5400.0  1532.2233     0.9053     0.9922     0.9824   224.8470     0.6002    91.1989    92.3281    92.3281    53.0281    95.9420    53.0281    53.7499    95.2392    92.3281  -136.2435   252.3018   200.3645     0.1137   -48.4298     0.2539    -0.0350     0.0000  3213.4243
    5400.5  1534.4457     0.9195     0.9925     0.9840   224.8470     0.5955    91.6857    92.3071    92.3071    53.3735    95.8048    53.3735    53.6659    94.6598    92.3071  -136.2484   246.2444   200.3768     0.1137   -48.4356     0.2489    -0.0308     0.0000  3226.0000
    5401.0  1539.4484     0.9217     0.9925     0.9825   224.8470     0.6284    91.5616    91.5895    91.5895    53.8057    94.8228    53.8057    53.0134    92.7193    91.5895  -136.2533   255.0701   200.3891     0.1137   -48.4414     0.2365    -0.0255     0.0000  3209.7715
    5401.5  1530.1805     0.8439     0.9920     0.9843   224.8470     0.6012    91.0953    91.0368    91.0368    53.3760    92.1933    53.3760    53.0720    91.7431    91.0368  -136.2581   264.4594   200.4014     0.1137   -48.4472     0.2381    -0.0307     0.0000  3211.9414
    5402.0  1528.8135     0.8883     0.9924     0.9846   224.8470     0.6669    90.8762    89.6539    89.6539    53.5146    92.5402    53.5146    53.5917    91.2675    89.6539  -136.2628   269.2058   200.4136     0.1136   -48.4529     0.2233    -0.0290     0.0000  3205.0000
    5402.5  1533.5906     0.8997     0.9890     0.9847   224.8470     0.7704    91.0296    88.9176    88.9176    53.1403    93.0606    53.1403    52.7173    90.9137    88.9176  -136.2675   251.7326   200.4259     0.1136   -48.4586     0.2222    -0.0336     0.0000  3222.7429
    5403.0  1541.5922     0.9104     0.9912     0.9862   224.8470     0.8162    91.1045    88.9303    88.9303    52.5029    92.8056    52.5029    52.4040    90.8190    88.9303  -136.2721   243.4103   200.4382     0.1136   -48.4643     0.2325    -0.0416     0.0000  3229.8054
    5403.5  1544.6029     0.9015     0.9914     0.9852   224.8470     0.8651    91.4783    89.0296    89.0296    52.1304    92.2775    52.1304    52.5514    90.7885    89.0296  -136.2767   243.3221   200.4505     0.1136   -48.4700     0.2391    -0.0464     0.0000  3212.4500
    5404.0  1539.2568     0.8953     0.9901     0.9837   224.8470     0.9222    91.1369    89.2056    89.2056    52.7545    92.5695    52.7545    54.1120    91.1630    89.2056  -136.2811   259.6291   200.4627     0.1135   -48.4754     0.2311    -0.0385     0.0000  3208.0239
    5404.5  1533.7174     0.9067     0.9904     0.9795   224.8470     0.9328    91.2598    89.5733    89.5733    52.3067    91.3301    52.3067    53.5589    90.8582    89.5733  -136.2855   279.2230   200.4750     0.1135   -48.4810     0.2413    -0.0441     0.0000  3183.2327
    5405.0  1532.5002     0.9048     0.9904     0.9796   224.8470     0.9263    90.2676    89.6294    89.6294    52.5535    90.5552    52.5535    53.2479    90.5110    89.6294  -136.2899   294.7582   200.4873     0.1135   -48.4865     0.2380    -0.0410     0.0000  3203.6907
