~VERSION INFORMATION
VERS.           2.0   :CWLS Log ASCII Standard - VERSION 2.0
WRAP.           NO    :One Line per depth step
PROD.  Schlumberger   :LAS Producer
PROG.  DLIS to ASCII 19C2-270                          :LAS Program name and version
CREA.        2017/09/15 13:23                          :LAS Creation date {YYYY/MM/DD hh:mm}
DLIS_CREA.  2017-Sep-15 12:50                          :DLIS Creation date and time {YYYY-MMM-DD hh:mm}
SOURCE.     D5RL-00187_University of Utah_ME-ESW1_Run1_DSI_DoNotDistribute.dlis  :DLIS File Name
FILE-ID.     ConPr_R01_L001Up_DSI_DLIS_Custom          :File Identification Number
#--------------------------------------------------
~WELL INFORMATION
#MNEM.UNIT      DATA             DESCRIPTION
#---- ------ --------------   -----------------------------
STRT .F      2150.5          :START DEPTH     
STOP .F      7569.0          :STOP DEPTH     
STEP .F       0.5            :STEP     
NULL .          -999.25      :NULL VALUE
COMP .        University of Utah                       :COMPANY
WELL .        MU-ESW1                                  :WELL
FLD  .        None                                     :FIELD
LOC  .        From the S4 Corner of Sec. 32, T26S, R9W      :LOCATION
CNTY .        Beaver                                   :COUNTY
STAT .        Utah                                     :STATE
CTRY .        USA                                      :COUNTRY
API  .        1771001M00                               :API NUMBER
UWI  .        1771001M00                               :UNIQUE WELL ID
DATE .        15-Sep-2017                              :LOG DATE {DD-MMM-YYYY}
SRVC .        Schlumberger                             :SERVICE COMPANY
LATI .DEG     38.500562 degrees                        :LATITUDE
LONG .DEG     -112.88703 degrees                       :LONGITUDE
GDAT .                                                 :GeoDetic Datum
SECT .        32                                       :Section
RANG .        9W                                       :Range
TOWN .        26S                                      :Township
#-----------------------------------------------------------------------------
~PARAMETER INFORMATION
#MNEM.UNIT    VALUE                      DESCRIPTION
#---- -----   --------------------       ------------------------
CN   .        University of Utah         :Company Name
WN   .        MU-ESW1                    :Well Name
FN   .        None                       :Field Name
FL   .        From the S4 Corner of Sec. 32  T26S  R9W :Field Location
FL1  .        SHL  304' FNL & 522' FEL   :Field Location, Line 1
COUN .        Beaver                     :County or Parish
STAT .        Utah                       :State or Province
NATI .        USA                        :Nation
DATE .        15-Sep-2017                :Tools Above Rotary Table Date
APIN .        1771001M00                 :API Well Number
SECT .        32                         :Section
TOWN .        26S                        :Township
RANG .        9W                         :Range
DMF  .        KB                         :Drilling Measured From (Name of Drilling Elevation Reference)
LMF  .        KB                         :Logging Measured From (Name of Logging Elevation Reference)
PDAT .        GL                         :Permanent Datum
ENGI .        A.BLOCHOWICZ               :Engineer s Name
WITN .        JOE MOORE                  :Witness s Name
LATI .        38.500562 degrees          :Latitude
LONG .        -112.88703 degrees         :Longitude
LUL  .        Fort Morgan  CO            :Logging Unit Location
LUN  .        9108                       :Logging Unit Number
RUN  .        ONE.1                      :Run Number
SON  .        D5RL-00187                 :Service Order Number
BHT  .DEGF     253.00000                 :Bottom Hole Temperature
BS   .IN         8.75000                 :Bit Size
MDEN .G/C3       2.71000                 :Matrix Density for Density Porosity
DFD  .LB/G       8.60000                 :Drilling Fluid Density
DFV  .S         34.00000                 :Drilling Fluid Viscosity
DFL  .C3        10.20000                 :Drilling Fluid Loss
RMFS .OHMM       1.25000                 :Resistivity of Mud Filtrate Sample
EKB  .F       5557.50000                 :Elevation of Kelly Bushing
EGL  .F       5536.00000                 :Elevation of Ground Level
BLI  .F       7546.00000                 :Bottom Log Interval
BSAL .PPM      550.00000                 :Borehole Salinity
FLEV .F          8.00000                 :Depth of Drilling Fluid Level to LMF (Log Measured From)
MCST .DEGF      74.50000                 :Mudcake Sample Temperature
MFST .DEGF      74.50000                 :Mud Filtrate Sample Temperature
MRT  .DEGF     253.00000                 :Maximum Recorded Temperature
MST  .DEGF      74.50000                 :Mud Sample Temperature
RMCS .OHMM       1.69000                 :Resistivity of Mud Cake Sample
RMS  .OHMM       1.47000                 :Resistivity of Mud Sample
RW   .OHMM       1.00000                 :Connate Water Resistivity
TDD  .F       7536.00049                 :Driller Total Depth
TDL  .F       7536.00049                 :Logger Total Depth
TLI  .F       2175.00000                 :Top Log Interval
HIDE .                                   :Header Identifier
MATR .        LIME                       :Rock Matrix for Neutron Porosity Corrections
FNUM .           1.00000                 :F-Numerator for Formation Factor Formula
FEXP .           2.00000                 :Exponent "m" for Formation Factor Formula
DFT  .        WBM                        :Drilling Fluid Type
DFPH .           8.50000                 :Drilling Fluid pH
MCSS .        Calculated                 :Mudcake Sample Source
MFSS .        Calculated                 :Mud Filtrate Sample Source
FD   .G/C3       1.00000                 :Fluid Density
MSS  .        Active Tank                :Mud Sample Source
OS1  .                                   :Other Services Line 1
OS2  .                                   :Other Services Line 2
OS3  .                                   :Other Services Line 3
OS4  .                                   :Other Services Line 4
OS5  .                                   :Other Services Line 5
R1   .        Thank you for choosing Schlumberger! :Remarks Line 1
R2   .        Tool string run as per tool sketch and client logging program. :Remarks Line 2
R3   .        TD  7546 ft. CS  2175 ft   :Remarks Line 3
R4   .                                   :Remarks Line 4
R5   .                                   :Remarks Line 5
R6   .                                   :Remarks Line 6
R7   .                                   :Remarks Line 7
R8   .        2 CMEZs run on toolstring for centralization. :Remarks Line 8
TCS  .        22 00 00                   :Time Circulation Stopped
TLAB .        02 05 00                   :Time Logger At Bottom
EPD  .C3         5536.000000             :Elevation of Permanent Datum above Mean Sea Level
APD  .F          21.500000               :Elevation of Depth Reference (LMF) above Permanent Datum
#-----------------------------------------------------------------------------
~CURVE INFORMATION
#MNEM.UNIT   API CODE                                  DESCRIPTION
#---- -----  --------                                  -----------------------
DEPT .F                                                :DEPTH (BOREHOLE) {F10.1}
CDF  .LBF                                              :Calibrated Downhole Force {F11.4}
CHRP .                                                 :Peak Coherence, Receiver Array, Compressional - Monopole P S {F11.4}
CHR1 .                                                 :Peak Coherence, Receiver Array - Lower Dipole {F11.4}
CHR2 .                                                 :Peak Coherence, Receiver Array - Upper Dipole {F11.4}
CTEM .DEGF                                             :Cartridge Temperature {F11.4}
DCAL .IN                                               :Differential Caliper {F11.4}
DT1R .US/F                                             :Delta-T Shear, Receiver Array - Lower Dipole {F11.4}
DT2  .US/F                                             :Delta-T Shear - Upper Dipole {F11.4}
DT2R .US/F                                             :Delta-T Shear, Receiver Array - Upper Dipole {F11.4}
DT4P .US/F                                             :Delta-T Compressional - Monopole P S {F11.4}
DT4S .US/F                                             :Delta-T Shear - Monopole P S {F11.4}
DTCO .US/F                                             :Delta-T Compressional {F11.4}
DTRP .US/F                                             :Delta-T Compressional, Receiver Array - Monopole P S {F11.4}
DTRS .US/F                                             :Delta-T Shear, Receiver Array - Monopole P S {F11.4}
DTSM .US/F                                             :Delta-T Shear {F11.4}
ED   .F                                                :East Departure {F11.4}
GR_EDTC.GAPI                                           :Gamma Ray {F11.4}
GTEM .DEGF                                             :Generalized Borehole Temperature {F11.4}
ITT  .S                                                :Integrated Transit Time {F11.4}
ND   .F                                                :North Departure {F11.4}
PR   .                                                 :Poisson s Ratio {F11.4}
SPHI .CFCF                                             :Sonic Porosity {F11.4}
STIT .F                                                :Stuck Tool Indicator, Total {F11.4}
TENS .LBF                                              :Cable Tension {F11.4}
#-----------------------------------------------------------------------------
# 
#     DEPT       CDF        CHRP       CHR1       CHR2       CTEM       DCAL       DT1R       DT2        DT2R       DT4P       DT4S       DTCO       DTRP       DTRS       DTSM        ED      GR_EDTC      GTEM       ITT         ND         PR        SPHI       STIT       TENS
#
~A  
# ...
    2510.5  1510.9746     0.7770     0.9790     0.9863   179.3882     1.0380   144.2990   146.3410   146.3410    73.0897   151.6017    73.0897    71.5282   146.5996   146.3410     2.6594   169.5359   129.6128     0.2868   -35.2055     0.3338     0.1461     0.0000  2271.3335
    2511.0  1522.4465     0.8022     0.9821     0.9865   179.3882     1.0740   146.2791   146.7022   146.7022    74.5989   156.6586    74.5989    74.3308   157.8105   146.7022     2.6644   168.6967   129.6251     0.2867   -35.2077     0.3256     0.1558     0.0000  2288.2085
    2511.5  1512.1229     0.8257     0.9858     0.9846   179.3882     1.1674   150.0811   151.0878   151.0878    75.1999   158.4713    75.1999    74.2416   161.1444   151.0878     2.6694   165.2279   129.6373     0.2867   -35.2099     0.3353     0.1596     0.0000  2288.0000
    2512.0  1517.7130     0.7228     0.9860     0.9833   179.3882     1.1507   153.6769   153.2581   153.2581    77.3588   158.2202    77.3588    74.0812   161.8695   153.2581     2.6745   160.7391   129.6496     0.2867   -35.2121     0.3291     0.1726     0.0000  2289.6250
    2512.5  1526.0371     0.7923     0.9820     0.9818   179.3882     1.1398   153.4125   152.9662   152.9662    76.8093   158.1180    76.8093    75.2894   160.6458   152.9662     2.6795   153.8759   129.6619     0.2866   -35.2144     0.3314     0.1693     0.0000  2273.1665
    2513.0  1501.0420     0.8556     0.9796     0.9816   179.3882     1.2100   152.7371   152.3820   152.3820    78.0353   155.7132    78.0353    78.3333   154.8172   152.3820     2.6845   143.1106   129.6741     0.2866   -35.2167     0.3223     0.1765     0.0000  2259.1250
    2513.5  1500.3357     0.7466     0.9771     0.9871   179.3882     1.1909   151.2154   150.2555   150.2555    75.2303   155.5377    75.2303    78.6494   154.8051   150.2555     2.6893   139.6175   129.6864     0.2865   -35.2190     0.3327     0.1598     0.0000  2263.1306
    2514.0  1525.0079     0.7878     0.9811     0.9876   179.3882     1.1354   148.7613   149.2742   149.2742    75.8652   154.1754    75.8652    79.5150   157.2014   149.2742     2.6942   145.0526   129.6987     0.2865   -35.2213     0.3259     0.1637     0.0000  2281.8335
    2514.5  1512.9583     0.6300     0.9805     0.9800   179.3882     1.1555   146.4425   148.0542   148.0542    75.7104   158.5666    75.7104    79.7522   159.8644   148.0542     2.6992   150.2754   129.7110     0.2865   -35.2237     0.3230     0.1627     0.0000  2262.1667
    2515.0  1512.6095     0.7430     0.9800     0.9739   179.3882     1.1997   143.6911   146.5546   146.5546    76.3206   158.2914    76.3206    74.1937   162.5274   146.5546     2.7042   162.1901   129.7232     0.2864   -35.2262     0.3139     0.1664     0.0000  2297.4167
    2515.5  1498.4576     0.6606     0.9791     0.9761   179.3882     1.0459   142.4691   144.0624   144.0624    75.4880   157.2972    75.4880    74.6369   165.1903   144.0624     2.7091   173.7565   129.7355     0.2864   -35.2286     0.3108     0.1614     0.0000  2261.2175
    2516.0  1524.4059     0.7993     0.9860     0.9774   179.3882     1.0305   143.3345   143.9516   143.9516    74.7057   158.0653    74.7057    74.1995   167.8533   143.9516     2.7140   186.4341   129.7478     0.2863   -35.2311     0.3157     0.1565     0.0000  2293.0833
    2516.5  1506.3541     0.8174     0.9659     0.9747   179.3882     1.1219   140.4400   142.6099   142.6099    71.7137   159.1258    71.7137    72.8209   166.4590   142.6099     2.7190   187.3742   129.7601     0.2863   -35.2337     0.3308     0.1369     0.0000  2293.8750
    2517.0  1510.1278     0.7514     0.9761     0.9713   179.3882     1.1501   142.1097   138.9521   138.9521    71.7645   153.5982    71.7645    73.4054   155.7111   138.9521     2.7239   179.2262   129.7723     0.2863   -35.2362     0.3181     0.1373     0.0000  2265.9568
    2517.5  1534.7717     0.7468     0.9703     0.9834   179.3882     1.2146   141.8904   138.3637   138.3637    68.6178   148.3900    68.6178    73.0099   144.9632   138.3637     2.7288   175.3057   129.7846     0.2862   -35.2388     0.3369     0.1149     0.0000  2301.5000
    2518.0  1543.0876     0.8213     0.9700     0.9796   179.3882     1.1841   143.3727   141.1339   141.1339    72.3046   145.7280    72.3046    72.7772   150.4235   141.1339     2.7337   179.0261   129.7969     0.2862   -35.2415     0.3221     0.1409     0.0000  2343.4585
    2518.5  1529.9561     0.8282     0.9814     0.9774   179.3882     1.0754   145.3062   143.3465   143.3465    70.3997   142.9679    70.3997    71.8726   141.6831   143.3465     2.7385   177.3643   129.8091     0.2862   -35.2441     0.3411     0.1278     0.0000  2290.7827
    2519.0  1528.8224     0.8289     0.9827     0.9786   179.3882     1.1400   145.3776   144.7977   144.7977    76.1242   145.3514    76.1242    73.5583   140.3115   144.7977     2.7434   167.0020   129.8214     0.2861   -35.2468     0.3090     0.1652     0.0000  2310.0833
    2519.5  1532.9161     0.8994     0.9782     0.9828   179.3882     1.3144   145.2596   145.5703   145.5703    75.7337   148.1087    75.7337    73.9445   143.5851   145.5703     2.7484   154.9559   129.8337     0.2861   -35.2496     0.3144     0.1629     0.0000  2299.0415
    2520.0  1528.4180     0.9067     0.9754     0.9826   179.3882     1.1292   145.2426   149.0374   149.0374    75.1364   152.2557    75.1364    73.8467   149.6379   149.0374     2.7532   151.5873   129.8459     0.2861   -35.2524     0.3296     0.1592     0.0000  2313.9565
    2520.5  1556.1658     0.9150     0.9785     0.9827   179.3882     1.0927   145.4099   150.1861   150.1861    77.0033   152.4691    77.0033    74.5581   147.8235   150.1861     2.7580   156.8965   129.8582     0.2860   -35.2552     0.3217     0.1705     0.0000  2335.6667
    2521.0  1504.8955     0.8954     0.9818     0.9809   179.3882     1.1246   146.6529   149.0708   149.0708    77.4663   147.2449    77.4663    74.4348   146.2207   149.0708     2.7628   157.1526   129.8705     0.2860   -35.2580     0.3150     0.1732     0.0000  2275.0417
    2521.5  1505.8729     0.8635     0.9817     0.9813   179.3882     1.1942   146.4476   146.4241   146.4241    73.6506   145.1909    73.6506    74.0404   146.5076   146.4241     2.7677   156.5458   129.8828     0.2859   -35.2609     0.3307     0.1498     0.0000  2285.8750
    2522.0  1553.0635     0.8108     0.9764     0.9804   179.3882     1.2211   146.3243   142.1183   142.1183    75.4806   147.4142    75.4806    76.8949   152.4107   142.1183     2.7726   157.9649   129.8951     0.2859   -35.2639     0.3035     0.1613     0.0000  2351.8333
    2522.5  1537.9535     0.8569     0.9824     0.9858   179.3882     1.2118   146.7265   141.7618   141.7618    75.8229   141.5003    75.8229    76.0786   149.2176   141.7618     2.7774   151.8640   129.9073     0.2859   -35.2668     0.2996     0.1634     0.0000  2297.4583
    2523.0  1535.8739     0.7813     0.9828     0.9862   179.3882     1.3347   148.3475   141.6665   141.6665    74.0357   148.2893    74.0357    72.2984   152.4239   141.6665     2.7823   151.8619   129.9196     0.2858   -35.2698     0.3121     0.1523     0.0000  2321.9167
    2523.5  1511.3647     0.8263     0.9833     0.9801   179.3882     1.4532   149.6765   142.5476   142.5476    75.9774   153.4512    75.9774    72.8361   155.6302   142.5476     2.7870   148.3953   129.9319     0.2858   -35.2728     0.3016     0.1643     0.0000  2255.0872
    2524.0  1521.3409     0.8338     0.9705     0.9632   179.3882     1.4686   147.4104   146.0614   146.0614    75.5914   153.9305    75.5914    71.7167   158.8365   146.0614     2.7917   153.9252   129.9441     0.2858   -35.2758     0.3171     0.1620     0.0000  2275.6667
    2524.5  1526.4673     0.8935     0.9667     0.9596   179.3882     1.2117   146.9401   147.9921   147.9921    72.5016   148.4259    72.5016    71.9507   162.0427   147.9921     2.7966   163.0981   129.9564     0.2857   -35.2789     0.3421     0.1423     0.0000  2304.2500
    2525.0  1542.3513     0.7715     0.9588     0.9540   179.3882     0.9050   146.9596   148.7543   148.7543    70.6425   148.8882    70.6425    69.7031   154.7042   148.7543     2.8014   171.9760   129.9687     0.2857   -35.2821     0.3544     0.1295     0.0000  2314.2083
