~VERSION INFORMATION
VERS.           2.0   :CWLS Log ASCII Standard - VERSION 2.0
WRAP.           NO    :One Line per depth step
PROD.  Schlumberger   :LAS Producer
PROG.  DLIS to ASCII 19C2-270                          :LAS Program name and version
CREA.        2017/09/15 13:23                          :LAS Creation date {YYYY/MM/DD hh:mm}
DLIS_CREA.  2017-Sep-15 12:50                          :DLIS Creation date and time {YYYY-MMM-DD hh:mm}
SOURCE.     D5RL-00187_University of Utah_ME-ESW1_Run1_DSI_DoNotDistribute.dlis  :DLIS File Name
FILE-ID.     ConPr_R01_L001Up_DSI_DLIS_Custom          :File Identification Number
#--------------------------------------------------
~WELL INFORMATION
#MNEM.UNIT      DATA             DESCRIPTION
#---- ------ --------------   -----------------------------
STRT .F      2150.5          :START DEPTH     
STOP .F      7569.0          :STOP DEPTH     
STEP .F       0.5            :STEP     
NULL .          -999.25      :NULL VALUE
COMP .        University of Utah                       :COMPANY
WELL .        MU-ESW1                                  :WELL
FLD  .        None                                     :FIELD
LOC  .        From the S4 Corner of Sec. 32, T26S, R9W      :LOCATION
CNTY .        Beaver                                   :COUNTY
STAT .        Utah                                     :STATE
CTRY .        USA                                      :COUNTRY
API  .        1771001M00                               :API NUMBER
UWI  .        1771001M00                               :UNIQUE WELL ID
DATE .        15-Sep-2017                              :LOG DATE {DD-MMM-YYYY}
SRVC .        Schlumberger                             :SERVICE COMPANY
LATI .DEG     38.500562 degrees                        :LATITUDE
LONG .DEG     -112.88703 degrees                       :LONGITUDE
GDAT .                                                 :GeoDetic Datum
SECT .        32                                       :Section
RANG .        9W                                       :Range
TOWN .        26S                                      :Township
#-----------------------------------------------------------------------------
~PARAMETER INFORMATION
#MNEM.UNIT    VALUE                      DESCRIPTION
#---- -----   --------------------       ------------------------
CN   .        University of Utah         :Company Name
WN   .        MU-ESW1                    :Well Name
FN   .        None                       :Field Name
FL   .        From the S4 Corner of Sec. 32  T26S  R9W :Field Location
FL1  .        SHL  304' FNL & 522' FEL   :Field Location, Line 1
COUN .        Beaver                     :County or Parish
STAT .        Utah                       :State or Province
NATI .        USA                        :Nation
DATE .        15-Sep-2017                :Tools Above Rotary Table Date
APIN .        1771001M00                 :API Well Number
SECT .        32                         :Section
TOWN .        26S                        :Township
RANG .        9W                         :Range
DMF  .        KB                         :Drilling Measured From (Name of Drilling Elevation Reference)
LMF  .        KB                         :Logging Measured From (Name of Logging Elevation Reference)
PDAT .        GL                         :Permanent Datum
ENGI .        A.BLOCHOWICZ               :Engineer s Name
WITN .        JOE MOORE                  :Witness s Name
LATI .        38.500562 degrees          :Latitude
LONG .        -112.88703 degrees         :Longitude
LUL  .        Fort Morgan  CO            :Logging Unit Location
LUN  .        9108                       :Logging Unit Number
RUN  .        ONE.1                      :Run Number
SON  .        D5RL-00187                 :Service Order Number
BHT  .DEGF     253.00000                 :Bottom Hole Temperature
BS   .IN         8.75000                 :Bit Size
MDEN .G/C3       2.71000                 :Matrix Density for Density Porosity
DFD  .LB/G       8.60000                 :Drilling Fluid Density
DFV  .S         34.00000                 :Drilling Fluid Viscosity
DFL  .C3        10.20000                 :Drilling Fluid Loss
RMFS .OHMM       1.25000                 :Resistivity of Mud Filtrate Sample
EKB  .F       5557.50000                 :Elevation of Kelly Bushing
EGL  .F       5536.00000                 :Elevation of Ground Level
BLI  .F       7546.00000                 :Bottom Log Interval
BSAL .PPM      550.00000                 :Borehole Salinity
FLEV .F          8.00000                 :Depth of Drilling Fluid Level to LMF (Log Measured From)
MCST .DEGF      74.50000                 :Mudcake Sample Temperature
MFST .DEGF      74.50000                 :Mud Filtrate Sample Temperature
MRT  .DEGF     253.00000                 :Maximum Recorded Temperature
MST  .DEGF      74.50000                 :Mud Sample Temperature
RMCS .OHMM       1.69000                 :Resistivity of Mud Cake Sample
RMS  .OHMM       1.47000                 :Resistivity of Mud Sample
RW   .OHMM       1.00000                 :Connate Water Resistivity
TDD  .F       7536.00049                 :Driller Total Depth
TDL  .F       7536.00049                 :Logger Total Depth
TLI  .F       2175.00000                 :Top Log Interval
HIDE .                                   :Header Identifier
MATR .        LIME                       :Rock Matrix for Neutron Porosity Corrections
FNUM .           1.00000                 :F-Numerator for Formation Factor Formula
FEXP .           2.00000                 :Exponent "m" for Formation Factor Formula
DFT  .        WBM                        :Drilling Fluid Type
DFPH .           8.50000                 :Drilling Fluid pH
MCSS .        Calculated                 :Mudcake Sample Source
MFSS .        Calculated                 :Mud Filtrate Sample Source
FD   .G/C3       1.00000                 :Fluid Density
MSS  .        Active Tank                :Mud Sample Source
OS1  .                                   :Other Services Line 1
OS2  .                                   :Other Services Line 2
OS3  .                                   :Other Services Line 3
OS4  .                                   :Other Services Line 4
OS5  .                                   :Other Services Line 5
R1   .        Thank you for choosing Schlumberger! :Remarks Line 1
R2   .        Tool string run as per tool sketch and client logging program. :Remarks Line 2
R3   .        TD  7546 ft. CS  2175 ft   :Remarks Line 3
R4   .                                   :Remarks Line 4
R5   .                                   :Remarks Line 5
R6   .                                   :Remarks Line 6
R7   .                                   :Remarks Line 7
R8   .        2 CMEZs run on toolstring for centralization. :Remarks Line 8
TCS  .        22 00 00                   :Time Circulation Stopped
TLAB .        02 05 00                   :Time Logger At Bottom
EPD  .C3         5536.000000             :Elevation of Permanent Datum above Mean Sea Level
APD  .F          21.500000               :Elevation of Depth Reference (LMF) above Permanent Datum
#-----------------------------------------------------------------------------
~CURVE INFORMATION
#MNEM.UNIT   API CODE                                  DESCRIPTION
#---- -----  --------                                  -----------------------
DEPT .F                                                :DEPTH (BOREHOLE) {F10.1}
CDF  .LBF                                              :Calibrated Downhole Force {F11.4}
CHRP .                                                 :Peak Coherence, Receiver Array, Compressional - Monopole P S {F11.4}
CHR1 .                                                 :Peak Coherence, Receiver Array - Lower Dipole {F11.4}
CHR2 .                                                 :Peak Coherence, Receiver Array - Upper Dipole {F11.4}
CTEM .DEGF                                             :Cartridge Temperature {F11.4}
DCAL .IN                                               :Differential Caliper {F11.4}
DT1R .US/F                                             :Delta-T Shear, Receiver Array - Lower Dipole {F11.4}
DT2  .US/F                                             :Delta-T Shear - Upper Dipole {F11.4}
DT2R .US/F                                             :Delta-T Shear, Receiver Array - Upper Dipole {F11.4}
DT4P .US/F                                             :Delta-T Compressional - Monopole P S {F11.4}
DT4S .US/F                                             :Delta-T Shear - Monopole P S {F11.4}
DTCO .US/F                                             :Delta-T Compressional {F11.4}
DTRP .US/F                                             :Delta-T Compressional, Receiver Array - Monopole P S {F11.4}
DTRS .US/F                                             :Delta-T Shear, Receiver Array - Monopole P S {F11.4}
DTSM .US/F                                             :Delta-T Shear {F11.4}
ED   .F                                                :East Departure {F11.4}
GR_EDTC.GAPI                                           :Gamma Ray {F11.4}
GTEM .DEGF                                             :Generalized Borehole Temperature {F11.4}
ITT  .S                                                :Integrated Transit Time {F11.4}
ND   .F                                                :North Departure {F11.4}
PR   .                                                 :Poisson s Ratio {F11.4}
SPHI .CFCF                                             :Sonic Porosity {F11.4}
STIT .F                                                :Stuck Tool Indicator, Total {F11.4}
TENS .LBF                                              :Cable Tension {F11.4}
#-----------------------------------------------------------------------------
# 
#     DEPT       CDF        CHRP       CHR1       CHR2       CTEM       DCAL       DT1R       DT2        DT2R       DT4P       DT4S       DTCO       DTRP       DTRS       DTSM        ED      GR_EDTC      GTEM       ITT         ND         PR        SPHI       STIT       TENS
#
~A  
    2150.5  1504.6829     0.8685     0.9558     0.8672   173.4588    -3.4340   159.1790   157.7838   157.7838    80.3849   174.2649    80.3849    78.8373  -999.2500   157.7838    -2.5221    94.9985   120.7772     0.3145   -36.0715     0.3247     0.1896     0.0000  2213.2175
    2151.0  1503.2537     0.7267     0.9608     0.9507   173.4588    -3.4323   163.6266   164.2277   164.2277    77.9492   170.7017    77.9492    72.4379  -999.2500   164.2277    -2.5189    96.1503   120.7894     0.3145   -36.0792     0.3546     0.1760     0.0000  2187.7917
    2151.5  1504.5558     0.7376     0.5538     0.8771   173.4588    -3.4235   167.6277   187.4032   187.4032    77.3687   174.3227    77.3687    73.8076  -999.2500   187.4032    -2.5157    95.5567   120.8017     0.3145   -36.0866     0.3973     0.1726     0.0000  2236.6958
    2152.0  1500.5692     0.6584     0.4917     0.8608   173.4588    -3.4218   147.5429   198.1136   198.1136    75.1182   174.2195    75.1182    71.8881  -999.2500   198.1136    -2.5123    92.5473   120.8140     0.3144   -36.0936     0.4160     0.1591     0.0000  2179.3335
    2152.5  1503.3593     0.4257     0.4845     0.3609   173.4588    -3.4218   163.0902   180.6691   180.6691    73.3685  -999.2500    73.3685    68.9319  -999.2500   180.6691    -2.5089    88.9130   120.8262     0.3144   -36.1002     0.4013     0.1480     0.0000  2176.3914
    2153.0  1501.4489     0.7280     0.7782     0.7882   173.4588    -3.4218   150.3840   192.9808   192.9808    71.6588  -999.2500    71.6588    70.1572  -999.2500   192.9808    -2.5053    88.6181   120.8385     0.3143   -36.1063     0.4200     0.1366     0.0000  2180.9167
    2153.5  1500.6598     0.6081     0.8505     0.8015   173.4588    -3.4200   139.3325   177.6479   177.6479    71.8442  -999.2500    71.8442    70.5766  -999.2500   177.6479    -2.5016    92.2922   120.8508     0.3143   -36.1122     0.4022     0.1378     0.0000  2195.8750
    2154.0  1504.1852     0.7782     0.7425     0.6115   173.4588    -3.4288   147.1936   179.9440   179.9440    71.8170   173.8066    71.8170    69.8881   173.8066   179.9440    -2.4978    93.7497   120.8631     0.3143   -36.1177     0.4053     0.1377     0.0000  2212.3914
    2154.5  1503.1934     0.7877     0.8137     0.6895   173.4588    -3.4253   152.7971   155.5092   155.5092    75.3417   178.9162    75.3417    72.0512   178.9162   155.5092    -2.4939    95.0885   120.8753     0.3142   -36.1227     0.3466     0.1604     0.0000  2204.9585
    2155.0  1499.5133     0.7929     0.8817     0.8290   173.4588    -3.4270   152.6306   158.1922   158.1922    76.4615   180.2867    76.4615    73.2498   180.2867   158.1922    -2.4898    92.5432   120.8876     0.3142   -36.1274     0.3476     0.1673     0.0000  2194.5417
    2155.5  1501.5596     0.8694     0.9443     0.4261   173.4588    -3.4200   156.9016   155.9242   155.9242    77.5732   184.1238    77.5732    76.4435   184.1238   155.9242    -2.4856    95.4192   120.8999     0.3142   -36.1317     0.3355     0.1738     0.0000  2193.7393
    2156.0  1500.5583     0.8695     0.9021     0.7524   173.4588    -3.4200   165.0253   163.8232   163.8232    76.9955   176.4981    76.9955    75.3660   176.4981   163.8232    -2.4814    97.8243   120.9122     0.3141   -36.1355     0.3582     0.1704     0.0000  2215.7500
    2156.5  1501.9875     0.8087     0.9055     0.9511   173.4588    -3.4148   168.1678   162.4096   162.4096    79.0941   156.0096    79.0941    80.0717   168.6049   162.4096    -2.4770   104.0191   120.9244     0.3141   -36.1390     0.3445     0.1825     0.0000  2195.8262
    2157.0  1499.1798     0.7305     0.7162     0.8516   173.4588    -3.4200   165.4119   164.7748   164.7748    78.4330   152.0630    78.4330    80.5866   160.7116   164.7748    -2.4725   106.0623   120.9367     0.3140   -36.1421     0.3535     0.1788     0.0000  2202.9167
    2157.5  1500.8739     0.7587     0.7679     0.6393   173.4588    -3.4165   157.9830   159.5862   159.5862    76.4808   149.8551    76.4808    80.1109   156.2958   159.5862    -2.4678   103.0297   120.9490     0.3140   -36.1449     0.3509     0.1674     0.0000  2186.3477
    2158.0  1501.2874     0.7416     0.8800     0.8888   173.4588    -3.4200   155.0011   149.4907   149.4907    74.6636   154.8347    74.6636    76.9983   156.7569   149.4907    -2.4631   102.5079   120.9613     0.3140   -36.1472     0.3338     0.1562     0.0000  2203.3333
    2158.5  1501.8534     0.6754     0.8573     0.6086   173.4588    -3.4200   153.8575   145.4404   145.4404    70.6573   155.9660    70.6573    70.0716   156.3850   145.4404    -2.4582   100.7876   120.9735     0.3139   -36.1492     0.3455     0.1297     0.0000  2201.0869
    2159.0  1503.5782     0.6563     0.7151     0.5600   173.4588    -3.4165   146.0031   148.9724   148.9724    73.5266   158.1813    73.5266    73.8807   158.2776   148.9724    -2.4533   104.6806   120.9858     0.3139   -36.1508     0.3390     0.1490     0.0000  2219.8750
    2159.5  1500.1147     0.7858     0.8904     0.7962   173.4588    -3.4183   151.4415   145.1074   145.1074    72.5046   160.8157    72.5046    72.3794  -999.2500   145.1074    -2.4482    99.1808   120.9981     0.3139   -36.1520     0.3336     0.1423     0.0000  2191.5220
    2160.0  1498.4077     0.7804     0.9090     0.8792   173.4588    -3.4200   148.1374   147.5388   147.5388    73.9543   163.4501    73.9543    74.5615  -999.2500   147.5388    -2.4430    95.4775   121.0103     0.3138   -36.1528     0.3322     0.1517     0.0000  2201.0417
    2160.5  1500.7122     0.8217     0.6827     0.3680   173.4588    -3.4113   156.6222   125.4160   125.4160    75.7308   166.0845    75.7308    74.4194  -999.2500   125.4160    -2.4376    91.6466   121.0226     0.3138   -36.1532     0.2131     0.1628     0.0000  2212.7083
    2161.0  1493.0750     0.7446     0.7443     0.6685   173.4588    -3.4200   152.7178   134.9482   134.9482    74.4714   168.7189    74.4714    74.4427  -999.2500   134.9482    -2.4321    91.8015   121.0349     0.3137   -36.1533     0.2811     0.1550     0.0000  2186.9565
    2161.5  1494.6028     0.7784     0.8085     0.6038   173.4588    -3.4218   151.1859   148.2219   148.2219    75.7432   171.3532    75.7432    74.6440  -999.2500   148.2219    -2.4266    90.2339   121.0472     0.3137   -36.1529     0.3233     0.1629     0.0000  2204.9167
    2162.0  1496.9116     0.7409     0.8727     0.5620   173.4588    -3.4165   149.6541   129.4893   129.4893    78.8152   173.9876    78.8152    80.0482  -999.2500   129.4893    -2.4208    89.5857   121.0594     0.3137   -36.1522     0.2058     0.1809     0.0000  2222.2175
    2162.5  1498.4182     0.7547     0.9209     0.8202   173.4588    -3.4130   151.1476   158.0789   158.0789    78.0318   176.6220    78.0318    78.6854  -999.2500   158.0789    -2.4151    90.3789   121.0717     0.3136   -36.1511     0.3389     0.1765     0.0000  2220.1665
    2163.0  1500.3116     0.8220     0.9596     0.9596   173.4588    -3.4165   157.0304   157.4103   157.4103    78.8301   171.0048    78.8301    80.0033  -999.2500   157.4103    -2.4092    94.9623   121.0840     0.3136   -36.1496     0.3326     0.1810     0.0000  2184.5217
    2163.5  1503.6454     0.8200     0.9595     0.9598   173.4588    -3.4253   157.0224   157.3943   157.3943    79.0101   183.2272    79.0101    80.0543  -999.2500   157.3943    -2.4032    93.1610   121.0963     0.3136   -36.1477     0.3316     0.1820     0.0000  2177.8333
    2164.0  1498.6357     0.8864     0.9092     0.8126   173.4588    -3.4200   169.1810   164.1358   164.1358    81.0728   181.7052    81.0728    81.3952  -999.2500   164.1358    -2.3970    94.1519   121.1085     0.3135   -36.1454     0.3386     0.1933     0.0000  2205.2610
    2164.5  1494.3928     0.7492     0.9217     0.8741   173.4588    -3.4130   172.5117   166.5055   166.5055    80.7153   180.1831    80.7153    81.4571  -999.2500   166.5055    -2.3908    89.5070   121.1208     0.3135   -36.1428     0.3464     0.1914     0.0000  2190.3750
    2165.0  1491.2113     0.7803     0.9433     0.8106   173.4588    -3.4270   174.8051   173.7505   173.7505    82.3638   177.2574    82.3638    82.7596  -999.2500   173.7505    -2.3843    90.0629   121.1331     0.3134   -36.1397     0.3551     0.2001     0.0000  2203.3750
