~VERSION INFORMATION
VERS.           2.0   :CWLS Log ASCII Standard - VERSION 2.0
WRAP.           NO    :One Line per depth step
PROD.  Schlumberger   :LAS Producer
PROG.  DLIS to ASCII 19C2-270                          :LAS Program name and version
CREA.        2017/09/15 13:23                          :LAS Creation date {YYYY/MM/DD hh:mm}
DLIS_CREA.  2017-Sep-15 12:50                          :DLIS Creation date and time {YYYY-MMM-DD hh:mm}
SOURCE.     D5RL-00187_University of Utah_ME-ESW1_Run1_DSI_DoNotDistribute.dlis  :DLIS File Name
FILE-ID.     ConPr_R01_L001Up_DSI_DLIS_Custom          :File Identification Number
#--------------------------------------------------
~WELL INFORMATION
#MNEM.UNIT      DATA             DESCRIPTION
#---- ------ --------------   -----------------------------
STRT .F      2150.5          :START DEPTH     
STOP .F      7569.0          :STOP DEPTH     
STEP .F       0.5            :STEP     
NULL .          -999.25      :NULL VALUE
COMP .        University of Utah                       :COMPANY
WELL .        MU-ESW1                                  :WELL
FLD  .        None                                     :FIELD
LOC  .        From the S4 Corner of Sec. 32, T26S, R9W      :LOCATION
CNTY .        Beaver                                   :COUNTY
STAT .        Utah                                     :STATE
CTRY .        USA                                      :COUNTRY
API  .        1771001M00                               :API NUMBER
UWI  .        1771001M00                               :UNIQUE WELL ID
DATE .        15-Sep-2017                              :LOG DATE {DD-MMM-YYYY}
SRVC .        Schlumberger                             :SERVICE COMPANY
LATI .DEG     38.500562 degrees                        :LATITUDE
LONG .DEG     -112.88703 degrees                       :LONGITUDE
GDAT .                                                 :GeoDetic Datum
SECT .        32                                       :Section
RANG .        9W                                       :Range
TOWN .        26S                                      :Township
#-----------------------------------------------------------------------------
~PARAMETER INFORMATION
#MNEM.UNIT    VALUE                      DESCRIPTION
#---- -----   --------------------       ------------------------
CN   .        University of Utah         :Company Name
WN   .        MU-ESW1                    :Well Name
FN   .        None                       :Field Name
FL   .        From the S4 Corner of Sec. 32  T26S  R9W :Field Location
FL1  .        SHL  304' FNL & 522' FEL   :Field Location, Line 1
COUN .        Beaver                     :County or Parish
STAT .        Utah                       :State or Province
NATI .        USA                        :Nation
DATE .        15-Sep-2017                :Tools Above Rotary Table Date
APIN .        1771001M00                 :API Well Number
SECT .        32                         :Section
TOWN .        26S                        :Township
RANG .        9W                         :Range
DMF  .        KB                         :Drilling Measured From (Name of Drilling Elevation Reference)
LMF  .        KB                         :Logging Measured From (Name of Logging Elevation Reference)
PDAT .        GL                         :Permanent Datum
ENGI .        A.BLOCHOWICZ               :Engineer s Name
WITN .        JOE MOORE                  :Witness s Name
LATI .        38.500562 degrees          :Latitude
LONG .        -112.88703 degrees         :Longitude
LUL  .        Fort Morgan  CO            :Logging Unit Location
LUN  .        9108                       :Logging Unit Number
RUN  .        ONE.1                      :Run Number
SON  .        D5RL-00187                 :Service Order Number
BHT  .DEGF     253.00000                 :Bottom Hole Temperature
BS   .IN         8.75000                 :Bit Size
MDEN .G/C3       2.71000                 :Matrix Density for Density Porosity
DFD  .LB/G       8.60000                 :Drilling Fluid Density
DFV  .S         34.00000                 :Drilling Fluid Viscosity
DFL  .C3        10.20000                 :Drilling Fluid Loss
RMFS .OHMM       1.25000                 :Resistivity of Mud Filtrate Sample
EKB  .F       5557.50000                 :Elevation of Kelly Bushing
EGL  .F       5536.00000                 :Elevation of Ground Level
BLI  .F       7546.00000                 :Bottom Log Interval
BSAL .PPM      550.00000                 :Borehole Salinity
FLEV .F          8.00000                 :Depth of Drilling Fluid Level to LMF (Log Measured From)
MCST .DEGF      74.50000                 :Mudcake Sample Temperature
MFST .DEGF      74.50000                 :Mud Filtrate Sample Temperature
MRT  .DEGF     253.00000                 :Maximum Recorded Temperature
MST  .DEGF      74.50000                 :Mud Sample Temperature
RMCS .OHMM       1.69000                 :Resistivity of Mud Cake Sample
RMS  .OHMM       1.47000                 :Resistivity of Mud Sample
RW   .OHMM       1.00000                 :Connate Water Resistivity
TDD  .F       7536.00049                 :Driller Total Depth
TDL  .F       7536.00049                 :Logger Total Depth
TLI  .F       2175.00000                 :Top Log Interval
HIDE .                                   :Header Identifier
MATR .        LIME                       :Rock Matrix for Neutron Porosity Corrections
FNUM .           1.00000                 :F-Numerator for Formation Factor Formula
FEXP .           2.00000                 :Exponent "m" for Formation Factor Formula
DFT  .        WBM                        :Drilling Fluid Type
DFPH .           8.50000                 :Drilling Fluid pH
MCSS .        Calculated                 :Mudcake Sample Source
MFSS .        Calculated                 :Mud Filtrate Sample Source
FD   .G/C3       1.00000                 :Fluid Density
MSS  .        Active Tank                :Mud Sample Source
OS1  .                                   :Other Services Line 1
OS2  .                                   :Other Services Line 2
OS3  .                                   :Other Services Line 3
OS4  .                                   :Other Services Line 4
OS5  .                                   :Other Services Line 5
R1   .        Thank you for choosing Schlumberger! :Remarks Line 1
R2   .        Tool string run as per tool sketch and client logging program. :Remarks Line 2
R3   .        TD  7546 ft. CS  2175 ft   :Remarks Line 3
R4   .                                   :Remarks Line 4
R5   .                                   :Remarks Line 5
R6   .                                   :Remarks Line 6
R7   .                                   :Remarks Line 7
R8   .        2 CMEZs run on toolstring for centralization. :Remarks Line 8
TCS  .        22 00 00                   :Time Circulation Stopped
TLAB .        02 05 00                   :Time Logger At Bottom
EPD  .C3         5536.000000             :Elevation of Permanent Datum above Mean Sea Level
APD  .F          21.500000               :Elevation of Depth Reference (LMF) above Permanent Datum
#-----------------------------------------------------------------------------
~CURVE INFORMATION
#MNEM.UNIT   API CODE                                  DESCRIPTION
#---- -----  --------                                  -----------------------
DEPT .F                                                :DEPTH (BOREHOLE) {F10.1}
CDF  .LBF                                              :Calibrated Downhole Force {F11.4}
CHRP .                                                 :Peak Coherence, Receiver Array, Compressional - Monopole P S {F11.4}
CHR1 .                                                 :Peak Coherence, Receiver Array - Lower Dipole {F11.4}
CHR2 .                                                 :Peak Coherence, Receiver Array - Upper Dipole {F11.4}
CTEM .DEGF                                             :Cartridge Temperature {F11.4}
DCAL .IN                                               :Differential Caliper {F11.4}
DT1R .US/F                                             :Delta-T Shear, Receiver Array - Lower Dipole {F11.4}
DT2  .US/F                                             :Delta-T Shear - Upper Dipole {F11.4}
DT2R .US/F                                             :Delta-T Shear, Receiver Array - Upper Dipole {F11.4}
DT4P .US/F                                             :Delta-T Compressional - Monopole P S {F11.4}
DT4S .US/F                                             :Delta-T Shear - Monopole P S {F11.4}
DTCO .US/F                                             :Delta-T Compressional {F11.4}
DTRP .US/F                                             :Delta-T Compressional, Receiver Array - Monopole P S {F11.4}
DTRS .US/F                                             :Delta-T Shear, Receiver Array - Monopole P S {F11.4}
DTSM .US/F                                             :Delta-T Shear {F11.4}
ED   .F                                                :East Departure {F11.4}
GR_EDTC.GAPI                                           :Gamma Ray {F11.4}
GTEM .DEGF                                             :Generalized Borehole Temperature {F11.4}
ITT  .S                                                :Integrated Transit Time {F11.4}
ND   .F                                                :North Departure {F11.4}
PR   .                                                 :Poisson s Ratio {F11.4}
SPHI .CFCF                                             :Sonic Porosity {F11.4}
STIT .F                                                :Stuck Tool Indicator, Total {F11.4}
TENS .LBF                                              :Cable Tension {F11.4}
#-----------------------------------------------------------------------------
# 
#     DEPT       CDF        CHRP       CHR1       CHR2       CTEM       DCAL       DT1R       DT2        DT2R       DT4P       DT4S       DTCO       DTRP       DTRS       DTSM        ED      GR_EDTC      GTEM       ITT         ND         PR        SPHI       STIT       TENS
#
~A  
# ...
    6110.5  1513.5199     0.9063     0.9866     0.9863   232.7529     0.1722    96.7666    93.3124    93.3124    52.1530    95.9977    52.1530    52.9908    95.5815    93.3124  -144.3628   175.4333   217.7988     0.0758   -41.2886     0.2729    -0.0461     0.0000  3534.1667
    6111.0  1516.5304     0.8951     0.9873     0.9846   232.7529     0.1653    96.6687    92.6613    92.6613    53.2983    95.9198    53.2983    53.6573    95.8636    92.6613  -144.3599   178.3866   217.8110     0.0757   -41.2751     0.2528    -0.0317     0.0000  3534.1741
    6111.5  1515.8629     0.8671     0.9841     0.9841   232.7529     0.1723    97.3488    93.2703    93.2703    53.3411    96.3421    53.3411    53.6963    97.6329    93.2703  -144.3569   180.1105   217.8233     0.0757   -41.2617     0.2570    -0.0312     0.0000  3536.7917
    6112.0  1527.1132     0.8526     0.9764     0.9815   232.7529     0.1844    95.2152    93.0298    93.0298    53.6919    96.8566    53.6919    53.4298    98.4245    93.0298  -144.3538   176.4218   217.8356     0.0757   -41.2479     0.2503    -0.0269     0.0000  3546.7085
    6112.5  1522.9194     0.9150     0.9873     0.9815   232.7529     0.1879    95.8995    92.9272    92.9272    53.7259    96.1234    53.7259    54.0290    96.3377    92.9272  -144.3506   180.0046   217.8478     0.0757   -41.2342     0.2490    -0.0265     0.0000  3541.4167
    6113.0  1521.2816     0.9050     0.9874     0.9806   232.7529     0.1915    96.3375    92.6718    92.6718    53.9942    96.4654    53.9942    52.6890    96.8774    92.6718  -144.3474   183.6661   217.8601     0.0756   -41.2206     0.2430    -0.0232     0.0000  3556.0000
    6113.5  1524.5121     0.8846     0.9788     0.9805   232.7529     0.1932    94.4394    92.9671    92.9671    55.3756    97.1063    55.3756    52.9593    97.3180    92.9671  -144.3441   185.7816   217.8724     0.0756   -41.2068     0.2251    -0.0070     0.0000  3553.3750
    6114.0  1520.9307     0.8885     0.9880     0.9830   232.7529     0.2190    94.0453    92.5540    92.5540    53.6081    95.3370    53.6081    52.7628    95.0236    92.5540  -144.3408   185.8854   217.8846     0.0756   -41.1934     0.2476    -0.0279     0.0000  3533.0435
    6114.5  1521.2354     0.8926     0.9849     0.9864   232.7529     0.2083    94.2664    92.6906    92.6906    54.0444    95.3137    54.0444    52.5170    94.3944    92.6906  -144.3374   186.4888   217.8969     0.0756   -41.1799     0.2425    -0.0226     0.0000  3536.1250
    6115.0  1519.9510     0.8900     0.9835     0.9848   232.7529     0.2187    94.4064    92.4904    92.4904    54.6453    98.7341    54.6453    53.4912    97.4190    92.4904  -144.3338   185.7036   217.9092     0.0755   -41.1660     0.2319    -0.0155     0.0000  3553.9585
    6115.5  1515.7678     0.8488     0.9838     0.9862   232.7529     0.2135    95.2980    93.3486    93.3486    55.1941    98.8827    55.1941    54.2200    95.9036    93.3486  -144.3303   183.0750   217.9214     0.0755   -41.1525     0.2312    -0.0091     0.0000  3561.2610
    6116.0  1519.6154     0.9007     0.9867     0.9874   232.7529     0.1733    95.5749    93.2128    93.2128    55.5534    99.3914    55.5534    54.5486    95.6309    93.2128  -144.3266   183.1808   217.9337     0.0755   -41.1388     0.2246    -0.0050     0.0000  3540.6667
    6116.5  1518.2616     0.7986     0.9862     0.9899   232.7529     0.0833    97.1716    93.4754    93.4754    56.4372   101.1853    56.4372    54.9752    97.1476    93.4754  -144.3229   181.4760   217.9460     0.0754   -41.1252     0.2132     0.0048     0.0000  3526.8262
    6117.0  1515.2427     0.9461     0.9828     0.9892   232.7529     0.0697    97.6457    92.7172    92.7172    56.3524    98.4735    56.3524    55.7355    91.1230    92.7172  -144.3191   183.5515   217.9582     0.0754   -41.1116     0.2071     0.0039     0.0000  3520.3333
    6117.5  1518.3333     0.9285     0.9845     0.9892   232.7529     0.0716    97.5439    93.1609    93.1609    56.6084   100.1236    56.6084    56.4590    93.9225    93.1609  -144.3152   178.9975   217.9705     0.0754   -41.0979     0.2073     0.0067     0.0000  3559.0869
    6118.0  1521.2313     0.9231     0.9850     0.9907   232.7529     0.0267    96.5677    93.4724    93.4724    55.8025    96.6162    55.8025    55.8174    88.2056    93.4724  -144.3113   179.1414   217.9828     0.0754   -41.0842     0.2231    -0.0022     0.0000  3575.8752
    6118.5  1520.1576     0.9203     0.9854     0.9908   232.7529     0.0655    96.2329    93.8237    93.8237    55.3640    94.5720    55.3640    55.5876    84.7666    93.8237  -144.3072   171.1274   217.9950     0.0753   -41.0703     0.2329    -0.0072     0.0000  3550.0000
    6119.0  1523.0709     0.9452     0.9883     0.9910   232.7529     0.0832    95.7321    94.3742    94.3742    53.8580   100.9120    53.8580    53.0734    99.2798    94.3742  -144.3031   164.3388   218.0073     0.0753   -41.0566     0.2585    -0.0249     0.0000  3489.5217
    6119.5  1528.4741     0.9382     0.9870     0.9914   232.7529     0.0973    95.3169    95.8392    95.8392    54.2395   101.9021    54.2395    55.0796   102.0503    95.8392  -144.2989   157.3166   218.0196     0.0753   -41.0429     0.2644    -0.0203     0.0000  3508.5417
    6120.0  1530.3809     0.9164     0.9814     0.9899   232.7529     0.1095    97.0832    96.0407    96.0407    53.9983    99.2172    53.9983    54.8279    98.2249    96.0407  -144.2947   151.8179   218.0319     0.0753   -41.0292     0.2689    -0.0232     0.0000  3453.9565
    6120.5  1526.4218     0.9276     0.9788     0.9863   232.7529     0.0921    97.3902    95.7240    95.7240    54.1635    99.0204    54.1635    54.8695    99.0962    95.7240  -144.2904   150.4585   218.0441     0.0752   -41.0155     0.2645    -0.0212     0.0000  3484.7083
    6121.0  1521.6416     0.8301     0.9760     0.9864   232.7529     0.0834    97.2822    95.1040    95.1040    52.7131    98.7917    52.7131    52.2363    98.7680    95.1040  -144.2859   155.0907   218.0564     0.0752   -41.0017     0.2783    -0.0390     0.0000  3479.6958
    6121.5  1520.4518     0.9039     0.9706     0.9875   232.7529     0.0799    96.5109    94.8359    94.8359    53.9631   100.4117    53.9631    53.8342   100.7718    94.8359  -144.2815   161.5712   218.0686     0.0752   -40.9879     0.2606    -0.0236     0.0000  3443.7500
    6122.0  1522.5050     0.8640     0.8993     0.9798   232.7529     0.0887    95.2982    94.0928    94.0928    53.1915    96.0225    53.1915    53.3591    95.3665    94.0928  -144.2770   165.5314   218.0809     0.0751   -40.9742     0.2652    -0.0330     0.0000  3509.1304
    6122.5  1522.5050     0.8939     0.9811     0.9747   232.7529     0.0887    96.2399    92.7269    92.7269    53.8589    96.1945    53.8589    53.0568    96.3189    92.7269  -144.2724   164.2020   218.0932     0.0751   -40.9605     0.2454    -0.0248     0.0000  3515.5415
    6123.0  1523.3673     0.8889     0.9781     0.9838   232.7529     0.1446    95.8959    95.8795    95.8795    53.5549    96.2572    53.5549    52.9426    96.7949    95.8795  -144.2676   163.4700   218.1054     0.0751   -40.9465     0.2733    -0.0285     0.0000  3520.8335
    6123.5  1533.6774     0.9140     0.9783     0.9880   232.7529     0.1830    95.2290    96.1894    96.1894    53.2704    96.1146    53.2704    53.1598    96.1842    96.1894  -144.2629   159.3926   218.1177     0.0751   -40.9330     0.2788    -0.0320     0.0000  3520.6089
    6124.0  1535.0668     0.9021     0.9896     0.9885   232.7529     0.1725    96.9378    98.3583    98.3583    52.9757    99.6449    52.9757    53.2550    99.3634    98.3583  -144.2581   156.7169   218.1300     0.0750   -40.9194     0.2957    -0.0357     0.0000  3542.3750
    6124.5  1534.1105     0.8722     0.9901     0.9908   232.7529     0.2058    98.2012   100.8388   100.8388    52.7740   100.1691    52.7740    53.4576   101.4556   100.8388  -144.2532   160.6416   218.1422     0.0750   -40.9055     0.3114    -0.0382     0.0000  3507.8750
    6125.0  1528.6794     0.8618     0.9902     0.9867   232.7529     0.2057    99.1784   101.3040   101.3040    53.4844    98.8185    53.4844    53.4804    99.2246   101.3040  -144.2481   167.1274   218.1545     0.0750   -40.8915     0.3068    -0.0294     0.0000  3514.9583
