~VERSION INFORMATION
VERS.           2.0   :CWLS Log ASCII Standard - VERSION 2.0
WRAP.           NO    :One Line per depth step
PROD.  Schlumberger   :LAS Producer
PROG.  DLIS to ASCII 19C2-270                          :LAS Program name and version
CREA.        2017/09/15 13:23                          :LAS Creation date {YYYY/MM/DD hh:mm}
DLIS_CREA.  2017-Sep-15 12:50                          :DLIS Creation date and time {YYYY-MMM-DD hh:mm}
SOURCE.     D5RL-00187_University of Utah_ME-ESW1_Run1_DSI_DoNotDistribute.dlis  :DLIS File Name
FILE-ID.     ConPr_R01_L001Up_DSI_DLIS_Custom          :File Identification Number
#--------------------------------------------------
~WELL INFORMATION
#MNEM.UNIT      DATA             DESCRIPTION
#---- ------ --------------   -----------------------------
STRT .F      2150.5          :START DEPTH     
STOP .F      7569.0          :STOP DEPTH     
STEP .F       0.5            :STEP     
NULL .          -999.25      :NULL VALUE
COMP .        University of Utah                       :COMPANY
WELL .        MU-ESW1                                  :WELL
FLD  .        None                                     :FIELD
LOC  .        From the S4 Corner of Sec. 32, T26S, R9W      :LOCATION
CNTY .        Beaver                                   :COUNTY
STAT .        Utah                                     :STATE
CTRY .        USA                                      :COUNTRY
API  .        1771001M00                               :API NUMBER
UWI  .        1771001M00                               :UNIQUE WELL ID
DATE .        15-Sep-2017                              :LOG DATE {DD-MMM-YYYY}
SRVC .        Schlumberger                             :SERVICE COMPANY
LATI .DEG     38.500562 degrees                        :LATITUDE
LONG .DEG     -112.88703 degrees                       :LONGITUDE
GDAT .                                                 :GeoDetic Datum
SECT .        32                                       :Section
RANG .        9W                                       :Range
TOWN .        26S                                      :Township
#-----------------------------------------------------------------------------
~PARAMETER INFORMATION
#MNEM.UNIT    VALUE                      DESCRIPTION
#---- -----   --------------------       ------------------------
CN   .        University of Utah         :Company Name
WN   .        MU-ESW1                    :Well Name
FN   .        None                       :Field Name
FL   .        From the S4 Corner of Sec. 32  T26S  R9W :Field Location
FL1  .        SHL  304' FNL & 522' FEL   :Field Location, Line 1
COUN .        Beaver                     :County or Parish
STAT .        Utah                       :State or Province
NATI .        USA                        :Nation
DATE .        15-Sep-2017                :Tools Above Rotary Table Date
APIN .        1771001M00                 :API Well Number
SECT .        32                         :Section
TOWN .        26S                        :Township
RANG .        9W                         :Range
DMF  .        KB                         :Drilling Measured From (Name of Drilling Elevation Reference)
LMF  .        KB                         :Logging Measured From (Name of Logging Elevation Reference)
PDAT .        GL                         :Permanent Datum
ENGI .        A.BLOCHOWICZ               :Engineer s Name
WITN .        JOE MOORE                  :Witness s Name
LATI .        38.500562 degrees          :Latitude
LONG .        -112.88703 degrees         :Longitude
LUL  .        Fort Morgan  CO            :Logging Unit Location
LUN  .        9108                       :Logging Unit Number
RUN  .        ONE.1                      :Run Number
SON  .        D5RL-00187                 :Service Order Number
BHT  .DEGF     253.00000                 :Bottom Hole Temperature
BS   .IN         8.75000                 :Bit Size
MDEN .G/C3       2.71000                 :Matrix Density for Density Porosity
DFD  .LB/G       8.60000                 :Drilling Fluid Density
DFV  .S         34.00000                 :Drilling Fluid Viscosity
DFL  .C3        10.20000                 :Drilling Fluid Loss
RMFS .OHMM       1.25000                 :Resistivity of Mud Filtrate Sample
EKB  .F       5557.50000                 :Elevation of Kelly Bushing
EGL  .F       5536.00000                 :Elevation of Ground Level
BLI  .F       7546.00000                 :Bottom Log Interval
BSAL .PPM      550.00000                 :Borehole Salinity
FLEV .F          8.00000                 :Depth of Drilling Fluid Level to LMF (Log Measured From)
MCST .DEGF      74.50000                 :Mudcake Sample Temperature
MFST .DEGF      74.50000                 :Mud Filtrate Sample Temperature
MRT  .DEGF     253.00000                 :Maximum Recorded Temperature
MST  .DEGF      74.50000                 :Mud Sample Temperature
RMCS .OHMM       1.69000                 :Resistivity of Mud Cake Sample
RMS  .OHMM       1.47000                 :Resistivity of Mud Sample
RW   .OHMM       1.00000                 :Connate Water Resistivity
TDD  .F       7536.00049                 :Driller Total Depth
TDL  .F       7536.00049                 :Logger Total Depth
TLI  .F       2175.00000                 :Top Log Interval
HIDE .                                   :Header Identifier
MATR .        LIME                       :Rock Matrix for Neutron Porosity Corrections
FNUM .           1.00000                 :F-Numerator for Formation Factor Formula
FEXP .           2.00000                 :Exponent "m" for Formation Factor Formula
DFT  .        WBM                        :Drilling Fluid Type
DFPH .           8.50000                 :Drilling Fluid pH
MCSS .        Calculated                 :Mudcake Sample Source
MFSS .        Calculated                 :Mud Filtrate Sample Source
FD   .G/C3       1.00000                 :Fluid Density
MSS  .        Active Tank                :Mud Sample Source
OS1  .                                   :Other Services Line 1
OS2  .                                   :Other Services Line 2
OS3  .                                   :Other Services Line 3
OS4  .                                   :Other Services Line 4
OS5  .                                   :Other Services Line 5
R1   .        Thank you for choosing Schlumberger! :Remarks Line 1
R2   .        Tool string run as per tool sketch and client logging program. :Remarks Line 2
R3   .        TD  7546 ft. CS  2175 ft   :Remarks Line 3
R4   .                                   :Remarks Line 4
R5   .                                   :Remarks Line 5
R6   .                                   :Remarks Line 6
R7   .                                   :Remarks Line 7
R8   .        2 CMEZs run on toolstring for centralization. :Remarks Line 8
TCS  .        22 00 00                   :Time Circulation Stopped
TLAB .        02 05 00                   :Time Logger At Bottom
EPD  .C3         5536.000000             :Elevation of Permanent Datum above Mean Sea Level
APD  .F          21.500000               :Elevation of Depth Reference (LMF) above Permanent Datum
#-----------------------------------------------------------------------------
~CURVE INFORMATION
#MNEM.UNIT   API CODE                                  DESCRIPTION
#---- -----  --------                                  -----------------------
DEPT .F                                                :DEPTH (BOREHOLE) {F10.1}
CDF  .LBF                                              :Calibrated Downhole Force {F11.4}
CHRP .                                                 :Peak Coherence, Receiver Array, Compressional - Monopole P S {F11.4}
CHR1 .                                                 :Peak Coherence, Receiver Array - Lower Dipole {F11.4}
CHR2 .                                                 :Peak Coherence, Receiver Array - Upper Dipole {F11.4}
CTEM .DEGF                                             :Cartridge Temperature {F11.4}
DCAL .IN                                               :Differential Caliper {F11.4}
DT1R .US/F                                             :Delta-T Shear, Receiver Array - Lower Dipole {F11.4}
DT2  .US/F                                             :Delta-T Shear - Upper Dipole {F11.4}
DT2R .US/F                                             :Delta-T Shear, Receiver Array - Upper Dipole {F11.4}
DT4P .US/F                                             :Delta-T Compressional - Monopole P S {F11.4}
DT4S .US/F                                             :Delta-T Shear - Monopole P S {F11.4}
DTCO .US/F                                             :Delta-T Compressional {F11.4}
DTRP .US/F                                             :Delta-T Compressional, Receiver Array - Monopole P S {F11.4}
DTRS .US/F                                             :Delta-T Shear, Receiver Array - Monopole P S {F11.4}
DTSM .US/F                                             :Delta-T Shear {F11.4}
ED   .F                                                :East Departure {F11.4}
GR_EDTC.GAPI                                           :Gamma Ray {F11.4}
GTEM .DEGF                                             :Generalized Borehole Temperature {F11.4}
ITT  .S                                                :Integrated Transit Time {F11.4}
ND   .F                                                :North Departure {F11.4}
PR   .                                                 :Poisson s Ratio {F11.4}
SPHI .CFCF                                             :Sonic Porosity {F11.4}
STIT .F                                                :Stuck Tool Indicator, Total {F11.4}
TENS .LBF                                              :Cable Tension {F11.4}
#-----------------------------------------------------------------------------
# 
#     DEPT       CDF        CHRP       CHR1       CHR2       CTEM       DCAL       DT1R       DT2        DT2R       DT4P       DT4S       DTCO       DTRP       DTRS       DTSM        ED      GR_EDTC      GTEM       ITT         ND         PR        SPHI       STIT       TENS
#
~A  
# ...
    2870.5  1528.7062     0.9277     0.9876     0.9908   184.2125     1.3211   143.8477   144.4400   144.4400    73.0993   149.0905    73.0993    72.3125   150.1701   144.4400     5.0755   154.0876   138.4490     0.2591   -35.9805     0.3278     0.1462     0.0000  2394.8259
    2871.0  1527.5269     0.9090     0.9884     0.9887   184.5062     1.3516   143.8840   144.4912   144.4912    72.5508   147.6582    72.5508    72.2731   150.1717   144.4912     5.0757   158.3390   138.4613     0.2590   -35.9775     0.3314     0.1426     0.0000  2411.5217
    2871.5  1515.8367     0.8937     0.9895     0.9849   184.3925     1.3601   144.2673   142.7608   142.7608    72.2570   145.8294    72.2570    72.5393   149.3802   142.7608     5.0758   165.9246   138.4736     0.2590   -35.9746     0.3278     0.1406     0.0000  2355.5000
    2872.0  1528.8618     0.9121     0.9890     0.9833   184.6311     1.3410   144.3967   142.5465   142.5465    72.3046   147.4079    72.3046    72.6307   148.9109   142.5465     5.0759   163.4247   138.4859     0.2590   -35.9717     0.3268     0.1409     0.0000  2381.3635
    2872.5  1525.3121     0.8803     0.9872     0.9842   184.8550     1.2568   146.5556   142.7273   142.7273    72.4140   143.8583    72.4140    74.4731   156.8615   142.7273     5.0760   158.5861   138.4981     0.2589   -35.9688     0.3267     0.1417     0.0000  2366.4348
    2873.0  1530.7906     0.9180     0.9883     0.9883   185.0443     1.2755   147.2473   143.5543   143.5543    73.3683   143.9879    73.3683    74.8467   157.2586   143.5543     5.0761   147.0857   138.5104     0.2589   -35.9657     0.3232     0.1480     0.0000  2400.9565
    2873.5  1515.8099     0.8986     0.9847     0.9878   185.0653     1.1837   153.0012   146.6504   146.6504    73.7693   154.6214    73.7693    76.0578   158.9893   146.6504     5.0763   148.1503   138.5227     0.2589   -35.9628     0.3306     0.1505     0.0000  2363.6819
    2874.0  1538.7592     0.9047     0.9848     0.9836   185.2344     1.2241   153.9849   149.5107   149.5107    74.8115   153.6984    74.8115    77.6358   150.9446   149.5107     5.0764   149.8805   138.5350     0.2588   -35.9597     0.3330     0.1572     0.0000  2344.1304
    2874.5  1498.2491     0.8832     0.9826     0.9828   185.3176     1.1151   155.7689   151.8177   151.8177    75.3737   154.8693    75.3737    78.9202   153.3747   151.8177     5.0764   152.5098   138.5472     0.2588   -35.9567     0.3364     0.1606     0.0000  2343.0911
    2875.0  1540.2908     0.8598     0.9830     0.9847   185.3176     1.0328   157.1571   153.2879   153.2879    77.8395   162.0099    77.8395    79.9096   156.9302   153.2879     5.0765   154.6814   138.5595     0.2587   -35.9537     0.3263     0.1754     0.0000  2421.2173
    2875.5  1509.6064     0.8696     0.9861     0.9901   185.3176     1.0411   159.0506   156.0204   156.0204    77.1517   160.4637    77.1517    77.8129   160.4856   156.0204     5.0766   156.9950   138.5718     0.2587   -35.9506     0.3382     0.1713     0.0000  2332.8262
    2876.0  1519.5470     0.8820     0.9842     0.9919   185.3176     1.0618   159.9465   156.9462   156.9462    77.9172   161.4805    77.9172    79.3358   160.9110   156.9462     5.0767   153.6102   138.5840     0.2587   -35.9476     0.3365     0.1758     0.0000  2365.0454
    2876.5  1490.6003     0.8711     0.9844     0.9884   185.3176     1.0669   160.1959   158.0074   158.0074    78.3127   162.5123    78.3127    79.2252   164.9399   158.0074     5.0768   146.4515   138.5963     0.2586   -35.9445     0.3372     0.1781     0.0000  2344.3044
    2877.0  1500.6564     0.9035     0.9778     0.9855   185.3176     1.0583   157.9020   157.2070   157.2070    77.8189   161.6631    77.8189    79.0238   163.2233   157.2070     5.0769   140.1139   138.6086     0.2586   -35.9414     0.3377     0.1752     0.0000  2346.5652
    2877.5  1496.4476     0.8953     0.9753     0.9795   185.3176     1.0789   156.2389   155.9908   155.9908    78.4359   156.4830    78.4359    80.6247   157.5810   155.9908     5.0769   145.7798   138.6209     0.2586   -35.9382     0.3308     0.1788     0.0000  2344.7393
    2878.0  1510.0280     0.8193     0.9765     0.9769   185.3176     1.0606   154.6683   153.9795   153.9795    78.3418   156.0524    78.3418    79.8318   157.6376   153.9795     5.0770   152.1249   138.6331     0.2585   -35.9351     0.3254     0.1782     0.0000  2348.1819
    2878.5  1500.8832     0.8193     0.9723     0.9760   185.3176     1.0440   152.5937   151.3314   151.3314    77.9525   156.6631    77.9525    79.8318   157.6376   151.3314     5.0770   156.1138   138.6454     0.2585   -35.9320     0.3194     0.1760     0.0000  2334.6523
    2879.0  1480.6046     0.7996     0.9693     0.9792   185.3176     1.0136   150.8317   148.9816   148.9816    73.4254   155.2804    73.4254    77.4646   156.4292   148.9816     5.0771   155.1407   138.6577     0.2584   -35.9289     0.3396     0.1483     0.0000  2336.2273
    2879.5  1496.8424     0.8372     0.9651     0.9832   185.3176     0.9979   149.0784   147.6766   147.6766    74.5901   155.6983    74.5901    73.9187   158.6559   147.6766     5.0771   156.1123   138.6700     0.2584   -35.9257     0.3288     0.1558     0.0000  2333.1738
    2880.0  1493.2021     0.8192     0.9689     0.9810   185.3176     1.0289   146.0488   146.1066   146.1066    74.3178   156.8536    74.3178    73.8677   160.0611   146.1066     5.0772   156.5605   138.6822     0.2584   -35.9225     0.3255     0.1540     0.0000  2331.8184
    2880.5  1521.2070     0.8397     0.9736     0.9804   185.3176     0.9261   146.1353   145.4840   145.4840    72.0788   153.9487    72.0788    70.3722   155.1885   145.4840     5.0772   164.4713   138.6945     0.2583   -35.9194     0.3373     0.1394     0.0000  2389.6956
    2881.0  1505.9965     0.9430     0.9790     0.9816   185.3176     0.9673   146.1870   145.8062   145.8062    73.0472   149.7292    73.0472    71.8102   144.6457   145.8062     5.0773   165.1178   138.7068     0.2583   -35.9161     0.3325     0.1459     0.0000  2324.3914
    2881.5  1506.0964     0.9123     0.9816     0.9842   185.3176     0.9538   146.0248   146.7128   146.7128    72.8842   151.0775    72.8842    72.0697   155.3281   146.7128     5.0773   168.3016   138.7190     0.2583   -35.9129     0.3362     0.1448     0.0000  2363.6819
    2882.0  1503.0314     0.8763     0.9862     0.9843   185.3176     0.9677   146.8211   146.8296   146.8296    73.8305   150.9619    73.8305    73.7244   153.5506   146.8296     5.0773   160.0726   138.7313     0.2582   -35.9097     0.3308     0.1509     0.0000  2362.7827
    2882.5  1502.0699     0.8766     0.9870     0.9799   185.3176     0.9641   149.7016   146.7611   146.7611    76.1149   158.2867    76.1149    77.6422   156.3870   146.7611     5.0773   161.2358   138.7436     0.2582   -35.9064     0.3160     0.1652     0.0000  2339.7393
    2883.0  1503.2720     0.9458     0.9840     0.9859   185.3176     0.9105   153.7235   152.7099   152.7099    78.0257   160.5869    78.0257    80.1977   158.4990   152.7099     5.0773   160.8804   138.7559     0.2581   -35.9031     0.3234     0.1764     0.0000  2380.5457
    2883.5  1491.2600     0.9526     0.9816     0.9860   185.3176     0.9398   161.1125   154.9856   154.9856    78.4510   151.6505    78.4510    81.1840   160.8114   154.9856     5.0774   157.1124   138.7682     0.2581   -35.8999     0.3278     0.1789     0.0000  2363.4546
    2884.0  1493.9204     0.8836     0.9801     0.9868   185.3176     0.9184   163.2650   158.8018   158.8018    79.8394   152.9244    79.8394    82.5304   157.9799   158.8018     5.0774   148.6562   138.7804     0.2581   -35.8965     0.3309     0.1866     0.0000  2352.0911
    2884.5  1488.7788     0.8760     0.9806     0.9914   185.3176     0.8114   163.3712   159.5544   159.5544    79.6468   156.0012    79.6468    81.3768   158.7540   159.5544     5.0774   143.3157   138.7927     0.2580   -35.8932     0.3341     0.1856     0.0000  2326.2859
    2885.0  1498.7480     0.8767     0.9797     0.9912   185.3176     0.8300   163.5372   160.5240   160.5240    78.6612   160.5624    78.6612    79.6906   162.4968   160.5240     5.0774   145.4237   138.8050     0.2580   -35.8899     0.3420     0.1801     0.0000  2347.7273
