~VERSION INFORMATION
VERS.           2.0   :CWLS Log ASCII Standard - VERSION 2.0
WRAP.           NO    :One Line per depth step
PROD.  Schlumberger   :LAS Producer
PROG.  DLIS to ASCII 19C2-270                          :LAS Program name and version
CREA.        2017/09/15 13:23                          :LAS Creation date {YYYY/MM/DD hh:mm}
DLIS_CREA.  2017-Sep-15 12:50                          :DLIS Creation date and time {YYYY-MMM-DD hh:mm}
SOURCE.     D5RL-00187_University of Utah_ME-ESW1_Run1_DSI_DoNotDistribute.dlis  :DLIS File Name
FILE-ID.     ConPr_R01_L001Up_DSI_DLIS_Custom          :File Identification Number
#--------------------------------------------------
~WELL INFORMATION
#MNEM.UNIT      DATA             DESCRIPTION
#---- ------ --------------   -----------------------------
STRT .F      2150.5          :START DEPTH     
STOP .F      7569.0          :STOP DEPTH     
STEP .F       0.5            :STEP     
NULL .          -999.25      :NULL VALUE
COMP .        University of Utah                       :COMPANY
WELL .        MU-ESW1                                  :WELL
FLD  .        None                                     :FIELD
LOC  .        From the S4 Corner of Sec. 32, T26S, R9W      :LOCATION
CNTY .        Beaver                                   :COUNTY
STAT .        Utah                                     :STATE
CTRY .        USA                                      :COUNTRY
API  .        1771001M00                               :API NUMBER
UWI  .        1771001M00                               :UNIQUE WELL ID
DATE .        15-Sep-2017                              :LOG DATE {DD-MMM-YYYY}
SRVC .        Schlumberger                             :SERVICE COMPANY
LATI .DEG     38.500562 degrees                        :LATITUDE
LONG .DEG     -112.88703 degrees                       :LONGITUDE
GDAT .                                                 :GeoDetic Datum
SECT .        32                                       :Section
RANG .        9W                                       :Range
TOWN .        26S                                      :Township
#-----------------------------------------------------------------------------
~PARAMETER INFORMATION
#MNEM.UNIT    VALUE                      DESCRIPTION
#---- -----   --------------------       ------------------------
CN   .        University of Utah         :Company Name
WN   .        MU-ESW1                    :Well Name
FN   .        None                       :Field Name
FL   .        From the S4 Corner of Sec. 32  T26S  R9W :Field Location
FL1  .        SHL  304' FNL & 522' FEL   :Field Location, Line 1
COUN .        Beaver                     :County or Parish
STAT .        Utah                       :State or Province
NATI .        USA                        :Nation
DATE .        15-Sep-2017                :Tools Above Rotary Table Date
APIN .        1771001M00                 :API Well Number
SECT .        32                         :Section
TOWN .        26S                        :Township
RANG .        9W                         :Range
DMF  .        KB                         :Drilling Measured From (Name of Drilling Elevation Reference)
LMF  .        KB                         :Logging Measured From (Name of Logging Elevation Reference)
PDAT .        GL                         :Permanent Datum
ENGI .        A.BLOCHOWICZ               :Engineer s Name
WITN .        JOE MOORE                  :Witness s Name
LATI .        38.500562 degrees          :Latitude
LONG .        -112.88703 degrees         :Longitude
LUL  .        Fort Morgan  CO            :Logging Unit Location
LUN  .        9108                       :Logging Unit Number
RUN  .        ONE.1                      :Run Number
SON  .        D5RL-00187                 :Service Order Number
BHT  .DEGF     253.00000                 :Bottom Hole Temperature
BS   .IN         8.75000                 :Bit Size
MDEN .G/C3       2.71000                 :Matrix Density for Density Porosity
DFD  .LB/G       8.60000                 :Drilling Fluid Density
DFV  .S         34.00000                 :Drilling Fluid Viscosity
DFL  .C3        10.20000                 :Drilling Fluid Loss
RMFS .OHMM       1.25000                 :Resistivity of Mud Filtrate Sample
EKB  .F       5557.50000                 :Elevation of Kelly Bushing
EGL  .F       5536.00000                 :Elevation of Ground Level
BLI  .F       7546.00000                 :Bottom Log Interval
BSAL .PPM      550.00000                 :Borehole Salinity
FLEV .F          8.00000                 :Depth of Drilling Fluid Level to LMF (Log Measured From)
MCST .DEGF      74.50000                 :Mudcake Sample Temperature
MFST .DEGF      74.50000                 :Mud Filtrate Sample Temperature
MRT  .DEGF     253.00000                 :Maximum Recorded Temperature
MST  .DEGF      74.50000                 :Mud Sample Temperature
RMCS .OHMM       1.69000                 :Resistivity of Mud Cake Sample
RMS  .OHMM       1.47000                 :Resistivity of Mud Sample
RW   .OHMM       1.00000                 :Connate Water Resistivity
TDD  .F       7536.00049                 :Driller Total Depth
TDL  .F       7536.00049                 :Logger Total Depth
TLI  .F       2175.00000                 :Top Log Interval
HIDE .                                   :Header Identifier
MATR .        LIME                       :Rock Matrix for Neutron Porosity Corrections
FNUM .           1.00000                 :F-Numerator for Formation Factor Formula
FEXP .           2.00000                 :Exponent "m" for Formation Factor Formula
DFT  .        WBM                        :Drilling Fluid Type
DFPH .           8.50000                 :Drilling Fluid pH
MCSS .        Calculated                 :Mudcake Sample Source
MFSS .        Calculated                 :Mud Filtrate Sample Source
FD   .G/C3       1.00000                 :Fluid Density
MSS  .        Active Tank                :Mud Sample Source
OS1  .                                   :Other Services Line 1
OS2  .                                   :Other Services Line 2
OS3  .                                   :Other Services Line 3
OS4  .                                   :Other Services Line 4
OS5  .                                   :Other Services Line 5
R1   .        Thank you for choosing Schlumberger! :Remarks Line 1
R2   .        Tool string run as per tool sketch and client logging program. :Remarks Line 2
R3   .        TD  7546 ft. CS  2175 ft   :Remarks Line 3
R4   .                                   :Remarks Line 4
R5   .                                   :Remarks Line 5
R6   .                                   :Remarks Line 6
R7   .                                   :Remarks Line 7
R8   .        2 CMEZs run on toolstring for centralization. :Remarks Line 8
TCS  .        22 00 00                   :Time Circulation Stopped
TLAB .        02 05 00                   :Time Logger At Bottom
EPD  .C3         5536.000000             :Elevation of Permanent Datum above Mean Sea Level
APD  .F          21.500000               :Elevation of Depth Reference (LMF) above Permanent Datum
#-----------------------------------------------------------------------------
~CURVE INFORMATION
#MNEM.UNIT   API CODE                                  DESCRIPTION
#---- -----  --------                                  -----------------------
DEPT .F                                                :DEPTH (BOREHOLE) {F10.1}
CDF  .LBF                                              :Calibrated Downhole Force {F11.4}
CHRP .                                                 :Peak Coherence, Receiver Array, Compressional - Monopole P S {F11.4}
CHR1 .                                                 :Peak Coherence, Receiver Array - Lower Dipole {F11.4}
CHR2 .                                                 :Peak Coherence, Receiver Array - Upper Dipole {F11.4}
CTEM .DEGF                                             :Cartridge Temperature {F11.4}
DCAL .IN                                               :Differential Caliper {F11.4}
DT1R .US/F                                             :Delta-T Shear, Receiver Array - Lower Dipole {F11.4}
DT2  .US/F                                             :Delta-T Shear - Upper Dipole {F11.4}
DT2R .US/F                                             :Delta-T Shear, Receiver Array - Upper Dipole {F11.4}
DT4P .US/F                                             :Delta-T Compressional - Monopole P S {F11.4}
DT4S .US/F                                             :Delta-T Shear - Monopole P S {F11.4}
DTCO .US/F                                             :Delta-T Compressional {F11.4}
DTRP .US/F                                             :Delta-T Compressional, Receiver Array - Monopole P S {F11.4}
DTRS .US/F                                             :Delta-T Shear, Receiver Array - Monopole P S {F11.4}
DTSM .US/F                                             :Delta-T Shear {F11.4}
ED   .F                                                :East Departure {F11.4}
GR_EDTC.GAPI                                           :Gamma Ray {F11.4}
GTEM .DEGF                                             :Generalized Borehole Temperature {F11.4}
ITT  .S                                                :Integrated Transit Time {F11.4}
ND   .F                                                :North Departure {F11.4}
PR   .                                                 :Poisson s Ratio {F11.4}
SPHI .CFCF                                             :Sonic Porosity {F11.4}
STIT .F                                                :Stuck Tool Indicator, Total {F11.4}
TENS .LBF                                              :Cable Tension {F11.4}
#-----------------------------------------------------------------------------
# 
#     DEPT       CDF        CHRP       CHR1       CHR2       CTEM       DCAL       DT1R       DT2        DT2R       DT4P       DT4S       DTCO       DTRP       DTRS       DTSM        ED      GR_EDTC      GTEM       ITT         ND         PR        SPHI       STIT       TENS
#
~A  
# ...
    5750.5  1516.4196     0.9283     0.9906     0.9875   228.8000     0.1722    88.7926    88.9272    88.9272    52.4251    89.9162    52.4251    52.0005    89.1620    88.9272  -140.8077   272.3438   208.9670     0.0951   -51.1382     0.2337    -0.0426     0.0000  3412.0386
    5751.0  1517.1979     0.9335     0.9921     0.9871   228.8000     0.1548    88.1149    88.4127    88.4127    52.3317    89.7087    52.3317    51.6766    88.7461    88.4127  -140.8135   279.7918   208.9793     0.0951   -51.1396     0.2304    -0.0438     0.0000  3398.2593
    5751.5  1513.1310     0.8927     0.9878     0.9881   228.8000     0.1565    86.7673    87.4003    87.4003    52.5743    89.4957    52.5743    52.0473    88.5757    87.4003  -140.8193   292.4978   208.9915     0.0950   -51.1411     0.2165    -0.0407     0.0000  3356.4617
    5752.0  1515.4337     0.9077     0.9894     0.9876   228.8000     0.1600    86.8997    87.2684    87.2684    52.9173    89.4457    52.9173    52.7820    88.2979    87.2684  -140.8251   304.7404   209.0038     0.0950   -51.1426     0.2092    -0.0364     0.0000  3399.0002
    5752.5  1520.7751     0.8921     0.9893     0.9569   228.8000     0.1685    86.9854    86.2578    86.2578    52.6232    91.0797    52.6232    52.4602    89.1976    86.2578  -140.8310   297.5917   209.0161     0.0950   -51.1441     0.2036    -0.0401     0.0000  3392.8845
    5753.0  1521.6434     0.8642     0.9904     0.9864   228.8000     0.1877    87.0202    87.3159    87.3159    52.9581    89.4036    52.9581    53.1415    89.4150    87.3159  -140.8368   290.7235   209.0284     0.0950   -51.1455     0.2090    -0.0359     0.0000  3369.4446
    5753.5  1525.9370     0.8845     0.9906     0.9873   228.8000     0.1896    88.3186    88.1764    88.1764    52.8985    89.0815    52.8985    53.2742    89.3823    88.1764  -140.8426   275.0166   209.0406     0.0949   -51.1470     0.2189    -0.0366     0.0000  3380.0000
    5754.0  1521.0619     0.8485     0.9903     0.9879   228.8000     0.1880    88.0471    88.2384    88.2384    52.8887    88.8656    52.8887    53.6449    89.2016    88.2384  -140.8484   280.4463   209.0529     0.0949   -51.1485     0.2197    -0.0368     0.0000  3377.1111
    5754.5  1519.5542     0.8939     0.9908     0.9846   228.8000     0.1776    88.1209    87.6899    87.6899    52.5195    88.8176    52.5195    53.1504    88.9542    87.6899  -140.8543   285.3581   209.0652     0.0949   -51.1500     0.2203    -0.0414     0.0000  3367.6072
    5755.0  1517.1200     0.7401     0.9866     0.9868   228.8000     0.1747    86.9120    88.2044    88.2044    52.9247    88.5019    52.9247    53.7669    88.3703    88.2044  -140.8601   307.7991   209.0775     0.0949   -51.1515     0.2187    -0.0363     0.0000  3364.2964
    5755.5  1514.1482     0.7683     0.9904     0.9872   228.8000     0.1793    86.8966    88.2654    88.2654    52.5780    88.7245    52.5780    53.2434    88.7879    88.2654  -140.8659   319.6317   209.0897     0.0948   -51.1531     0.2250    -0.0407     0.0000  3370.2500
    5756.0  1510.8844     0.7696     0.9892     0.9869   228.8000     0.1723    86.8362    88.0104    88.0104    52.0984    88.6248    52.0984    52.7945    88.2536    88.0104  -140.8719   323.2585   209.1020     0.0948   -51.1546     0.2303    -0.0468     0.0000  3384.2856
    5756.5  1513.1516     0.7934     0.9910     0.9877   228.8000     0.1723    86.7559    87.0019    87.0019    52.6280    88.9592    52.6280    53.2916    88.7925    87.0019  -140.8778   316.3401   209.1143     0.0948   -51.1562     0.2115    -0.0400     0.0000  3378.8518
    5757.0  1512.5721     0.7887     0.9911     0.9886   228.8000     0.1747    87.2194    86.7279    86.7279    52.3423    89.1413    52.3423    52.9545    89.4863    86.7279  -140.8836   312.8155   209.1265     0.0948   -51.1577     0.2135    -0.0437     0.0000  3370.7144
    5757.5  1516.4913     0.7468     0.9912     0.9824   228.8000     0.1811    87.1100    86.3280    86.3280    52.9748    89.0654    52.9748    53.7317    89.1904    86.3280  -140.8895   324.1747   209.1388     0.0947   -51.1593     0.1980    -0.0357     0.0000  3404.9287
    5758.0  1516.8334     0.7745     0.9917     0.9880   228.8000     0.1758    85.8234    87.9895    87.9895    53.4048    89.0594    53.4048    53.9675    89.6056    87.9895  -140.8954   334.8082   209.1511     0.0947   -51.1608     0.2084    -0.0304     0.0000  3396.6897
    5758.5  1513.8982     0.8817     0.9914     0.9877   228.8000     0.1776    85.8798    88.1554    88.1554    53.5116    88.9501    53.5116    54.3863    89.9996    88.1554  -140.9012   342.3072   209.1634     0.0947   -51.1624     0.2083    -0.0291     0.0000  3337.6667
    5759.0  1518.2817     0.7798     0.9914     0.9857   228.8000     0.1706    86.0870    88.5489    88.5489    52.9250    89.3114    52.9250    53.8338    90.7627    88.5489  -140.9072   338.3714   209.1756     0.0947   -51.1640     0.2221    -0.0363     0.0000  3381.1614
    5759.5  1515.5875     0.7714     0.9916     0.9853   228.8000     0.1828    86.3168    88.5783    88.5783    53.7601    89.2753    53.7601    54.2882    90.9081    88.5783  -140.9131   334.8283   209.1879     0.0946   -51.1656     0.2084    -0.0260     0.0000  3389.8750
    5760.0  1513.1016     0.8597     0.9901     0.9875   228.8000     0.1846    87.5455    88.6618    88.6618    53.3095    88.5309    53.3095    53.5364    89.4950    88.6618  -140.9190   333.0197   209.2002     0.0946   -51.1672     0.2169    -0.0315     0.0000  3352.0940
    5760.5  1514.5813     0.8356     0.9913     0.9881   228.8000     0.1637    87.4910    88.6057    88.6057    53.1655    89.1882    53.1655    52.7650    89.7381    88.6057  -140.9248   327.4388   209.2125     0.0946   -51.1688     0.2187    -0.0333     0.0000  3388.5313
    5761.0  1510.3300     0.7265     0.9911     0.9884   228.8000     0.1513    87.1097    88.1500    88.1500    53.7179    89.7899    53.7179    53.6417    90.3867    88.1500  -140.9306   315.3723   209.2247     0.0945   -51.1704     0.2046    -0.0266     0.0000  3382.9063
    5761.5  1511.2306     0.7758     0.9903     0.9885   228.8000     0.1287    86.8053    88.0610    88.0610    53.6897    90.5980    53.6897    53.3645    90.6346    88.0610  -140.9366   314.3108   209.2370     0.0945   -51.1720     0.2042    -0.0269     0.0000  3376.3530
    5762.0  1511.8464     0.8247     0.9912     0.9878   228.8000     0.1136    85.8899    87.1449    87.1449    53.3815    90.5474    53.3815    52.9449    90.1352    87.1449  -140.9425   315.8152   209.2493     0.0945   -51.1736     0.1997    -0.0307     0.0000  3361.8826
    5762.5  1515.3239     0.8554     0.9919     0.9898   228.8000     0.1067    86.0062    87.7254    87.7254    53.5305    90.3075    53.5305    53.0191    89.3251    87.7254  -140.9484   320.8274   209.2615     0.0945   -51.1753     0.2034    -0.0288     0.0000  3362.5715
    5763.0  1518.4193     0.8405     0.9907     0.9898   228.8000     0.1328    87.4313    87.2838    87.2838    53.7992    89.7412    53.7992    52.9705    88.5587    87.2838  -140.9543   317.2603   209.2738     0.0944   -51.1769     0.1937    -0.0256     0.0000  3362.2729
    5763.5  1518.2998     0.8882     0.9899     0.9887   228.8000     0.1561    86.4176    86.9702    86.9702    53.2762    89.7954    53.2762    52.6441    89.2286    86.9702  -140.9602   312.4778   209.2861     0.0944   -51.1786     0.1997    -0.0320     0.0000  3373.1389
    5764.0  1521.1942     0.8796     0.9882     0.9871   228.8000     0.1602    87.1514    87.0183    87.0183    52.9639    92.4003    52.9639    52.2028    94.9839    87.0183  -140.9662   318.8163   209.2984     0.0944   -51.1802     0.2058    -0.0358     0.0000  3389.2285
    5764.5  1526.6804     0.8668     0.9866     0.9852   228.8000     0.1695    86.9746    87.4082    87.4082    53.4581    90.6297    53.4581    52.4755    92.2748    87.4082  -140.9721   313.0199   209.3106     0.0944   -51.1819     0.2012    -0.0297     0.0000  3373.6389
    5765.0  1520.0488     0.8679     0.9895     0.9894   228.8000     0.1752    86.8876    87.3552    87.3552    53.3495    89.6391    53.3495    52.5209    92.0913    87.3552  -140.9781   308.9772   209.3229     0.0943   -51.1836     0.2026    -0.0311     0.0000  3358.1353
