~VERSION INFORMATION
VERS.           2.0   :CWLS Log ASCII Standard - VERSION 2.0
WRAP.           NO    :One Line per depth step
PROD.  Schlumberger   :LAS Producer
PROG.  DLIS to ASCII 19C2-270                          :LAS Program name and version
CREA.        2017/09/15 13:23                          :LAS Creation date {YYYY/MM/DD hh:mm}
DLIS_CREA.  2017-Sep-15 12:50                          :DLIS Creation date and time {YYYY-MMM-DD hh:mm}
SOURCE.     D5RL-00187_University of Utah_ME-ESW1_Run1_DSI_DoNotDistribute.dlis  :DLIS File Name
FILE-ID.     ConPr_R01_L001Up_DSI_DLIS_Custom          :File Identification Number
#--------------------------------------------------
~WELL INFORMATION
#MNEM.UNIT      DATA             DESCRIPTION
#---- ------ --------------   -----------------------------
STRT .F      2150.5          :START DEPTH     
STOP .F      7569.0          :STOP DEPTH     
STEP .F       0.5            :STEP     
NULL .          -999.25      :NULL VALUE
COMP .        University of Utah                       :COMPANY
WELL .        MU-ESW1                                  :WELL
FLD  .        None                                     :FIELD
LOC  .        From the S4 Corner of Sec. 32, T26S, R9W      :LOCATION
CNTY .        Beaver                                   :COUNTY
STAT .        Utah                                     :STATE
CTRY .        USA                                      :COUNTRY
API  .        1771001M00                               :API NUMBER
UWI  .        1771001M00                               :UNIQUE WELL ID
DATE .        15-Sep-2017                              :LOG DATE {DD-MMM-YYYY}
SRVC .        Schlumberger                             :SERVICE COMPANY
LATI .DEG     38.500562 degrees                        :LATITUDE
LONG .DEG     -112.88703 degrees                       :LONGITUDE
GDAT .                                                 :GeoDetic Datum
SECT .        32                                       :Section
RANG .        9W                                       :Range
TOWN .        26S                                      :Township
#-----------------------------------------------------------------------------
~PARAMETER INFORMATION
#MNEM.UNIT    VALUE                      DESCRIPTION
#---- -----   --------------------       ------------------------
CN   .        University of Utah         :Company Name
WN   .        MU-ESW1                    :Well Name
FN   .        None                       :Field Name
FL   .        From the S4 Corner of Sec. 32  T26S  R9W :Field Location
FL1  .        SHL  304' FNL & 522' FEL   :Field Location, Line 1
COUN .        Beaver                     :County or Parish
STAT .        Utah                       :State or Province
NATI .        USA                        :Nation
DATE .        15-Sep-2017                :Tools Above Rotary Table Date
APIN .        1771001M00                 :API Well Number
SECT .        32                         :Section
TOWN .        26S                        :Township
RANG .        9W                         :Range
DMF  .        KB                         :Drilling Measured From (Name of Drilling Elevation Reference)
LMF  .        KB                         :Logging Measured From (Name of Logging Elevation Reference)
PDAT .        GL                         :Permanent Datum
ENGI .        A.BLOCHOWICZ               :Engineer s Name
WITN .        JOE MOORE                  :Witness s Name
LATI .        38.500562 degrees          :Latitude
LONG .        -112.88703 degrees         :Longitude
LUL  .        Fort Morgan  CO            :Logging Unit Location
LUN  .        9108                       :Logging Unit Number
RUN  .        ONE.1                      :Run Number
SON  .        D5RL-00187                 :Service Order Number
BHT  .DEGF     253.00000                 :Bottom Hole Temperature
BS   .IN         8.75000                 :Bit Size
MDEN .G/C3       2.71000                 :Matrix Density for Density Porosity
DFD  .LB/G       8.60000                 :Drilling Fluid Density
DFV  .S         34.00000                 :Drilling Fluid Viscosity
DFL  .C3        10.20000                 :Drilling Fluid Loss
RMFS .OHMM       1.25000                 :Resistivity of Mud Filtrate Sample
EKB  .F       5557.50000                 :Elevation of Kelly Bushing
EGL  .F       5536.00000                 :Elevation of Ground Level
BLI  .F       7546.00000                 :Bottom Log Interval
BSAL .PPM      550.00000                 :Borehole Salinity
FLEV .F          8.00000                 :Depth of Drilling Fluid Level to LMF (Log Measured From)
MCST .DEGF      74.50000                 :Mudcake Sample Temperature
MFST .DEGF      74.50000                 :Mud Filtrate Sample Temperature
MRT  .DEGF     253.00000                 :Maximum Recorded Temperature
MST  .DEGF      74.50000                 :Mud Sample Temperature
RMCS .OHMM       1.69000                 :Resistivity of Mud Cake Sample
RMS  .OHMM       1.47000                 :Resistivity of Mud Sample
RW   .OHMM       1.00000                 :Connate Water Resistivity
TDD  .F       7536.00049                 :Driller Total Depth
TDL  .F       7536.00049                 :Logger Total Depth
TLI  .F       2175.00000                 :Top Log Interval
HIDE .                                   :Header Identifier
MATR .        LIME                       :Rock Matrix for Neutron Porosity Corrections
FNUM .           1.00000                 :F-Numerator for Formation Factor Formula
FEXP .           2.00000                 :Exponent "m" for Formation Factor Formula
DFT  .        WBM                        :Drilling Fluid Type
DFPH .           8.50000                 :Drilling Fluid pH
MCSS .        Calculated                 :Mudcake Sample Source
MFSS .        Calculated                 :Mud Filtrate Sample Source
FD   .G/C3       1.00000                 :Fluid Density
MSS  .        Active Tank                :Mud Sample Source
OS1  .                                   :Other Services Line 1
OS2  .                                   :Other Services Line 2
OS3  .                                   :Other Services Line 3
OS4  .                                   :Other Services Line 4
OS5  .                                   :Other Services Line 5
R1   .        Thank you for choosing Schlumberger! :Remarks Line 1
R2   .        Tool string run as per tool sketch and client logging program. :Remarks Line 2
R3   .        TD  7546 ft. CS  2175 ft   :Remarks Line 3
R4   .                                   :Remarks Line 4
R5   .                                   :Remarks Line 5
R6   .                                   :Remarks Line 6
R7   .                                   :Remarks Line 7
R8   .        2 CMEZs run on toolstring for centralization. :Remarks Line 8
TCS  .        22 00 00                   :Time Circulation Stopped
TLAB .        02 05 00                   :Time Logger At Bottom
EPD  .C3         5536.000000             :Elevation of Permanent Datum above Mean Sea Level
APD  .F          21.500000               :Elevation of Depth Reference (LMF) above Permanent Datum
#-----------------------------------------------------------------------------
~CURVE INFORMATION
#MNEM.UNIT   API CODE                                  DESCRIPTION
#---- -----  --------                                  -----------------------
DEPT .F                                                :DEPTH (BOREHOLE) {F10.1}
CDF  .LBF                                              :Calibrated Downhole Force {F11.4}
CHRP .                                                 :Peak Coherence, Receiver Array, Compressional - Monopole P S {F11.4}
CHR1 .                                                 :Peak Coherence, Receiver Array - Lower Dipole {F11.4}
CHR2 .                                                 :Peak Coherence, Receiver Array - Upper Dipole {F11.4}
CTEM .DEGF                                             :Cartridge Temperature {F11.4}
DCAL .IN                                               :Differential Caliper {F11.4}
DT1R .US/F                                             :Delta-T Shear, Receiver Array - Lower Dipole {F11.4}
DT2  .US/F                                             :Delta-T Shear - Upper Dipole {F11.4}
DT2R .US/F                                             :Delta-T Shear, Receiver Array - Upper Dipole {F11.4}
DT4P .US/F                                             :Delta-T Compressional - Monopole P S {F11.4}
DT4S .US/F                                             :Delta-T Shear - Monopole P S {F11.4}
DTCO .US/F                                             :Delta-T Compressional {F11.4}
DTRP .US/F                                             :Delta-T Compressional, Receiver Array - Monopole P S {F11.4}
DTRS .US/F                                             :Delta-T Shear, Receiver Array - Monopole P S {F11.4}
DTSM .US/F                                             :Delta-T Shear {F11.4}
ED   .F                                                :East Departure {F11.4}
GR_EDTC.GAPI                                           :Gamma Ray {F11.4}
GTEM .DEGF                                             :Generalized Borehole Temperature {F11.4}
ITT  .S                                                :Integrated Transit Time {F11.4}
ND   .F                                                :North Departure {F11.4}
PR   .                                                 :Poisson s Ratio {F11.4}
SPHI .CFCF                                             :Sonic Porosity {F11.4}
STIT .F                                                :Stuck Tool Indicator, Total {F11.4}
TENS .LBF                                              :Cable Tension {F11.4}
#-----------------------------------------------------------------------------
# 
#     DEPT       CDF        CHRP       CHR1       CHR2       CTEM       DCAL       DT1R       DT2        DT2R       DT4P       DT4S       DTCO       DTRP       DTRS       DTSM        ED      GR_EDTC      GTEM       ITT         ND         PR        SPHI       STIT       TENS
#
~A  
# ...
    4310.5  1540.3346     0.9172  -999.2500     0.8859   209.0353     0.1473  -999.2500    96.4637    96.4637    51.0111    93.0600    51.0111    51.1925    92.9340    96.4637   -44.5635   123.5305   173.7442     0.1709   -42.4292     0.3059    -0.0611     0.0000  2813.2400
    4311.0  1547.5414     0.9073  -999.2500     0.5251   209.0353     0.1613  -999.2500    95.6719    95.6719    51.2471    92.8828    51.2471    50.8019    92.5416    95.6719   -44.6203   124.7755   173.7564     0.1709   -42.4352     0.2988    -0.0580     0.0000  2808.3079
    4311.5  1553.6692     0.8584  -999.2500     0.6094   209.0353     0.1439  -999.2500    91.8926    91.8926    50.8508    93.5521    50.8508    50.7955    93.4593    91.8926   -44.6773   120.4137   173.7686     0.1708   -42.4413     0.2793    -0.0633     0.0000  2802.3999
    4312.0  1554.1045     0.7594  -999.2500     0.6937   209.0353     0.1545  -999.2500    88.1134    88.1134    51.1674    95.2771    51.1674    51.2313    96.4179    88.1134   -44.7338   121.1660   173.7807     0.1708   -42.4474     0.2456    -0.0590     0.0000  2779.2693
    4312.5  1544.0942     0.8492  -999.2500     0.8891   209.0353     0.1668  -999.2500    93.6647    93.6647    51.0700    95.2918    51.0700    51.2238    95.9567    93.6647   -44.7913   121.7458   173.7929     0.1708   -42.4537     0.2885    -0.0603     0.0000  2805.3079
    4313.0  1549.5374     0.8979  -999.2500     0.6785   209.0353     0.2004  -999.2500    85.5563    85.5563    51.7580    96.6494    51.7580    52.0705    98.9649    85.5563   -44.8479   127.5288   173.8051     0.1708   -42.4599     0.2114    -0.0512     0.0000  2802.7202
    4313.5  1537.3894     0.6213  -999.2500     0.9169   209.0353     0.2179  -999.2500    87.6164    87.6164    52.2838    96.0334    52.2838    52.9277    97.9598    87.6164   -44.9043   127.9810   173.8173     0.1707   -42.4662     0.2235    -0.0444     0.0000  2766.9617
    4314.0  1554.1230     0.9269  -999.2500     0.8286   209.0353     0.2616  -999.2500    93.8997    93.8997    51.8695    96.4261    51.8695    52.2330    98.5548    93.8997   -44.9618   129.6754   173.8295     0.1707   -42.4726     0.2804    -0.0498     0.0000  2809.8462
    4314.5  1542.0997     0.9141  -999.2500     0.7138   209.0353     0.2493  -999.2500    97.4726    97.4726    50.9339    90.2777    50.9339    51.3055    87.2543    97.4726   -45.0189   126.1074   173.8417     0.1707   -42.4791     0.3122    -0.0622     0.0000  2782.9614
    4315.0  1547.0110     0.8218  -999.2500     0.6534   209.0353     0.2263  -999.2500    97.5232    97.5232    50.9875    90.2456    50.9875    51.4700    87.5958    97.5232   -45.0763   126.1145   173.8539     0.1707   -42.4856     0.3119    -0.0614     0.0000  2791.8079
    4315.5  1553.3025     0.7844  -999.2500     0.5931   209.0353     0.2157  -999.2500    97.5737    97.5737    51.5094    97.5161    51.5094    51.6868   101.5443    97.5737   -45.1323   126.9727   173.8661     0.1706   -42.4921     0.3068    -0.0545     0.0000  2789.0801
    4316.0  1543.4691     0.9113  -999.2500     0.5697   209.0353     0.2038  -999.2500    97.2150    97.2150    51.5470    90.0907    51.5470    50.9288    87.1729    97.2150   -45.1885   130.4789   173.8783     0.1706   -42.4986     0.3044    -0.0540     0.0000  2796.8462
    4316.5  1548.2025     0.8534  -999.2500     0.5734   209.0353     0.1899  -999.2500    85.7269    85.7269    52.8459    91.1396    52.8459    51.2402    89.8668    85.7269   -45.2459   129.8717   173.8905     0.1706   -42.5053     0.1935    -0.0373     0.0000  2789.0769
    4317.0  1556.0734     0.9006  -999.2500     0.5558   209.0353     0.1969  -999.2500   104.1989   104.1989    50.8076    91.9400    50.8076    49.9521    91.0518   104.1989   -45.3024   129.8537   173.9027     0.1706   -42.5119     0.3440    -0.0639     0.0000  2805.0000
    4317.5  1541.2834     0.8448  -999.2500     0.8130   209.0353     0.2072  -999.2500    93.1940    93.1940    51.0061    91.5277    51.0061    49.3450    90.5756    93.1940   -45.3586   126.6377   173.9149     0.1705   -42.5186     0.2862    -0.0612     0.0000  2806.5769
    4318.0  1554.4156     0.8784  -999.2500     0.9046   209.0353     0.1812  -999.2500    90.9240    90.9240    49.9368    92.1585    49.9368    48.7121    91.5988    90.9240   -45.4158   127.8842   173.9271     0.1705   -42.5255     0.2840    -0.0759     0.0000  2855.3848
    4318.5  1562.0770     0.7792     0.5447     0.3618   209.0353     0.1778    83.3124    85.8524    85.8524    50.2464    91.5333    50.2464    48.6691    89.6713    85.8524   -45.4729   129.3554   173.9393     0.1705   -42.5323     0.2395    -0.0716     0.0000  2838.3079
    4319.0  1555.3257     0.8206     0.9305     0.0000   209.0353     0.1917    89.2600   115.6995   115.6995    50.9311    94.1526    50.9311    49.3762    93.8570   115.6995   -45.5299   128.5819   173.9514     0.1704   -42.5393     0.3798    -0.0622     0.0000  2816.5769
    4319.5  1565.3629     0.7835     0.4903     0.3752   209.0353     0.2005    94.1071   107.1191   107.1191    52.5146    93.7756    52.5146    50.1738    92.9547   107.1191   -45.5873   133.9655   173.9636     0.1704   -42.5463     0.3418    -0.0415     0.0000  2858.7693
    4320.0  1560.2205     0.7296     0.9065     0.8757   209.0353     0.2319    88.7848    95.2031    95.2031    53.7771    92.6348    53.7771    51.3824    90.8415    95.2031   -45.6445   130.0550   173.9758     0.1704   -42.5534     0.2657    -0.0258     0.0000  2860.6538
    4320.5  1559.9374     0.6724     0.7107     0.8768   209.0353     0.2739    89.2417    92.6245    92.6245    53.5908    95.6658    53.5908    51.4234    95.7379    92.6245   -45.7008   134.1020   173.9880     0.1704   -42.5604     0.2484    -0.0281     0.0000  2836.4800
    4321.0  1550.6677     0.7028     0.9396     0.9061   209.0353     0.2861    89.4377    96.4909    96.4909    53.6869    96.8028    53.6869    51.4767    97.6248    96.4909   -45.7572   128.6023   174.0002     0.1703   -42.5675     0.2758    -0.0269     0.0000  2829.8079
    4321.5  1568.1571     0.9085     0.8466     0.9553   209.0353     0.3523    82.9416    89.7674    89.7674    53.7421    97.4017    53.7421    51.9218    98.9261    89.7674   -45.8151   131.8663   174.0124     0.1703   -42.5748     0.2207    -0.0263     0.0000  2835.8462
    4322.0  1541.7504     0.8218     0.3554     0.9258   209.0353     0.5054    68.7129    94.6437    94.6437    53.2987   101.2665    53.2987    50.9329   104.7425    94.6437   -45.8711   127.3275   174.0246     0.1703   -42.5820     0.2678    -0.0317     0.0000  2768.4399
    4322.5  1475.9999     0.8974     0.4609     0.6303   209.0353     0.5037    82.0005   103.0866   103.0866    53.6967    98.7121    53.6967    51.7565    99.8940   103.0866   -45.9272   123.8791   174.0368     0.1703   -42.5892     0.3138    -0.0268     0.0000  2709.0771
    4323.0  1678.6847     0.7574     0.5664     0.9036   209.0353     0.5469    95.2882    96.9007    96.9007    53.8288    98.8869    53.8288    52.1470    99.1726    96.9007   -45.9847   118.3934   174.0490     0.1702   -42.5966     0.2768    -0.0252     0.0000  3023.9199
    4323.5  1728.4346     0.8114     0.7194     0.7391   209.0353     0.6325    92.9116   105.8416   105.8416    54.7800    97.5142    54.7800    52.6272    98.1106   105.8416   -46.0409   123.1054   174.0612     0.1702   -42.6039     0.3171    -0.0139     0.0000  3017.2310
    4324.0  1632.0907     0.8882     0.6893     0.8845   209.0353     0.6084   100.2157   107.7648   107.7648    55.1777    99.6831    55.1777    53.5931   102.5077   107.7648   -46.0979   125.7486   174.0734     0.1702   -42.6114     0.3223    -0.0093     0.0000  2888.8462
    4324.5  1566.8340     0.8120     0.8968     0.9058   209.0353     0.6114    98.1499   111.0742   111.0742    56.4899    96.9160    56.4899    55.2407    98.0354   111.0742   -46.1559   124.8692   174.0856     0.1702   -42.6191     0.3256     0.0054     0.0000  2827.7410
    4325.0  1546.4955     0.7727     0.8116     0.8423   209.0353     0.5618   101.4348   112.6183   112.6183    54.2971    99.8101    54.2971    53.9541   102.6585   112.6183   -46.2130   116.9284   174.0977     0.1701   -42.6267     0.3486    -0.0196     0.0000  2810.3601
