~VERSION INFORMATION
VERS.           2.0   :CWLS Log ASCII Standard - VERSION 2.0
WRAP.           NO    :One Line per depth step
PROD.  Schlumberger   :LAS Producer
PROG.  DLIS to ASCII 19C2-270                          :LAS Program name and version
CREA.        2017/09/15 13:23                          :LAS Creation date {YYYY/MM/DD hh:mm}
DLIS_CREA.  2017-Sep-15 12:50                          :DLIS Creation date and time {YYYY-MMM-DD hh:mm}
SOURCE.     D5RL-00187_University of Utah_ME-ESW1_Run1_DSI_DoNotDistribute.dlis  :DLIS File Name
FILE-ID.     ConPr_R01_L001Up_DSI_DLIS_Custom          :File Identification Number
#--------------------------------------------------
~WELL INFORMATION
#MNEM.UNIT      DATA             DESCRIPTION
#---- ------ --------------   -----------------------------
STRT .F      2150.5          :START DEPTH     
STOP .F      7569.0          :STOP DEPTH     
STEP .F       0.5            :STEP     
NULL .          -999.25      :NULL VALUE
COMP .        University of Utah                       :COMPANY
WELL .        MU-ESW1                                  :WELL
FLD  .        None                                     :FIELD
LOC  .        From the S4 Corner of Sec. 32, T26S, R9W      :LOCATION
CNTY .        Beaver                                   :COUNTY
STAT .        Utah                                     :STATE
CTRY .        USA                                      :COUNTRY
API  .        1771001M00                               :API NUMBER
UWI  .        1771001M00                               :UNIQUE WELL ID
DATE .        15-Sep-2017                              :LOG DATE {DD-MMM-YYYY}
SRVC .        Schlumberger                             :SERVICE COMPANY
LATI .DEG     38.500562 degrees                        :LATITUDE
LONG .DEG     -112.88703 degrees                       :LONGITUDE
GDAT .                                                 :GeoDetic Datum
SECT .        32                                       :Section
RANG .        9W                                       :Range
TOWN .        26S                                      :Township
#-----------------------------------------------------------------------------
~PARAMETER INFORMATION
#MNEM.UNIT    VALUE                      DESCRIPTION
#---- -----   --------------------       ------------------------
CN   .        University of Utah         :Company Name
WN   .        MU-ESW1                    :Well Name
FN   .        None                       :Field Name
FL   .        From the S4 Corner of Sec. 32  T26S  R9W :Field Location
FL1  .        SHL  304' FNL & 522' FEL   :Field Location, Line 1
COUN .        Beaver                     :County or Parish
STAT .        Utah                       :State or Province
NATI .        USA                        :Nation
DATE .        15-Sep-2017                :Tools Above Rotary Table Date
APIN .        1771001M00                 :API Well Number
SECT .        32                         :Section
TOWN .        26S                        :Township
RANG .        9W                         :Range
DMF  .        KB                         :Drilling Measured From (Name of Drilling Elevation Reference)
LMF  .        KB                         :Logging Measured From (Name of Logging Elevation Reference)
PDAT .        GL                         :Permanent Datum
ENGI .        A.BLOCHOWICZ               :Engineer s Name
WITN .        JOE MOORE                  :Witness s Name
LATI .        38.500562 degrees          :Latitude
LONG .        -112.88703 degrees         :Longitude
LUL  .        Fort Morgan  CO            :Logging Unit Location
LUN  .        9108                       :Logging Unit Number
RUN  .        ONE.1                      :Run Number
SON  .        D5RL-00187                 :Service Order Number
BHT  .DEGF     253.00000                 :Bottom Hole Temperature
BS   .IN         8.75000                 :Bit Size
MDEN .G/C3       2.71000                 :Matrix Density for Density Porosity
DFD  .LB/G       8.60000                 :Drilling Fluid Density
DFV  .S         34.00000                 :Drilling Fluid Viscosity
DFL  .C3        10.20000                 :Drilling Fluid Loss
RMFS .OHMM       1.25000                 :Resistivity of Mud Filtrate Sample
EKB  .F       5557.50000                 :Elevation of Kelly Bushing
EGL  .F       5536.00000                 :Elevation of Ground Level
BLI  .F       7546.00000                 :Bottom Log Interval
BSAL .PPM      550.00000                 :Borehole Salinity
FLEV .F          8.00000                 :Depth of Drilling Fluid Level to LMF (Log Measured From)
MCST .DEGF      74.50000                 :Mudcake Sample Temperature
MFST .DEGF      74.50000                 :Mud Filtrate Sample Temperature
MRT  .DEGF     253.00000                 :Maximum Recorded Temperature
MST  .DEGF      74.50000                 :Mud Sample Temperature
RMCS .OHMM       1.69000                 :Resistivity of Mud Cake Sample
RMS  .OHMM       1.47000                 :Resistivity of Mud Sample
RW   .OHMM       1.00000                 :Connate Water Resistivity
TDD  .F       7536.00049                 :Driller Total Depth
TDL  .F       7536.00049                 :Logger Total Depth
TLI  .F       2175.00000                 :Top Log Interval
HIDE .                                   :Header Identifier
MATR .        LIME                       :Rock Matrix for Neutron Porosity Corrections
FNUM .           1.00000                 :F-Numerator for Formation Factor Formula
FEXP .           2.00000                 :Exponent "m" for Formation Factor Formula
DFT  .        WBM                        :Drilling Fluid Type
DFPH .           8.50000                 :Drilling Fluid pH
MCSS .        Calculated                 :Mudcake Sample Source
MFSS .        Calculated                 :Mud Filtrate Sample Source
FD   .G/C3       1.00000                 :Fluid Density
MSS  .        Active Tank                :Mud Sample Source
OS1  .                                   :Other Services Line 1
OS2  .                                   :Other Services Line 2
OS3  .                                   :Other Services Line 3
OS4  .                                   :Other Services Line 4
OS5  .                                   :Other Services Line 5
R1   .        Thank you for choosing Schlumberger! :Remarks Line 1
R2   .        Tool string run as per tool sketch and client logging program. :Remarks Line 2
R3   .        TD  7546 ft. CS  2175 ft   :Remarks Line 3
R4   .                                   :Remarks Line 4
R5   .                                   :Remarks Line 5
R6   .                                   :Remarks Line 6
R7   .                                   :Remarks Line 7
R8   .        2 CMEZs run on toolstring for centralization. :Remarks Line 8
TCS  .        22 00 00                   :Time Circulation Stopped
TLAB .        02 05 00                   :Time Logger At Bottom
EPD  .C3         5536.000000             :Elevation of Permanent Datum above Mean Sea Level
APD  .F          21.500000               :Elevation of Depth Reference (LMF) above Permanent Datum
#-----------------------------------------------------------------------------
~CURVE INFORMATION
#MNEM.UNIT   API CODE                                  DESCRIPTION
#---- -----  --------                                  -----------------------
DEPT .F                                                :DEPTH (BOREHOLE) {F10.1}
CDF  .LBF                                              :Calibrated Downhole Force {F11.4}
CHRP .                                                 :Peak Coherence, Receiver Array, Compressional - Monopole P S {F11.4}
CHR1 .                                                 :Peak Coherence, Receiver Array - Lower Dipole {F11.4}
CHR2 .                                                 :Peak Coherence, Receiver Array - Upper Dipole {F11.4}
CTEM .DEGF                                             :Cartridge Temperature {F11.4}
DCAL .IN                                               :Differential Caliper {F11.4}
DT1R .US/F                                             :Delta-T Shear, Receiver Array - Lower Dipole {F11.4}
DT2  .US/F                                             :Delta-T Shear - Upper Dipole {F11.4}
DT2R .US/F                                             :Delta-T Shear, Receiver Array - Upper Dipole {F11.4}
DT4P .US/F                                             :Delta-T Compressional - Monopole P S {F11.4}
DT4S .US/F                                             :Delta-T Shear - Monopole P S {F11.4}
DTCO .US/F                                             :Delta-T Compressional {F11.4}
DTRP .US/F                                             :Delta-T Compressional, Receiver Array - Monopole P S {F11.4}
DTRS .US/F                                             :Delta-T Shear, Receiver Array - Monopole P S {F11.4}
DTSM .US/F                                             :Delta-T Shear {F11.4}
ED   .F                                                :East Departure {F11.4}
GR_EDTC.GAPI                                           :Gamma Ray {F11.4}
GTEM .DEGF                                             :Generalized Borehole Temperature {F11.4}
ITT  .S                                                :Integrated Transit Time {F11.4}
ND   .F                                                :North Departure {F11.4}
PR   .                                                 :Poisson s Ratio {F11.4}
SPHI .CFCF                                             :Sonic Porosity {F11.4}
STIT .F                                                :Stuck Tool Indicator, Total {F11.4}
TENS .LBF                                              :Cable Tension {F11.4}
#-----------------------------------------------------------------------------
# 
#     DEPT       CDF        CHRP       CHR1       CHR2       CTEM       DCAL       DT1R       DT2        DT2R       DT4P       DT4S       DTCO       DTRP       DTRS       DTSM        ED      GR_EDTC      GTEM       ITT         ND         PR        SPHI       STIT       TENS
#
~A  
# ...
    7190.5  1520.8291     0.9660     0.9902     0.9921   232.7529     0.0919    90.9769    90.9849    90.9849    52.6579    94.4710    52.6579    51.6535    90.2206    90.9849  -168.6933   161.3640   244.2802     0.0177   -14.8011     0.2482    -0.0397     0.0000  3879.3479
    7191.0  1525.5469     0.9638     0.9902     0.9919   232.7529     0.1042    90.7498    90.8930    90.8930    52.9415    92.9489    52.9415    51.8932    90.0712    90.8930  -168.7077   158.4216   244.2924     0.0177   -14.8024     0.2433    -0.0361     0.0000  3896.0000
    7191.5  1526.1653     0.9519     0.9904     0.9913   232.7529     0.1131    91.2569    91.1971    91.1971    53.3923    92.4682    53.3923    51.7374    90.0349    91.1971  -168.7224   163.1183   244.3047     0.0177   -14.8037     0.2392    -0.0305     0.0000  3884.9585
    7192.0  1532.4198     0.9447     0.9912     0.9916   232.7529     0.1254    91.3598    91.6983    91.6983    53.1839    92.1209    53.1839    51.7113    90.1361    91.6983  -168.7372   163.2314   244.3170     0.0176   -14.8049     0.2466    -0.0331     0.0000  3901.8262
    7192.5  1526.9233     0.9390     0.9909     0.9915   232.7529     0.1446    91.5352    92.0639    92.0639    53.4063    91.8129    53.4063    51.9543    90.0448    92.0639  -168.7515   166.9104   244.3292     0.0176   -14.8061     0.2464    -0.0304     0.0000  3896.3914
    7193.0  1522.0511     0.9455     0.9909     0.9918   232.7529     0.1568    91.2239    92.0845    92.0845    53.7269    89.1452    53.7269    52.0090    90.2669    92.0845  -168.7659   162.7899   244.3415     0.0176   -14.8073     0.2419    -0.0264     0.0000  3893.5217
    7193.5  1539.7742     0.9020     0.9913     0.9923   232.7529     0.1287    91.2937    92.1316    92.1316    54.0824    88.6294    54.0824    52.4948    90.0293    92.1316  -168.7804   166.2564   244.3538     0.0176   -14.8084     0.2371    -0.0222     0.0000  3929.2607
    7194.0  1548.3528     0.9199     0.9899     0.9909   232.7529     0.0938    91.1204    91.9867    91.9867    54.2811    88.0177    54.2811    52.6246    90.0089    91.9867  -168.7950   165.4327   244.3660     0.0175   -14.8095     0.2329    -0.0198     0.0000  3912.5837
    7194.5  1526.9128     0.9021     0.9877     0.9897   232.7529     0.0955    90.6897    91.4410    91.4410    53.8911    91.3277    53.8911    52.5522    95.9559    91.4410  -168.8096   167.7685   244.3783     0.0175   -14.8106     0.2339    -0.0245     0.0000  3862.1741
    7195.0  1521.7306     0.9089     0.9866     0.9880   232.7529     0.0938    90.1688    90.5404    90.5404    54.3453    92.4187    54.3453    52.7273    97.6257    90.5404  -168.8240   166.9850   244.3906     0.0175   -14.8117     0.2184    -0.0190     0.0000  3866.1306
    7195.5  1528.7271     0.9230     0.9857     0.9862   232.7529     0.0956    89.1399    88.8155    88.8155    54.5577    92.1531    54.5577    52.4932    97.8249    88.8155  -168.8383   164.3885   244.4028     0.0175   -14.8127     0.1970    -0.0165     0.0000  3893.2175
    7196.0  1534.2135     0.9163     0.9862     0.9849   232.7529     0.0975    89.0333    87.9991    87.9991    53.4603    93.7815    53.4603    52.0108   100.4676    87.9991  -168.8530   164.1440   244.4151     0.0174   -14.8137     0.2075    -0.0297     0.0000  3901.0833
    7196.5  1526.6726     0.9230     0.9858     0.9847   232.7529     0.1619    89.6842    89.1185    89.1185    53.3005    91.9511    53.3005    53.1729    91.7748    89.1185  -168.8676   161.0666   244.4274     0.0174   -14.8147     0.2215    -0.0317     0.0000  3851.6521
    7197.0  1507.1844     0.8397     0.9853     0.9803   232.7529     0.5181    89.0475    88.8468    88.8468    49.6255    92.8801    49.6255    52.1402    92.8551    88.8468  -168.8819   165.6243   244.4397     0.0174   -14.8156     0.2733    -0.0803     0.0000  3807.3044
    7197.5  1564.9366     0.9056     0.9758     0.9692   232.7529     0.5846    90.8907    89.3653    89.3653    53.0682    93.6926    53.0682    53.9775    94.7071    89.3653  -168.8963   164.0648   244.4519     0.0174   -14.8165     0.2276    -0.0345     0.0000  3938.7393
    7198.0  1607.0452     0.9254     0.9881     0.9752   232.7529     0.2821    92.3831    92.3975    92.3975    52.8281    97.3232    52.8281    54.5240   102.4574    92.3975  -168.9106   163.2742   244.4642     0.0173   -14.8174     0.2572    -0.0375     0.0000  3958.1306
    7198.5  1589.3783     0.9369     0.9861     0.9739   232.7529     0.1351    92.7041    92.2015    92.2015    52.0840    90.4343    52.0840    54.5801    92.7776    92.2015  -168.9250   160.6583   244.4765     0.0173   -14.8182     0.2657    -0.0470     0.0000  3921.7915
    7199.0  1551.7869     0.9337     0.9840     0.9747   232.7529     0.1299    93.1412    92.7272    92.7272    51.9145    89.9513    51.9145    54.3631    91.8120    92.7272  -168.9394   166.4978   244.4887     0.0173   -14.8190     0.2717    -0.0492     0.0000  3876.3042
    7199.5  1529.9730     0.9279     0.9858     0.9758   232.7529     0.1305    91.5914    91.5035    91.5035    52.1046    90.8132    52.1046    53.6334    92.7651    91.5035  -168.9536   165.2374   244.5010     0.0172   -14.8198     0.2601    -0.0467     0.0000  3860.7393
    7200.0  1532.2754     0.9464     0.9874     0.9757   232.7529     0.1287    91.2568    91.2507    91.2507    51.7997    91.3284    51.7997    52.9734    93.2621    91.2507  -168.9677   164.3492   244.5133     0.0172   -14.8205     0.2623    -0.0507     0.0000  3857.7825
    7200.5  1541.7528     0.9409     0.9870     0.9772   232.2328     0.1253    91.2691    91.4250    91.4250    51.7950    91.8685    51.7950    52.6601    94.0461    91.4250  -168.9822   163.2919   244.5255     0.0172   -14.8213     0.2637    -0.0507     0.0000  3899.0002
    7201.0  1546.4874     0.9088     0.9874     0.9763   231.8278     0.1304    91.3954    91.8476    91.8476    52.0869    93.3023    52.0869    52.5015    96.2233    91.8476  -168.9967   162.7783   244.5378     0.0172   -14.8220     0.2630    -0.0470     0.0000  3891.5217
    7201.5  1538.7910     0.8363     0.9883     0.9669   231.1549     0.1287    92.2428    91.2588    91.2588    52.5395    94.3367    52.5395    52.7955    98.1424    91.2588  -169.0108   161.8953   244.5501     0.0171   -14.8226     0.2521    -0.0412     0.0000  3894.0000
    7202.0  1533.5685     0.8766     0.9852     0.9717   230.7765     0.1077    93.9911    90.3744    90.3744    52.6660    95.2402    52.6660    53.1989    99.7431    90.3744  -169.0252   160.4270   244.5623     0.0171   -14.8232     0.2429    -0.0396     0.0000  3890.0835
    7202.5  1530.9089     0.9156     0.9835     0.9761   230.7765     0.0937    97.9591    90.1174    90.1174    52.6801    95.8223    52.6801    53.3298   100.4504    90.1174  -169.0396   161.1566   244.5746     0.0171   -14.8238     0.2404    -0.0394     0.0000  3869.9128
    7203.0  1533.9530     0.9147     0.9809     0.9789   230.7765     0.0882    97.4344    89.6116    89.6116    52.6412    96.6091    52.6412    53.3573   101.9200    89.6116  -169.0538   157.7569   244.5869     0.0171   -14.8244     0.2365    -0.0399     0.0000  3887.4348
    7203.5  1540.8434     0.8977     0.9752     0.9787   230.7765     0.0968    98.2951    89.1289    89.1289    52.6180    96.5610    52.6180    53.7038   101.4302    89.1289  -169.0680   153.5393   244.5991     0.0170   -14.8249     0.2325    -0.0402     0.0000  3907.3916
    7204.0  1536.6901     0.8681     0.9648     0.9768   230.7765     0.0727   100.5075    89.4946    89.4946    55.0745    97.1703    55.0745    53.8244    95.7458    89.4946  -169.0823   152.2563   244.6114     0.0170   -14.8254     0.1952    -0.0105     0.0000  3868.9585
    7204.5  1539.3041     0.8681     0.9631     0.9773   230.7765     0.0761   100.6648    90.3547    90.3547    52.4076    97.6587    52.4076    53.8244    95.7458    90.3547  -169.0966   155.8715   244.6237     0.0170   -14.8259     0.2465    -0.0428     0.0000  3865.8259
    7205.0  1550.1670     0.9104     0.9585     0.9768   230.7765     0.0746   100.6110    92.2810    92.2810    52.1876    97.6002    52.1876    52.7799    95.2021    92.2810  -169.1106   158.9015   244.6359     0.0170   -14.8263     0.2649    -0.0457     0.0000  3887.8262
