~VERSION INFORMATION
VERS.           1.2   :CWLS Log ASCII Standard - VERSION 1.2
WRAP.           NO    :One Line per depth step
PROD.  Schlumberger   :LAS Producer
PROG.  DLIS to ASCII 2.3                               :LAS Program name and version
CREA.        2019/04/17 13:32                          :LAS Creation date {YYYY/MM/DD hh:mm}
DLIS_CREA.  2019-Apr-17 13:22                          :DLIS Creation date and time {YYYY-MMM-DD hh:mm}
SOURCE.     E9OJ-00005_University-of-Utah_78-32_CBL-VDL_17APR19_Main.dlis  :DLIS File Name
FILE-ID.     ConPr_R01_L003Up_DSLT_SGT_CAL             :File Identification Number
#--------------------------------------------------
~WELL INFORMATION
#MNEM.UNIT      DATA             DESCRIPTION
#---- ------ --------------   -----------------------------
STRT .F      10.5            :START DEPTH     
STOP .F      3230.0          :STOP DEPTH     
STEP .F       0.5            :STEP     
NULL .          -999.25      :NULL VALUE
COMP .                 COMPANY:  University of Utah                 
WELL .                    WELL:  78-32                              
FLD  .                   FIELD:  None                               
LOC  .                LOCATION:                                     
CNTY .                  COUNTY:  Beaver                             
STAT .                   STATE:  Utah                               
CTRY .                 COUNTRY:  USA                                
SRVC .         SERVICE COMPANY:  Schlumberger                       
LATI .DEG             LATITUDE:  38.500182 degrees                  
LONG .DEG            LONGITUDE:  -112.88320 degrees                 
API  .              API NUMBER:                                     
DATE .                LOG DATE:  17-Apr-2019
UWI  .          UNIQUE WELL ID:                                     
#-----------------------------------------------------------------------------
~PARAMETER INFORMATION
#MNEM.UNIT    VALUE                      DESCRIPTION
#---- -----   --------------------       ------------------------
CN   .        University of Utah         :Company Name
WN   .        78-32                      :Well Name
FN   .        None                       :Field Name
FL   .                                   :Field Location
FL1  .                                   :Field Location, Line 1
COUN .        Beaver                     :County or Parish
STAT .        Utah                       :State or Province
NATI .        USA                        :Nation
DATE .        17-Apr-2019                :Tools Above Rotary Table Date
APIN .                                   :API Well Number
SECT .                                   :Section
TOWN .                                   :Township
RANG .                                   :Range
DMF  .        GL                         :Drilling Measured From (Name of Drilling Elevation Reference)
LMF  .        GL                         :Logging Measured From (Name of Logging Elevation Reference)
PDAT .        GL                         :Permanent Datum
ENGI .        Alan Moreno                :Engineer s Name
WITN .        Virgil Welch               :Witness s Name
LATI .        38.500182 degrees          :Latitude
LONG .        -112.88320 degrees         :Longitude
LUL  .                                   :Logging Unit Location
LUN  .        9102                       :Logging Unit Number
RUN  .        ONE                        :Run Number
SON  .        E9OJ-00005                 :Service Order Number
BHT  .DEGF     224.86000                 :Bottom Hole Temperature
BS   .IN         8.75000                 :Bit Size
MDEN .G/C3       2.71000                 :Matrix Density for Density Porosity
DFD  .LB/G       8.40000                 :Drilling Fluid Density
DFV  .S       -999.25000                 :Drilling Fluid Viscosity
DFL  .C3      -999.25000                 :Drilling Fluid Loss
RMFS .OHMM       0.15000                 :Resistivity of Mud Filtrate Sample
EKB  .F       5536.00000                 :Elevation of Kelly Bushing
EGL  .F       5536.00000                 :Elevation of Ground Level
BLI  .F       3228.00000                 :Bottom Log Interval
BSAL .PPM        0.00000                 :Borehole Salinity
FLEV .F          8.00000                 :Depth of Drilling Fluid Level to LMF (Log Measured From)
MCST .DEGF      68.00000                 :Mudcake Sample Temperature
MFST .DEGF      68.00000                 :Mud Filtrate Sample Temperature
MRT  .DEGF     226.82001                 :Maximum Recorded Temperature
MST  .DEGF      68.00000                 :Mud Sample Temperature
RMCS .OHMM    -999.25000                 :Resistivity of Mud Cake Sample
RMS  .OHMM       0.20000                 :Resistivity of Mud Sample
RW   .OHMM       1.00000                 :Connate Water Resistivity
TDD  .F       3272.00000                 :Driller Total Depth
TDL  .F       3272.00000                 :Logger Total Depth
TLI  .F         10.00000                 :Top Log Interval
HIDE .                                   :Header Identifier
MATR .        LIME                       :Rock Matrix for Neutron Porosity Corrections
FNUM .           1.00000                 :F-Numerator for Formation Factor Formula
FEXP .           2.00000                 :Exponent "m" for Formation Factor Formula
DFT  .        WATER                      :Drilling Fluid Type
DFPH .        -999.25000                 :Drilling Fluid pH
MCSS .        Pressed                    :Mudcake Sample Source
MFSS .                                   :Mud Filtrate Sample Source
FD   .G/C3       1.00000                 :Fluid Density
MSS  .        Active Tank                :Mud Sample Source
OS1  .                                   :Other Services Line 1
OS2  .                                   :Other Services Line 2
OS3  .                                   :Other Services Line 3
OS4  .                                   :Other Services Line 4
OS5  .                                   :Other Services Line 5
R1   .        Toolstring ran as per tool sketch. :Remarks Line 1
R2   .                                   :Remarks Line 2
R3   .                                   :Remarks Line 3
R4   .                                   :Remarks Line 4
R5   .                                   :Remarks Line 5
R6   .                                   :Remarks Line 6
R7   .                                   :Remarks Line 7
R8   .                                   :Remarks Line 8
TCS  .                                   :Time Circulation Stopped
TLAB .        11 27 00                   :Time Logger At Bottom
EPD  .C3         5536.000000             :Elevation of Permanent Datum above Mean Sea Level
APD  .F           0.000000               :Elevation of Depth Reference (LMF) above Permanent Datum
#-----------------------------------------------------------------------------
~CURVE INFORMATION
#MNEM.UNIT   API CODE                                  DESCRIPTION
#---- -----  --------                                  -----------------------
DEPT .F                                                :DEPTH (BOREHOLE) {F10.1}
BI   .                                                 :Bond Index {F11.4}
CBL  .MV                                               :CBL Amplitude {F11.4}
CCL  .                                                 :Casing Collar Locator Amplitude {F11.4}
CDF  .LBF                                              :Calibrated Downhole Force {F11.4}
CTEM .DEGF                                             :Cartridge Temperature {F11.4}
DCAL .IN                                               :Differential Caliper {F11.4}
ECGR .GAPI                                             :Environmentally Corrected Gamma Ray {F11.4}
ED   .F                                                :East Departure {F11.4}
GR   .GAPI                                             :Gamma Ray {F11.4}
GTEM .DEGF                                             :Generalized Borehole Temperature {F11.4}
HGR  .GAPI                                             :High Resolution Gamma Ray {F11.4}
ND   .F                                                :North Departure {F11.4}
STIT .F                                                :Stuck Tool Indicator, Total {F11.4}
TENS .LBF                                              :Cable Tension {F11.4}
#-----------------------------------------------------------------------------
# 
#     DEPT        BI        CBL        CCL        CDF        CTEM       DCAL       ECGR        ED         GR        GTEM       HGR         ND        STIT       TENS
#
~A  
# ...
    2338.0     0.4014    11.4213     0.0103  2234.4954   211.0117     0.0000   107.4074     0.0000   108.4000   181.6117   110.4000     0.0000     0.0000  1546.2500
    2338.5     0.4399     9.5923     0.0118  2236.4202   211.0117     0.0000   111.7671     0.0000   112.8000   181.6360   113.4000     0.0000     0.0000  1548.6250
    2339.0     0.4331     9.8945     0.0029  2255.7209   211.0117     0.0000   113.1048     0.0000   114.1500   181.6603   117.0000     0.0000     0.0000  1515.8751
    2339.5     0.4273    10.1583    -0.0132  2103.4309   211.0117     0.0000   105.3762     0.0000   106.3500   181.6846   111.0000     0.0000     0.0000  1532.7500
    2340.0     0.4870     7.7493    -0.0072  2139.2805   211.0117     0.0000    95.4925     0.0000    96.3750   181.7089    90.0000     0.0000     0.0000  1558.8889
    2340.5     0.5284     6.4219    -0.0753  2180.3018   211.0117     0.0000    85.9061     0.0000    86.7000   181.7332    87.3000     0.0000     0.0000  1515.0000
    2341.0     0.5077     7.0534    -0.2287  2294.8884   211.0117     0.0000    87.8878     0.0000    88.7000   181.7575    83.1000     0.0000     0.0000  1507.5000
    2341.5     0.5283     6.4268     0.0206  2309.8088   211.0117     0.0000    92.7925     0.0000    93.6500   181.7818    96.0000     0.0000     0.0000  1544.5000
    2342.0     0.5305     6.3622    -0.0014  2128.7759   211.0117     0.0000    99.4559     0.0000   100.3750   181.8061   103.8000     0.0000     0.0000  1521.1250
    2342.5     0.5064     7.0980    -0.0059  2254.7964   211.0117     0.0000   101.4128     0.0000   102.3500   181.8304   103.2000     0.0000     0.0000  1495.0000
    2343.0     0.5621     5.5117     0.0000  2126.7266   211.0117     0.0000    99.8522     0.0000   100.7750   181.8547   103.2000     0.0000     0.0000  1519.8751
    2343.5     0.6102     4.4334    -0.0029  2275.0852   211.0117     0.0000   101.4376     0.0000   102.3750   181.8790    97.2000     0.0000     0.0000  1554.3334
    2344.0     0.5936     4.7802     0.0072  2309.6313   211.0117     0.0000   105.8221     0.0000   106.8000   181.9033   107.1000     0.0000     0.0000  1534.3750
    2344.5     0.6373     3.9202     0.0044  2277.1448   211.0117     0.0000   108.7203     0.0000   109.7250   181.9276   115.2000     0.0000     0.0000  1504.6250
    2345.0     0.6915     3.0661     0.0117  2337.6008   211.0117     0.0000   111.8910     0.0000   112.9250   181.9519   103.2000     0.0000     0.0000  1529.6251
    2345.5     0.6927     3.0501    -0.0072  2187.9561   211.0117     0.0000   109.7359     0.0000   110.7500   181.9762   117.6000     0.0000     0.0000  1538.3751
    2346.0     0.6631     3.4872    -0.0014  2136.6492   211.0117     0.0000   111.1974     0.0000   112.2250   182.0005   108.0000     0.0000     0.0000  1518.2500
    2346.5     0.6445     3.7946    -0.0059  2176.5281   211.0117     0.0000   107.8037     0.0000   108.8000   182.0248   110.4000     0.0000     0.0000  1524.1250
    2347.0     0.6546     3.6246    -0.0072  2252.3225   211.0117     0.0000   110.3552     0.0000   111.3750   182.0491   106.8000     0.0000     0.0000  1553.2222
    2347.5     0.6734     3.3279    -0.0014  2169.0940   211.0117     0.0000   106.2184     0.0000   107.2000   182.0734   116.4000     0.0000     0.0000  1557.6250
    2348.0     0.6864     3.1379    -0.0029  2255.1396   211.0117     0.0000   105.4505     0.0000   106.4250   182.0977    99.9000     0.0000     0.0000  1519.1250
    2348.5     0.6707     3.3697    -0.0044  2124.6877   211.0117     0.0000   103.7908     0.0000   104.7500   182.1220   105.0000     0.0000     0.0000  1530.0000
    2349.0     0.6466     3.7590    -0.0014  2229.6021   211.0117     0.0000   112.0891     0.0000   113.1250   182.1463   113.1000     0.0000     0.0000  1580.2500
    2349.5     0.6352     3.9586    -0.0059  2214.8381   211.0117     0.0000   112.6836     0.0000   113.7250   182.1706   123.0000     0.0000     0.0000  1555.5555
    2350.0     0.6221     4.1994    -0.0014  2182.8955   211.0117     0.0000   110.9001     0.0000   111.9250   182.1948   106.8000     0.0000     0.0000  1524.7500
    2350.5     0.6077     4.4830     0.0029  2128.5249   211.0117     0.0000    99.7036     0.0000   100.6250   182.2191   107.4000     0.0000     0.0000  1525.2501
    2351.0     0.5947     4.7553    -0.0014  2218.1108   211.0117     0.0000    99.7036     0.0000   100.6250   182.2435    89.1000     0.0000     0.0000  1526.5000
    2351.5     0.6086     4.4652    -0.0014  2235.3840   211.0117     0.0000    98.5889     0.0000    99.5000   182.2678   106.8000     0.0000     0.0000  1544.3751
    2352.0     0.6528     3.6547    -0.0014  2219.9302   211.0117     0.0000   101.8587     0.0000   102.8000   182.2921   102.3000     0.0000     0.0000  1543.4445
    2352.5     0.6696     3.3863    -0.0014  2160.6035   211.0117     0.0000   101.1403     0.0000   102.0750   182.3163    99.0000     0.0000     0.0000  1519.6250
    2353.0     0.6520     3.6682     0.0014  2120.0137   211.0117     0.0000    96.9788     0.0000    97.8750   182.3406   103.8000     0.0000     0.0000  1547.2501
    2353.5     0.6408     3.8592     0.0014  2307.4565   211.0117     0.0000    93.0402     0.0000    93.9000   182.3649    90.0000     0.0000     0.0000  1549.7500
    2354.0     0.6477     3.7406    -0.0014  2292.6519   211.0117     0.0000    90.3897     0.0000    91.2250   182.3892    87.9000     0.0000     0.0000  1536.7500
    2354.5     0.6608     3.5245    -0.0059  2194.5852   211.0117     0.0000    95.2200     0.0000    96.1000   182.4135    96.6000     0.0000     0.0000  1539.7500
    2355.0     0.6648     3.4611     0.0059  2189.1899   211.4768     0.0000    99.3568     0.0000   100.2750   182.4378   101.7000     0.0000     0.0000  1541.8750
    2355.5     0.6514     3.6769    -0.0014  2172.6907   212.1162     0.0000   100.6697     0.0000   101.6000   182.4621    99.6000     0.0000     0.0000  1559.5000
    2356.0     0.6146     4.3445    -0.0014  2167.0234   211.7459     0.0000   103.3697     0.0000   104.3250   182.4864   101.1000     0.0000     0.0000  1534.8750
    2356.5     0.5748     5.2051    -0.0029  2214.0750   212.5091     0.0000    98.7871     0.0000    99.7000   182.5107   112.8000     0.0000     0.0000  1516.8889
    2357.0     0.5403     6.0857    -0.0043  2175.8691   212.9882     0.0000    97.0779     0.0000    97.9750   182.5350    85.5000     0.0000     0.0000  1552.8750
    2357.5     0.4840     7.8548     0.0029  2291.5637   212.9882     0.0000    93.4861     0.0000    94.3500   182.5593    95.4000     0.0000     0.0000  1562.8751
    2358.0     0.4165    10.6691    -0.0103  2294.3240   212.9882     0.0000   100.4467     0.0000   101.3750   182.5836   102.9000     0.0000     0.0000  1549.7501
    2358.5     0.3783    12.6817     0.0000  2290.0056   212.9882     0.0000   100.1495     0.0000   101.0750   182.6079   106.8000     0.0000     0.0000  1536.0000
    2359.0     0.3571    13.9622    -0.0059  2134.7043   212.9882     0.0000    96.8054     0.0000    97.7000   182.6322    95.7000     0.0000     0.0000  1541.1250
    2359.5     0.3279    15.9374     0.0014  2379.7170   212.9882     0.0000    94.5264     0.0000    95.4000   182.6565    91.8000     0.0000     0.0000  1563.8889
    2360.0     0.3046    17.7144    -0.0029  2371.1536   212.9882     0.0000    96.4090     0.0000    97.3000   182.6808    99.9000     0.0000     0.0000  1557.5001
    2360.5     0.2924    18.7186    -0.0044  2124.8757   212.9882     0.0000   100.1742     0.0000   101.1000   182.7051   100.2000     0.0000     0.0000  1540.6250
    2361.0     0.2895    18.9731    -0.0014  2176.7476   212.9882     0.0000   103.5183     0.0000   104.4750   182.7294   103.2000     0.0000     0.0000  1549.0000
    2361.5     0.2989    18.1822    -0.0295  2131.6304   212.9882     0.0000   104.3110     0.0000   105.2750   182.7537   110.4000     0.0000     0.0000  1532.5001
    2362.0     0.3165    16.7867     0.0014  2152.8975   212.9882     0.0000   107.9028     0.0000   108.9000   182.7780   102.6000     0.0000     0.0000  1562.0000
