~VERSION INFORMATION
VERS.           1.2   :CWLS Log ASCII Standard - VERSION 1.2
WRAP.           NO    :One Line per depth step
PROD.  Schlumberger   :LAS Producer
PROG.  DLIS to ASCII 2.3                               :LAS Program name and version
CREA.        2019/04/17 13:32                          :LAS Creation date {YYYY/MM/DD hh:mm}
DLIS_CREA.  2019-Apr-17 13:22                          :DLIS Creation date and time {YYYY-MMM-DD hh:mm}
SOURCE.     E9OJ-00005_University-of-Utah_78-32_CBL-VDL_17APR19_Main.dlis  :DLIS File Name
FILE-ID.     ConPr_R01_L003Up_DSLT_SGT_CAL             :File Identification Number
#--------------------------------------------------
~WELL INFORMATION
#MNEM.UNIT      DATA             DESCRIPTION
#---- ------ --------------   -----------------------------
STRT .F      10.5            :START DEPTH     
STOP .F      3230.0          :STOP DEPTH     
STEP .F       0.5            :STEP     
NULL .          -999.25      :NULL VALUE
COMP .                 COMPANY:  University of Utah                 
WELL .                    WELL:  78-32                              
FLD  .                   FIELD:  None                               
LOC  .                LOCATION:                                     
CNTY .                  COUNTY:  Beaver                             
STAT .                   STATE:  Utah                               
CTRY .                 COUNTRY:  USA                                
SRVC .         SERVICE COMPANY:  Schlumberger                       
LATI .DEG             LATITUDE:  38.500182 degrees                  
LONG .DEG            LONGITUDE:  -112.88320 degrees                 
API  .              API NUMBER:                                     
DATE .                LOG DATE:  17-Apr-2019
UWI  .          UNIQUE WELL ID:                                     
#-----------------------------------------------------------------------------
~PARAMETER INFORMATION
#MNEM.UNIT    VALUE                      DESCRIPTION
#---- -----   --------------------       ------------------------
CN   .        University of Utah         :Company Name
WN   .        78-32                      :Well Name
FN   .        None                       :Field Name
FL   .                                   :Field Location
FL1  .                                   :Field Location, Line 1
COUN .        Beaver                     :County or Parish
STAT .        Utah                       :State or Province
NATI .        USA                        :Nation
DATE .        17-Apr-2019                :Tools Above Rotary Table Date
APIN .                                   :API Well Number
SECT .                                   :Section
TOWN .                                   :Township
RANG .                                   :Range
DMF  .        GL                         :Drilling Measured From (Name of Drilling Elevation Reference)
LMF  .        GL                         :Logging Measured From (Name of Logging Elevation Reference)
PDAT .        GL                         :Permanent Datum
ENGI .        Alan Moreno                :Engineer s Name
WITN .        Virgil Welch               :Witness s Name
LATI .        38.500182 degrees          :Latitude
LONG .        -112.88320 degrees         :Longitude
LUL  .                                   :Logging Unit Location
LUN  .        9102                       :Logging Unit Number
RUN  .        ONE                        :Run Number
SON  .        E9OJ-00005                 :Service Order Number
BHT  .DEGF     224.86000                 :Bottom Hole Temperature
BS   .IN         8.75000                 :Bit Size
MDEN .G/C3       2.71000                 :Matrix Density for Density Porosity
DFD  .LB/G       8.40000                 :Drilling Fluid Density
DFV  .S       -999.25000                 :Drilling Fluid Viscosity
DFL  .C3      -999.25000                 :Drilling Fluid Loss
RMFS .OHMM       0.15000                 :Resistivity of Mud Filtrate Sample
EKB  .F       5536.00000                 :Elevation of Kelly Bushing
EGL  .F       5536.00000                 :Elevation of Ground Level
BLI  .F       3228.00000                 :Bottom Log Interval
BSAL .PPM        0.00000                 :Borehole Salinity
FLEV .F          8.00000                 :Depth of Drilling Fluid Level to LMF (Log Measured From)
MCST .DEGF      68.00000                 :Mudcake Sample Temperature
MFST .DEGF      68.00000                 :Mud Filtrate Sample Temperature
MRT  .DEGF     226.82001                 :Maximum Recorded Temperature
MST  .DEGF      68.00000                 :Mud Sample Temperature
RMCS .OHMM    -999.25000                 :Resistivity of Mud Cake Sample
RMS  .OHMM       0.20000                 :Resistivity of Mud Sample
RW   .OHMM       1.00000                 :Connate Water Resistivity
TDD  .F       3272.00000                 :Driller Total Depth
TDL  .F       3272.00000                 :Logger Total Depth
TLI  .F         10.00000                 :Top Log Interval
HIDE .                                   :Header Identifier
MATR .        LIME                       :Rock Matrix for Neutron Porosity Corrections
FNUM .           1.00000                 :F-Numerator for Formation Factor Formula
FEXP .           2.00000                 :Exponent "m" for Formation Factor Formula
DFT  .        WATER                      :Drilling Fluid Type
DFPH .        -999.25000                 :Drilling Fluid pH
MCSS .        Pressed                    :Mudcake Sample Source
MFSS .                                   :Mud Filtrate Sample Source
FD   .G/C3       1.00000                 :Fluid Density
MSS  .        Active Tank                :Mud Sample Source
OS1  .                                   :Other Services Line 1
OS2  .                                   :Other Services Line 2
OS3  .                                   :Other Services Line 3
OS4  .                                   :Other Services Line 4
OS5  .                                   :Other Services Line 5
R1   .        Toolstring ran as per tool sketch. :Remarks Line 1
R2   .                                   :Remarks Line 2
R3   .                                   :Remarks Line 3
R4   .                                   :Remarks Line 4
R5   .                                   :Remarks Line 5
R6   .                                   :Remarks Line 6
R7   .                                   :Remarks Line 7
R8   .                                   :Remarks Line 8
TCS  .                                   :Time Circulation Stopped
TLAB .        11 27 00                   :Time Logger At Bottom
EPD  .C3         5536.000000             :Elevation of Permanent Datum above Mean Sea Level
APD  .F           0.000000               :Elevation of Depth Reference (LMF) above Permanent Datum
#-----------------------------------------------------------------------------
~CURVE INFORMATION
#MNEM.UNIT   API CODE                                  DESCRIPTION
#---- -----  --------                                  -----------------------
DEPT .F                                                :DEPTH (BOREHOLE) {F10.1}
BI   .                                                 :Bond Index {F11.4}
CBL  .MV                                               :CBL Amplitude {F11.4}
CCL  .                                                 :Casing Collar Locator Amplitude {F11.4}
CDF  .LBF                                              :Calibrated Downhole Force {F11.4}
CTEM .DEGF                                             :Cartridge Temperature {F11.4}
DCAL .IN                                               :Differential Caliper {F11.4}
ECGR .GAPI                                             :Environmentally Corrected Gamma Ray {F11.4}
ED   .F                                                :East Departure {F11.4}
GR   .GAPI                                             :Gamma Ray {F11.4}
GTEM .DEGF                                             :Generalized Borehole Temperature {F11.4}
HGR  .GAPI                                             :High Resolution Gamma Ray {F11.4}
ND   .F                                                :North Departure {F11.4}
STIT .F                                                :Stuck Tool Indicator, Total {F11.4}
TENS .LBF                                              :Cable Tension {F11.4}
#-----------------------------------------------------------------------------
# 
#     DEPT        BI        CBL        CCL        CDF        CTEM       DCAL       ECGR        ED         GR        GTEM       HGR         ND        STIT       TENS
#
~A  
# ...
     647.5     0.7334     2.5353     0.0140  2420.8149   145.7882     0.0000    59.5249     0.0000    60.0750    99.4643    57.6000     0.0000     0.0000   970.5000
     648.0     0.7318     2.5538    -0.0056  2363.6194   145.7882     0.0000    58.8561     0.0000    59.4000    99.4886    60.9000     0.0000     0.0000   973.5000
     648.5     0.7317     2.5553     0.0113  2289.6030   145.7882     0.0000    58.5341     0.0000    59.0750    99.5129    60.3000     0.0000     0.0000   966.7500
     649.0     0.7566     2.2824    -0.0212  2218.3091   145.7882     0.0000    59.6488     0.0000    60.2000    99.5372    56.4000     0.0000     0.0000   980.7500
     649.5     0.7826     2.0286     0.0155  2215.8530   145.7882     0.0000    59.4258     0.0000    59.9750    99.5615    65.7000     0.0000     0.0000   971.5715
     650.0     0.7689     2.1585    -0.0070  2373.9402   145.7882     0.0000    65.7672     0.0000    66.3750    99.5858    58.5000     0.0000     0.0000   970.7501
     650.5     0.7431     2.4271    -0.0113  2351.3525   145.7882     0.0000    68.6654     0.0000    69.3000    99.6101    75.9000     0.0000     0.0000   989.8751
     651.0     0.7425     2.4334     0.0182  2193.0352   145.7882     0.0000    76.6913     0.0000    77.4000    99.6344    71.1000     0.0000     0.0000   980.1251
     651.5     0.7550     2.2996     0.0083  2320.7373   145.7882     0.0000    78.0289     0.0000    78.7500    99.6587    83.1000     0.0000     0.0000   969.5715
     652.0     0.7738     2.1115     0.0182  2310.0176   145.7882     0.0000    79.1436     0.0000    79.8750    99.6830    78.3000     0.0000     0.0000   982.1251
     652.5     0.7847     2.0093    -0.0069  2435.3862   145.7882     0.0000    77.1371     0.0000    77.8500    99.7073    75.9000     0.0000     0.0000   970.6250
     653.0     0.7713     2.1357     0.0155  2250.9260   145.7882     0.0000    70.0031     0.0000    70.6500    99.7316    79.8000     0.0000     0.0000   968.5000
     653.5     0.7609     2.2385     0.0113  2390.5488   145.7882     0.0000    65.0489     0.0000    65.6500    99.7559    58.5000     0.0000     0.0000   959.4286
     654.0     0.7634     2.2139    -0.0155  2107.9644   145.7882     0.0000    59.4754     0.0000    60.0250    99.7802    60.6000     0.0000     0.0000   965.8751
     654.5     0.7636     2.2118    -0.0283  2237.9392   145.7882     0.0000    63.2653     0.0000    63.8500    99.8045    60.0000     0.0000     0.0000   963.0001
     655.0     0.7489     2.3641    -0.0268  2404.7100   145.7882     0.0000    63.0919     0.0000    63.6750    99.8288    69.0000     0.0000     0.0000   956.1249
     655.5     0.7129     2.7826    -0.0507  2129.7561   145.7882     0.0000    60.4167     0.0000    60.9750    99.8531    60.9000     0.0000     0.0000   961.3750
     656.0     0.6848     3.1605     0.8995  2186.5298   145.7882     0.0000    53.7285     0.0000    54.2250    99.8774    53.7000     0.0000     0.0000   946.5715
     656.5     0.6839     3.1744     0.0517  2150.9751   145.7882     0.0000    54.8432     0.0000    55.3500    99.9017    48.6000     0.0000     0.0000   934.2500
     657.0     0.7153     2.7524    -0.0196  2383.6599   145.7882     0.0000    53.4808     0.0000    53.9750    99.9260    62.7000     0.0000     0.0000   944.3751
     657.5     0.7650     2.1970    -0.1220  2371.8740   146.0877     0.0000    52.3661     0.0000    52.8500    99.9503    49.2000     0.0000     0.0000   946.5000
     658.0     0.7574     2.2746    -0.1554  2230.1592   146.7765     0.0000    51.9202     0.0000    52.4000    99.9746    48.3000     0.0000     0.0000   946.6250
     658.5     0.7128     2.7842    -0.0410  2399.8472   146.8663     0.0000    56.4037     0.0000    56.9250    99.9989    62.7000     0.0000     0.0000   939.4286
     659.0     0.6907     3.0771    -0.0408  2208.7539   146.3872     0.0000    60.1937     0.0000    60.7500   100.0232    63.3000     0.0000     0.0000   944.3749
     659.5     0.6976     2.9820     0.0196  2281.3435   147.7647     0.0000    55.2891     0.0000    55.8000   100.0475    58.5000     0.0000     0.0000   975.0000
     660.0     0.7138     2.7713    -0.0365  2376.7007   147.7647     0.0000    59.9708     0.0000    60.5250   100.0717    47.7000     0.0000     0.0000   964.7500
     660.5     0.7168     2.7338    -0.0182  2212.7764   147.7647     0.0000    64.6525     0.0000    65.2500   100.0960    79.5000     0.0000     0.0000   957.6251
     661.0     0.7107     2.8102    -0.0481  2351.9343   147.7647     0.0000    70.2508     0.0000    70.9000   100.1203    72.0000     0.0000     0.0000   975.7143
     661.5     0.7098     2.8223    -0.0126  2120.9575   147.7647     0.0000    66.9067     0.0000    67.5250   100.1446    64.2000     0.0000     0.0000   960.2500
     662.0     0.7135     2.7755     0.0352  2266.4236   147.7647     0.0000    64.2314     0.0000    64.8250   100.1689    65.1000     0.0000     0.0000   953.8750
     662.5     0.7051     2.8830    -0.0309  2293.0288   147.7647     0.0000    64.6525     0.0000    65.2500   100.1932    66.0000     0.0000     0.0000   961.1250
     663.0     0.6870     3.1290     0.0240  2252.7603   147.7647     0.0000    60.6396     0.0000    61.2000   100.2175    65.4000     0.0000     0.0000   973.2499
     663.5     0.6846     3.1632     0.0196  2245.6824   147.7647     0.0000    55.9579     0.0000    56.4750   100.2418    53.4000     0.0000     0.0000   964.5714
     664.0     0.7121     2.7935     0.0309  2160.6428   147.7647     0.0000    56.8496     0.0000    57.3750   100.2661    51.0000     0.0000     0.0000   964.7500
     664.5     0.7362     2.5038     0.0307  2347.8220   147.7647     0.0000    62.2002     0.0000    62.7750   100.2904    68.7000     0.0000     0.0000   956.0001
     665.0     0.7193     2.7031    -0.0140  2225.6079   147.7647     0.0000    64.6525     0.0000    65.2500   100.3147    72.0000     0.0000     0.0000   956.8750
     665.5     0.7095     2.8265     0.0056  2384.0261   147.7647     0.0000    63.5378     0.0000    64.1250   100.3390    60.0000     0.0000     0.0000   941.1429
     666.0     0.7368     2.4972     0.0070  2415.2227   147.7647     0.0000    57.1717     0.0000    57.7000   100.3633    65.1000     0.0000     0.0000   951.0000
     666.5     0.7557     2.2924     0.0241  2306.7952   147.7647     0.0000    59.8469     0.0000    60.4000   100.3876    51.6000     0.0000     0.0000   961.8750
     667.0     0.7538     2.3119    -0.0028  2362.5237   147.7647     0.0000    58.0634     0.0000    58.6000   100.4119    65.1000     0.0000     0.0000   952.6251
     667.5     0.7456     2.3990    -0.0338  2189.0801   147.7647     0.0000    59.7478     0.0000    60.3000   100.4362    60.3000     0.0000     0.0000   956.8750
     668.0     0.7289     2.5887    -0.0084  2298.9756   147.7647     0.0000    60.8625     0.0000    61.4250   100.4605    55.5000     0.0000     0.0000   941.4286
     668.5     0.7186     2.7113     0.0027  2463.7930   147.7647     0.0000    60.6396     0.0000    61.2000   100.4848    69.3000     0.0000     0.0000   944.1250
     669.0     0.7150     2.7560     0.0365  2397.1152   147.7647     0.0000    63.3149     0.0000    63.9000   100.5091    59.4000     0.0000     0.0000   959.6251
     669.5     0.7162     2.7409    -0.0380  2350.7324   147.7647     0.0000    68.9379     0.0000    69.5750   100.5334    63.6000     0.0000     0.0000   932.8750
     670.0     0.7165     2.7373    -0.0182  2178.2375   147.7647     0.0000    71.3903     0.0000    72.0500   100.5577    85.2000     0.0000     0.0000   944.1429
     670.5     0.7140     2.7695    -0.0253  2173.5271   147.7647     0.0000    68.2691     0.0000    68.9000   100.5820    66.3000     0.0000     0.0000   951.8750
     671.0     0.7083     2.8414     0.0664  2269.6121   147.7647     0.0000    59.3020     0.0000    59.8500   100.6063    55.8000     0.0000     0.0000   954.2501
     671.5     0.7236     2.6509     0.0509  2378.2302   147.7647     0.0000    59.3020     0.0000    59.8500   100.6306    57.9000     0.0000     0.0000   955.2500
