~VERSION INFORMATION
VERS.           1.2   :CWLS Log ASCII Standard - VERSION 1.2
WRAP.           NO    :One Line per depth step
PROD.  Schlumberger   :LAS Producer
PROG.  DLIS to ASCII 2.3                               :LAS Program name and version
CREA.        2019/04/17 13:32                          :LAS Creation date {YYYY/MM/DD hh:mm}
DLIS_CREA.  2019-Apr-17 13:22                          :DLIS Creation date and time {YYYY-MMM-DD hh:mm}
SOURCE.     E9OJ-00005_University-of-Utah_78-32_CBL-VDL_17APR19_Main.dlis  :DLIS File Name
FILE-ID.     ConPr_R01_L003Up_DSLT_SGT_CAL             :File Identification Number
#--------------------------------------------------
~WELL INFORMATION
#MNEM.UNIT      DATA             DESCRIPTION
#---- ------ --------------   -----------------------------
STRT .F      10.5            :START DEPTH     
STOP .F      3230.0          :STOP DEPTH     
STEP .F       0.5            :STEP     
NULL .          -999.25      :NULL VALUE
COMP .                 COMPANY:  University of Utah                 
WELL .                    WELL:  78-32                              
FLD  .                   FIELD:  None                               
LOC  .                LOCATION:                                     
CNTY .                  COUNTY:  Beaver                             
STAT .                   STATE:  Utah                               
CTRY .                 COUNTRY:  USA                                
SRVC .         SERVICE COMPANY:  Schlumberger                       
LATI .DEG             LATITUDE:  38.500182 degrees                  
LONG .DEG            LONGITUDE:  -112.88320 degrees                 
API  .              API NUMBER:                                     
DATE .                LOG DATE:  17-Apr-2019
UWI  .          UNIQUE WELL ID:                                     
#-----------------------------------------------------------------------------
~PARAMETER INFORMATION
#MNEM.UNIT    VALUE                      DESCRIPTION
#---- -----   --------------------       ------------------------
CN   .        University of Utah         :Company Name
WN   .        78-32                      :Well Name
FN   .        None                       :Field Name
FL   .                                   :Field Location
FL1  .                                   :Field Location, Line 1
COUN .        Beaver                     :County or Parish
STAT .        Utah                       :State or Province
NATI .        USA                        :Nation
DATE .        17-Apr-2019                :Tools Above Rotary Table Date
APIN .                                   :API Well Number
SECT .                                   :Section
TOWN .                                   :Township
RANG .                                   :Range
DMF  .        GL                         :Drilling Measured From (Name of Drilling Elevation Reference)
LMF  .        GL                         :Logging Measured From (Name of Logging Elevation Reference)
PDAT .        GL                         :Permanent Datum
ENGI .        Alan Moreno                :Engineer s Name
WITN .        Virgil Welch               :Witness s Name
LATI .        38.500182 degrees          :Latitude
LONG .        -112.88320 degrees         :Longitude
LUL  .                                   :Logging Unit Location
LUN  .        9102                       :Logging Unit Number
RUN  .        ONE                        :Run Number
SON  .        E9OJ-00005                 :Service Order Number
BHT  .DEGF     224.86000                 :Bottom Hole Temperature
BS   .IN         8.75000                 :Bit Size
MDEN .G/C3       2.71000                 :Matrix Density for Density Porosity
DFD  .LB/G       8.40000                 :Drilling Fluid Density
DFV  .S       -999.25000                 :Drilling Fluid Viscosity
DFL  .C3      -999.25000                 :Drilling Fluid Loss
RMFS .OHMM       0.15000                 :Resistivity of Mud Filtrate Sample
EKB  .F       5536.00000                 :Elevation of Kelly Bushing
EGL  .F       5536.00000                 :Elevation of Ground Level
BLI  .F       3228.00000                 :Bottom Log Interval
BSAL .PPM        0.00000                 :Borehole Salinity
FLEV .F          8.00000                 :Depth of Drilling Fluid Level to LMF (Log Measured From)
MCST .DEGF      68.00000                 :Mudcake Sample Temperature
MFST .DEGF      68.00000                 :Mud Filtrate Sample Temperature
MRT  .DEGF     226.82001                 :Maximum Recorded Temperature
MST  .DEGF      68.00000                 :Mud Sample Temperature
RMCS .OHMM    -999.25000                 :Resistivity of Mud Cake Sample
RMS  .OHMM       0.20000                 :Resistivity of Mud Sample
RW   .OHMM       1.00000                 :Connate Water Resistivity
TDD  .F       3272.00000                 :Driller Total Depth
TDL  .F       3272.00000                 :Logger Total Depth
TLI  .F         10.00000                 :Top Log Interval
HIDE .                                   :Header Identifier
MATR .        LIME                       :Rock Matrix for Neutron Porosity Corrections
FNUM .           1.00000                 :F-Numerator for Formation Factor Formula
FEXP .           2.00000                 :Exponent "m" for Formation Factor Formula
DFT  .        WATER                      :Drilling Fluid Type
DFPH .        -999.25000                 :Drilling Fluid pH
MCSS .        Pressed                    :Mudcake Sample Source
MFSS .                                   :Mud Filtrate Sample Source
FD   .G/C3       1.00000                 :Fluid Density
MSS  .        Active Tank                :Mud Sample Source
OS1  .                                   :Other Services Line 1
OS2  .                                   :Other Services Line 2
OS3  .                                   :Other Services Line 3
OS4  .                                   :Other Services Line 4
OS5  .                                   :Other Services Line 5
R1   .        Toolstring ran as per tool sketch. :Remarks Line 1
R2   .                                   :Remarks Line 2
R3   .                                   :Remarks Line 3
R4   .                                   :Remarks Line 4
R5   .                                   :Remarks Line 5
R6   .                                   :Remarks Line 6
R7   .                                   :Remarks Line 7
R8   .                                   :Remarks Line 8
TCS  .                                   :Time Circulation Stopped
TLAB .        11 27 00                   :Time Logger At Bottom
EPD  .C3         5536.000000             :Elevation of Permanent Datum above Mean Sea Level
APD  .F           0.000000               :Elevation of Depth Reference (LMF) above Permanent Datum
#-----------------------------------------------------------------------------
~CURVE INFORMATION
#MNEM.UNIT   API CODE                                  DESCRIPTION
#---- -----  --------                                  -----------------------
DEPT .F                                                :DEPTH (BOREHOLE) {F10.1}
BI   .                                                 :Bond Index {F11.4}
CBL  .MV                                               :CBL Amplitude {F11.4}
CCL  .                                                 :Casing Collar Locator Amplitude {F11.4}
CDF  .LBF                                              :Calibrated Downhole Force {F11.4}
CTEM .DEGF                                             :Cartridge Temperature {F11.4}
DCAL .IN                                               :Differential Caliper {F11.4}
ECGR .GAPI                                             :Environmentally Corrected Gamma Ray {F11.4}
ED   .F                                                :East Departure {F11.4}
GR   .GAPI                                             :Gamma Ray {F11.4}
GTEM .DEGF                                             :Generalized Borehole Temperature {F11.4}
HGR  .GAPI                                             :High Resolution Gamma Ray {F11.4}
ND   .F                                                :North Departure {F11.4}
STIT .F                                                :Stuck Tool Indicator, Total {F11.4}
TENS .LBF                                              :Cable Tension {F11.4}
#-----------------------------------------------------------------------------
# 
#     DEPT        BI        CBL        CCL        CDF        CTEM       DCAL       ECGR        ED         GR        GTEM       HGR         ND        STIT       TENS
#
~A  
# ...
    3195.5     0.5073     7.0690    -0.0778  2681.8496   224.8471     0.0000    36.3133     0.0000    36.6489   223.2807    36.2893     0.0000     0.0000  1847.9167
    3196.0     0.5015     7.2561     0.0078  2698.1526   224.8471     0.0000    36.0032     0.0000    36.3359   223.3050    36.2250     0.0000     0.0000  1843.1669
    3196.5     0.4953     7.4641    -0.0091  2975.8835   224.8471     0.0000    37.6574     0.0000    38.0054   223.3293    36.3536     0.0000     0.0000  1887.5000
    3197.0     0.4911     7.6047    -0.0037  2476.2424   224.8471     0.0000    37.1695     0.0000    37.5130   223.3536    41.4000     0.0000     0.0000  1845.5001
    3197.5     0.4858     7.7897    -0.0039  2396.7534   224.8471     0.0000    38.1776     0.0000    38.5304   223.3779    34.8107     0.0000     0.0000  1832.6154
    3198.0     0.4806     7.9787    -0.0039  2599.5735   224.8471     0.0000    36.1712     0.0000    36.5054   223.4022    39.4071     0.0000     0.0000  1879.3334
    3198.5     0.4778     8.0795    -0.0039  2515.5044   224.8471     0.0000    36.0161     0.0000    36.3489   223.4265    35.3250     0.0000     0.0000  1859.9232
    3199.0     0.4673     8.4724    -0.0039  2417.5164   224.8471     0.0000    33.9127     0.0000    34.2261   223.4508    34.4250     0.0000     0.0000  1844.3335
    3199.5     0.4545     8.9773    -0.0039  2370.8027   224.8471     0.0000    34.1098     0.0000    34.4250   223.4751    33.0750     0.0000     0.0000  1877.9231
    3200.0     0.4551     8.9527    -0.0039  2310.4421   224.8471     0.0000    35.1986     0.0000    35.5239   223.4994    36.0000     0.0000     0.0000  1852.1429
    3200.5     0.4649     8.5670    -0.0039  2420.9431   224.8471     0.0000    36.6041     0.0000    36.9424   223.5237    37.5750     0.0000     0.0000  1825.0000
    3201.0     0.4738     8.2261    -0.0039  2628.8823   224.8471     0.0000    36.3327     0.0000    36.6685   223.5480    37.3821     0.0000     0.0000  1867.2001
    3201.5     0.4719     8.2990    -0.0039  2487.6707   224.8471     0.0000    35.3666     0.0000    35.6935   223.5723    35.1000     0.0000     0.0000  1809.3334
    3202.0     0.4672     8.4767    -0.0039  2555.1982   224.8471     0.0000    36.8400     0.0000    37.1804   223.5966    34.6500     0.0000     0.0000  1858.5881
    3202.5     0.4718     8.3016    -0.0039  2506.9670   224.8471     0.0000    38.1195     0.0000    38.4717   223.6208    41.8179     0.0000     0.0000  1806.1666
    3203.0     0.4812     7.9569    -0.0039  2560.9500   224.8471     0.0000    38.4399     0.0000    38.7951   223.6452    38.9893     0.0000     0.0000  1870.4211
    3203.5     0.4831     7.8886    -0.0039  2379.7295   224.8471     0.0000    36.6262     0.0000    36.9647   223.6695    35.0710     0.0000     0.0000  1822.2999
    3204.0     0.4773     8.0987    -0.0039  2518.1038   224.8471     0.0000    35.9676     0.0000    36.3000   223.6938    37.6714     0.0000     0.0000  1860.4999
    3204.5     0.4793     8.0226    -0.0039  2482.6741   224.8471     0.0000    35.9676     0.0000    36.3000   223.7181    37.6714     0.0000     0.0000  1796.8572
    3205.0     0.4812     7.9546    -0.0039  2510.5122   224.8471     0.0000    35.9676     0.0000    36.3000   223.7424    37.6714     0.0000     0.0000  1853.0500
    3205.5     0.4744     8.2041    -0.0039  2605.1465   224.8471     0.0000    35.9676     0.0000    36.3000   223.7666    37.6714     0.0000     0.0000  1787.6500
    3206.0     0.4720     8.2926    -0.0039  2580.2109   224.8471     0.0000    35.9676     0.0000    36.3000   223.7910    37.6714     0.0000     0.0000  1875.2380
    3206.5     0.4993     7.3275    -0.0039  2276.5237   224.8471     0.0000    35.9676     0.0000    36.3000   223.8152    37.6714     0.0000     0.0000  1832.8501
    3207.0     0.5968     4.7095    -0.0039  2592.3020   224.8471     0.0000    35.9676     0.0000    36.3000   223.8395    37.6714     0.0000     0.0000  1855.7621
    3207.5     0.6297     4.0581    -0.0039  2521.0005   224.8471     0.0000    35.9676     0.0000    36.3000   223.8638    37.6714     0.0000     0.0000  1828.7000
    3208.0     0.5164     6.7816    -0.0039  2693.9497   224.8471     0.0000    35.9676     0.0000    36.3000   223.8881    37.6714     0.0000     0.0000  1870.0001
    3208.5     0.4724     8.2799    -0.0039  2508.0486   224.8471     0.0000    35.9676     0.0000    36.3000   223.9124    37.6714     0.0000     0.0000  1851.0000
    3209.0     0.4635     8.6198    -0.0039  2217.2329   224.8471     0.0000    35.9676     0.0000    36.3000   223.9367    37.6714     0.0000     0.0000  1851.9500
    3209.5     0.4166    10.6616    -0.0039  2594.7747   224.8471     0.0000    35.9676     0.0000    36.3000   223.9610    37.6714     0.0000     0.0000  1850.9091
    3210.0     0.3535    14.1933    -0.0039  2281.6851   224.8471     0.0000    35.9676     0.0000    36.3000   223.9853    37.6714     0.0000     0.0000  1794.5714
    3210.5     0.3045    17.7206    -0.0039  2335.6157   224.8471     0.0000    35.9676     0.0000    36.3000   224.0096    37.6714     0.0000     0.0000  1864.5908
    3211.0     0.2683    20.8848    -0.0039  2520.5601   224.8471     0.0000    35.9676     0.0000    36.3000   224.0339    37.6714     0.0000     0.0000  1820.1740
    3211.5     0.2429    23.4307    -0.0039  2495.9094   224.8471     0.0000    35.9676     0.0000    36.3000   224.0582    37.6714     0.0000     0.0000  1871.9546
    3212.0     0.2535    22.3315    -0.0039  2515.1702   224.8471     0.0000    35.9676     0.0000    36.3000   224.0825    37.6714     0.0000     0.0000  1854.2174
    3212.5     0.3014    17.9759    -0.0039  2409.0950   224.8471     0.0000    35.9676     0.0000    36.3000   224.1068    37.6714     0.0000     0.0000  1857.5219
    3213.0     0.3502    14.4042    -0.0039  2526.6470   224.8471     0.0000    35.9676     0.0000    36.3000   224.1311    37.6714     0.0000     0.0000  1852.7391
    3213.5     0.4054    11.2161    -0.0039  2603.5549   224.8471     0.0000    35.9676     0.0000    36.3000   224.1554    37.6714     0.0000     0.0000  1847.7727
    3214.0     0.4704     8.3543    -0.0039  2404.2466   224.8471     0.0000    35.9676     0.0000    36.3000   224.1797    37.6714     0.0000     0.0000  1854.2174
    3214.5     0.4888     7.6870    -0.0039  2302.2893   224.8471     0.0000    35.9676     0.0000    36.3000   224.2040    37.6714     0.0000     0.0000  1833.7827
    3215.0     0.4785     8.0526    -0.0039  2304.9500   224.8471     0.0000    35.9676     0.0000    36.3000   224.2283    37.6714     0.0000     0.0000  1849.1304
    3215.5     0.4722     8.2871    -0.0039  2874.9326   224.8471     0.0000    35.9676     0.0000    36.3000   224.2526    37.6714     0.0000     0.0000  1860.5457
    3216.0     0.4661     8.5195    -0.0039  2456.5762   224.8471     0.0000    35.9676     0.0000    36.3000   224.2769    37.6714     0.0000     0.0000  1829.7393
    3216.5     0.4648     8.5705    -0.0039  2729.7661   224.8471     0.0000    35.9676     0.0000    36.3000   224.3012    37.6714     0.0000     0.0000  1847.3915
    3217.0     0.4679     8.4489    -0.0039  2619.9602   224.8471     0.0000    35.9676     0.0000    36.3000   224.3255    37.6714     0.0000     0.0000  1850.4784
    3217.5     0.4779     8.0760    -0.0039  2439.2708   224.8471     0.0000    35.9676     0.0000    36.3000   224.3498    37.6714     0.0000     0.0000  1835.0435
    3218.0     0.4888     7.6850    -0.0039  2552.6975   224.8471     0.0000    35.9676     0.0000    36.3000   224.3741    37.6714     0.0000     0.0000  1842.0435
    3218.5     0.4890     7.6777    -0.0039  2421.1895   224.8471     0.0000    35.9676     0.0000    36.3000   224.3984    37.6714     0.0000     0.0000  1853.8696
    3219.0     0.4971     7.4008    -0.0039  2471.9937   224.8471     0.0000    35.9676     0.0000    36.3000   224.4227    37.6714     0.0000     0.0000  1851.0454
    3219.5     0.5007     7.2818    -0.0039  2217.8813   224.8471     0.0000    35.9676     0.0000    36.3000   224.4470    37.6714     0.0000     0.0000  1835.7391
