~VERSION INFORMATION
VERS.           1.2   :CWLS Log ASCII Standard - VERSION 1.2
WRAP.           NO    :One Line per depth step
PROD.  Schlumberger   :LAS Producer
PROG.  DLIS to ASCII 2.3                               :LAS Program name and version
CREA.        2019/04/17 13:32                          :LAS Creation date {YYYY/MM/DD hh:mm}
DLIS_CREA.  2019-Apr-17 13:22                          :DLIS Creation date and time {YYYY-MMM-DD hh:mm}
SOURCE.     E9OJ-00005_University-of-Utah_78-32_CBL-VDL_17APR19_Main.dlis  :DLIS File Name
FILE-ID.     ConPr_R01_L003Up_DSLT_SGT_CAL             :File Identification Number
#--------------------------------------------------
~WELL INFORMATION
#MNEM.UNIT      DATA             DESCRIPTION
#---- ------ --------------   -----------------------------
STRT .F      10.5            :START DEPTH     
STOP .F      3230.0          :STOP DEPTH     
STEP .F       0.5            :STEP     
NULL .          -999.25      :NULL VALUE
COMP .                 COMPANY:  University of Utah                 
WELL .                    WELL:  78-32                              
FLD  .                   FIELD:  None                               
LOC  .                LOCATION:                                     
CNTY .                  COUNTY:  Beaver                             
STAT .                   STATE:  Utah                               
CTRY .                 COUNTRY:  USA                                
SRVC .         SERVICE COMPANY:  Schlumberger                       
LATI .DEG             LATITUDE:  38.500182 degrees                  
LONG .DEG            LONGITUDE:  -112.88320 degrees                 
API  .              API NUMBER:                                     
DATE .                LOG DATE:  17-Apr-2019
UWI  .          UNIQUE WELL ID:                                     
#-----------------------------------------------------------------------------
~PARAMETER INFORMATION
#MNEM.UNIT    VALUE                      DESCRIPTION
#---- -----   --------------------       ------------------------
CN   .        University of Utah         :Company Name
WN   .        78-32                      :Well Name
FN   .        None                       :Field Name
FL   .                                   :Field Location
FL1  .                                   :Field Location, Line 1
COUN .        Beaver                     :County or Parish
STAT .        Utah                       :State or Province
NATI .        USA                        :Nation
DATE .        17-Apr-2019                :Tools Above Rotary Table Date
APIN .                                   :API Well Number
SECT .                                   :Section
TOWN .                                   :Township
RANG .                                   :Range
DMF  .        GL                         :Drilling Measured From (Name of Drilling Elevation Reference)
LMF  .        GL                         :Logging Measured From (Name of Logging Elevation Reference)
PDAT .        GL                         :Permanent Datum
ENGI .        Alan Moreno                :Engineer s Name
WITN .        Virgil Welch               :Witness s Name
LATI .        38.500182 degrees          :Latitude
LONG .        -112.88320 degrees         :Longitude
LUL  .                                   :Logging Unit Location
LUN  .        9102                       :Logging Unit Number
RUN  .        ONE                        :Run Number
SON  .        E9OJ-00005                 :Service Order Number
BHT  .DEGF     224.86000                 :Bottom Hole Temperature
BS   .IN         8.75000                 :Bit Size
MDEN .G/C3       2.71000                 :Matrix Density for Density Porosity
DFD  .LB/G       8.40000                 :Drilling Fluid Density
DFV  .S       -999.25000                 :Drilling Fluid Viscosity
DFL  .C3      -999.25000                 :Drilling Fluid Loss
RMFS .OHMM       0.15000                 :Resistivity of Mud Filtrate Sample
EKB  .F       5536.00000                 :Elevation of Kelly Bushing
EGL  .F       5536.00000                 :Elevation of Ground Level
BLI  .F       3228.00000                 :Bottom Log Interval
BSAL .PPM        0.00000                 :Borehole Salinity
FLEV .F          8.00000                 :Depth of Drilling Fluid Level to LMF (Log Measured From)
MCST .DEGF      68.00000                 :Mudcake Sample Temperature
MFST .DEGF      68.00000                 :Mud Filtrate Sample Temperature
MRT  .DEGF     226.82001                 :Maximum Recorded Temperature
MST  .DEGF      68.00000                 :Mud Sample Temperature
RMCS .OHMM    -999.25000                 :Resistivity of Mud Cake Sample
RMS  .OHMM       0.20000                 :Resistivity of Mud Sample
RW   .OHMM       1.00000                 :Connate Water Resistivity
TDD  .F       3272.00000                 :Driller Total Depth
TDL  .F       3272.00000                 :Logger Total Depth
TLI  .F         10.00000                 :Top Log Interval
HIDE .                                   :Header Identifier
MATR .        LIME                       :Rock Matrix for Neutron Porosity Corrections
FNUM .           1.00000                 :F-Numerator for Formation Factor Formula
FEXP .           2.00000                 :Exponent "m" for Formation Factor Formula
DFT  .        WATER                      :Drilling Fluid Type
DFPH .        -999.25000                 :Drilling Fluid pH
MCSS .        Pressed                    :Mudcake Sample Source
MFSS .                                   :Mud Filtrate Sample Source
FD   .G/C3       1.00000                 :Fluid Density
MSS  .        Active Tank                :Mud Sample Source
OS1  .                                   :Other Services Line 1
OS2  .                                   :Other Services Line 2
OS3  .                                   :Other Services Line 3
OS4  .                                   :Other Services Line 4
OS5  .                                   :Other Services Line 5
R1   .        Toolstring ran as per tool sketch. :Remarks Line 1
R2   .                                   :Remarks Line 2
R3   .                                   :Remarks Line 3
R4   .                                   :Remarks Line 4
R5   .                                   :Remarks Line 5
R6   .                                   :Remarks Line 6
R7   .                                   :Remarks Line 7
R8   .                                   :Remarks Line 8
TCS  .                                   :Time Circulation Stopped
TLAB .        11 27 00                   :Time Logger At Bottom
EPD  .C3         5536.000000             :Elevation of Permanent Datum above Mean Sea Level
APD  .F           0.000000               :Elevation of Depth Reference (LMF) above Permanent Datum
#-----------------------------------------------------------------------------
~CURVE INFORMATION
#MNEM.UNIT   API CODE                                  DESCRIPTION
#---- -----  --------                                  -----------------------
DEPT .F                                                :DEPTH (BOREHOLE) {F10.1}
BI   .                                                 :Bond Index {F11.4}
CBL  .MV                                               :CBL Amplitude {F11.4}
CCL  .                                                 :Casing Collar Locator Amplitude {F11.4}
CDF  .LBF                                              :Calibrated Downhole Force {F11.4}
CTEM .DEGF                                             :Cartridge Temperature {F11.4}
DCAL .IN                                               :Differential Caliper {F11.4}
ECGR .GAPI                                             :Environmentally Corrected Gamma Ray {F11.4}
ED   .F                                                :East Departure {F11.4}
GR   .GAPI                                             :Gamma Ray {F11.4}
GTEM .DEGF                                             :Generalized Borehole Temperature {F11.4}
HGR  .GAPI                                             :High Resolution Gamma Ray {F11.4}
ND   .F                                                :North Departure {F11.4}
STIT .F                                                :Stuck Tool Indicator, Total {F11.4}
TENS .LBF                                              :Cable Tension {F11.4}
#-----------------------------------------------------------------------------
# 
#     DEPT        BI        CBL        CCL        CDF        CTEM       DCAL       ECGR        ED         GR        GTEM       HGR         ND        STIT       TENS
#
~A  
      10.5  -999.2500  -999.2500     0.0024  2253.8025   108.2353     0.0000    28.5618     0.0000    28.8257    68.5102    24.8400     0.0000     0.0000   835.1053
      11.0  -999.2500  -999.2500    -0.0076  2253.8025   108.2353     0.0000    29.3686     0.0000    29.6400    68.5345    33.4800     0.0000     0.0000   835.1053
      11.5  -999.2500  -999.2500    -0.0227  2253.8025   108.2353     0.0000    29.7253     0.0000    30.0000    68.5588    30.6000     0.0000     0.0000   835.1053
      12.0  -999.2500  -999.2500     0.0178  2253.8025   108.2353     0.0000    26.1583     0.0000    26.4000    68.5831    25.9200     0.0000     0.0000   835.1053
      12.5  -999.2500  -999.2500    -0.0588  2253.8025   108.2353     0.0000    26.4980     0.0000    26.7429    68.6074    22.6800     0.0000     0.0000   835.1053
      13.0  -999.2500  -999.2500     0.0203  2253.8025   108.2353     0.0000    29.4705     0.0000    29.7429    68.6317    31.6800     0.0000     0.0000   835.1053
      13.5  -999.2500  -999.2500     0.0152  2253.8025   108.2353     0.0000    28.0437     0.0000    28.3029    68.6560    34.9200     0.0000     0.0000   835.1053
      14.0  -999.2500  -999.2500     0.0255  2253.8025   108.2353     0.0000    28.0607     0.0000    28.3200    68.6803    18.3600     0.0000     0.0000   835.1053
      14.5  -999.2500  -999.2500    -0.0331  2253.8025   108.2353     0.0000    24.6125     0.0000    24.8400    68.7046    31.6800     0.0000     0.0000   835.1053
      15.0  -999.2500  -999.2500    -0.0076  2253.8025   108.2353     0.0000    27.2284     0.0000    27.4800    68.7289    24.4800     0.0000     0.0000   835.1053
      15.5  -999.2500  -999.2500     0.0307  2253.8025   108.2353     0.0000    28.1796     0.0000    28.4400    68.7532    26.2800     0.0000     0.0000   835.1053
      16.0  -999.2500  -999.2500     0.0180  2253.8025   108.2353     0.0000    27.8653     0.0000    28.1229    68.7775    34.5600     0.0000     0.0000   835.1053
      16.5  -999.2500  -999.2500     0.0257  2253.8025   108.2353     0.0000    27.9842     0.0000    28.2429    68.8018    23.3100     0.0000     0.0000   835.1053
      17.0  -999.2500  -999.2500    -0.0024  2387.5198   108.2353     0.0000    24.5361     0.0000    24.7629    68.8261    26.6400     0.0000     0.0000   851.4211
      17.5  -999.2500  -999.2500     0.0024  2307.4001   108.2353     0.0000    25.1731     0.0000    25.4057    68.8504    24.1200     0.0000     0.0000   849.9474
      18.0  -999.2500  -999.2500     0.0076  2233.2871   108.2353     0.0000    25.4109     0.0000    25.6457    68.8747    25.4700     0.0000     0.0000   855.3158
      18.5  -999.2500  -999.2500    -0.0153  2267.5430   108.2353     0.0000    26.4810     0.0000    26.7257    68.8990    27.3600     0.0000     0.0000   847.8333
      19.0  -999.2500  -999.2500    -0.0282  2294.1055   108.2353     0.0000    27.7040     0.0000    27.9600    68.9233    27.3600     0.0000     0.0000   842.7368
      19.5  -999.2500  -999.2500    -0.0178  2297.8562   108.2353     0.0000    25.5468     0.0000    25.7829    68.9476    29.1600     0.0000     0.0000   848.1580
      20.0     1.0000     0.0105     0.0280  2266.2261   108.2353     0.0000    24.2389     0.0000    24.4629    68.9719    20.4300     0.0000     0.0000   853.3889
      20.5     1.0000     0.0040     0.0228  2321.1611   108.2353     0.0000    23.2876     0.0000    23.5029    68.9962    23.4000     0.0000     0.0000   847.7369
      21.0     1.0000     0.0051    -0.0255  2290.9028   108.2353     0.0000    23.0329     0.0000    23.2457    69.0205    26.2800     0.0000     0.0000   848.8000
      21.5  -999.2500  -999.2500     0.0178  2184.2268   108.2353     0.0000    24.9353     0.0000    25.1657    69.0448    20.4300     0.0000     0.0000   855.7368
      22.0  -999.2500  -999.2500     0.0254  2304.2600   109.5302     0.0000    24.4597     0.0000    24.6857    69.0691    29.1600     0.0000     0.0000   856.3000
      22.5  -999.2500  -999.2500     0.0408  2296.0706   110.2118     0.0000    26.9906     0.0000    27.2400    69.0934    24.8400     0.0000     0.0000   865.2500
      23.0  -999.2500  -999.2500    -0.0225  2202.3311   110.2118     0.0000    25.9205     0.0000    26.1600    69.1177    27.7200     0.0000     0.0000   864.7000
      23.5  -999.2500  -999.2500     0.0303  2231.4905   110.2118     0.0000    27.3982     0.0000    27.6514    69.1419    25.9200     0.0000     0.0000   858.6500
      24.0  -999.2500  -999.2500    -0.0101  2226.6038   110.2118     0.0000    29.4196     0.0000    29.6914    69.1662    29.9700     0.0000     0.0000   853.9000
      24.5  -999.2500  -999.2500     0.0023  2213.9812   110.2118     0.0000    29.7763     0.0000    30.0514    69.1905    33.8400     0.0000     0.0000   859.1500
      25.0  -999.2500  -999.2500     0.0251  2218.7495   110.2118     0.0000    29.6064     0.0000    29.8800    69.2148    27.0000     0.0000     0.0000   859.4210
      25.5     1.0000     0.0153     0.0508  2211.2268   110.2118     0.0000    27.5851     0.0000    27.8400    69.2391    28.8000     0.0000     0.0000   864.4000
      26.0     1.0000     0.0178    -0.0151  2321.9634   110.2118     0.0000    28.4768     0.0000    28.7400    69.2634    27.7200     0.0000     0.0000   856.9500
      26.5  -999.2500  -999.2500     0.0613  2215.0591   110.2118     0.0000    30.1414     0.0000    30.4200    69.2877    29.8800     0.0000     0.0000   864.6500
      27.0  -999.2500  -999.2500    -0.0125  2241.6223   110.2118     0.0000    30.0225     0.0000    30.3000    69.3120    33.8400     0.0000     0.0000   796.3009
      27.5  -999.2500  -999.2500    -0.0024  2116.4119   110.2118     0.0000    28.5363     0.0000    28.8000    69.3363    27.3600     0.0000     0.0000   869.6667
      28.0  -999.2500  -999.2500     0.0102  2314.7305   110.2118     0.0000    26.3961     0.0000    26.6400    69.3606    25.2000     0.0000     0.0000   868.8751
      28.5  -999.2500  -999.2500    -0.0357  2157.9460   110.2118     0.0000    27.0415     0.0000    27.2914    69.3849    27.3600     0.0000     0.0000   852.9376
      29.0  -999.2500  -999.2500    -0.0356  2230.6040   110.2118     0.0000    26.0903     0.0000    26.3314    69.4092    28.9800     0.0000     0.0000   860.6667
      29.5  -999.2500  -999.2500    -0.0126  2197.5925   110.2118     0.0000    24.7824     0.0000    25.0114    69.4335    22.3200     0.0000     0.0000   863.9286
      30.0  -999.2500  -999.2500    -0.0438  2338.0881   110.2118     0.0000    21.8523     0.0000    22.0543    69.4578    23.4000     0.0000     0.0000   862.0667
      30.5  -999.2500  -999.2500     0.0438  2267.5037   110.2118     0.0000    22.6337     0.0000    22.8429    69.4821    20.5200     0.0000     0.0000   867.0715
      31.0  -999.2500  -999.2500    -0.0281  2241.4817   110.2118     0.0000    24.7739     0.0000    25.0029    69.5064    25.2000     0.0000     0.0000   855.2857
      31.5  -999.2500  -999.2500     0.0228  2288.5464   110.2118     0.0000    28.7231     0.0000    28.9886    69.5307    29.8800     0.0000     0.0000   865.2143
      32.0  -999.2500  -999.2500    -0.0102  2300.6428   110.2118     0.0000    27.1944     0.0000    27.4457    69.5550    32.4000     0.0000     0.0000   877.7857
      32.5     1.0000     0.0511     0.0279  2308.0085   110.2118     0.0000    26.8377     0.0000    27.0857    69.5793    20.0700     0.0000     0.0000   883.4000
      33.0     1.0000     0.0876    -0.0204  2163.2830   110.2118     0.0000    24.1030     0.0000    24.3257    69.6036    28.8000     0.0000     0.0000   887.9286
      33.5     1.0000     0.1932     0.0512  2349.1863   110.2118     0.0000    26.0139     0.0000    26.2543    69.6279    24.1200     0.0000     0.0000   891.8571
      34.0     1.0000     0.3578     0.0306  2259.3530   110.2118     0.0000    24.5871     0.0000    24.8143    69.6522    26.1900     0.0000     0.0000   882.7143
      34.5     1.0000     0.5181    -0.0382  2194.8987   110.2118     0.0000    23.9926     0.0000    24.2143    69.6765    24.4800     0.0000     0.0000   870.2667
