~VERSION INFORMATION
VERS.           1.2   :CWLS Log ASCII Standard - VERSION 1.2
WRAP.           NO    :One Line per depth step
PROD.  Schlumberger   :LAS Producer
PROG.  DLIS to ASCII 2.3                               :LAS Program name and version
CREA.        2019/04/17 13:32                          :LAS Creation date {YYYY/MM/DD hh:mm}
DLIS_CREA.  2019-Apr-17 13:22                          :DLIS Creation date and time {YYYY-MMM-DD hh:mm}
SOURCE.     E9OJ-00005_University-of-Utah_78-32_CBL-VDL_17APR19_Main.dlis  :DLIS File Name
FILE-ID.     ConPr_R01_L003Up_DSLT_SGT_CAL             :File Identification Number
#--------------------------------------------------
~WELL INFORMATION
#MNEM.UNIT      DATA             DESCRIPTION
#---- ------ --------------   -----------------------------
STRT .F      10.5            :START DEPTH     
STOP .F      3230.0          :STOP DEPTH     
STEP .F       0.5            :STEP     
NULL .          -999.25      :NULL VALUE
COMP .                 COMPANY:  University of Utah                 
WELL .                    WELL:  78-32                              
FLD  .                   FIELD:  None                               
LOC  .                LOCATION:                                     
CNTY .                  COUNTY:  Beaver                             
STAT .                   STATE:  Utah                               
CTRY .                 COUNTRY:  USA                                
SRVC .         SERVICE COMPANY:  Schlumberger                       
LATI .DEG             LATITUDE:  38.500182 degrees                  
LONG .DEG            LONGITUDE:  -112.88320 degrees                 
API  .              API NUMBER:                                     
DATE .                LOG DATE:  17-Apr-2019
UWI  .          UNIQUE WELL ID:                                     
#-----------------------------------------------------------------------------
~PARAMETER INFORMATION
#MNEM.UNIT    VALUE                      DESCRIPTION
#---- -----   --------------------       ------------------------
CN   .        University of Utah         :Company Name
WN   .        78-32                      :Well Name
FN   .        None                       :Field Name
FL   .                                   :Field Location
FL1  .                                   :Field Location, Line 1
COUN .        Beaver                     :County or Parish
STAT .        Utah                       :State or Province
NATI .        USA                        :Nation
DATE .        17-Apr-2019                :Tools Above Rotary Table Date
APIN .                                   :API Well Number
SECT .                                   :Section
TOWN .                                   :Township
RANG .                                   :Range
DMF  .        GL                         :Drilling Measured From (Name of Drilling Elevation Reference)
LMF  .        GL                         :Logging Measured From (Name of Logging Elevation Reference)
PDAT .        GL                         :Permanent Datum
ENGI .        Alan Moreno                :Engineer s Name
WITN .        Virgil Welch               :Witness s Name
LATI .        38.500182 degrees          :Latitude
LONG .        -112.88320 degrees         :Longitude
LUL  .                                   :Logging Unit Location
LUN  .        9102                       :Logging Unit Number
RUN  .        ONE                        :Run Number
SON  .        E9OJ-00005                 :Service Order Number
BHT  .DEGF     224.86000                 :Bottom Hole Temperature
BS   .IN         8.75000                 :Bit Size
MDEN .G/C3       2.71000                 :Matrix Density for Density Porosity
DFD  .LB/G       8.40000                 :Drilling Fluid Density
DFV  .S       -999.25000                 :Drilling Fluid Viscosity
DFL  .C3      -999.25000                 :Drilling Fluid Loss
RMFS .OHMM       0.15000                 :Resistivity of Mud Filtrate Sample
EKB  .F       5536.00000                 :Elevation of Kelly Bushing
EGL  .F       5536.00000                 :Elevation of Ground Level
BLI  .F       3228.00000                 :Bottom Log Interval
BSAL .PPM        0.00000                 :Borehole Salinity
FLEV .F          8.00000                 :Depth of Drilling Fluid Level to LMF (Log Measured From)
MCST .DEGF      68.00000                 :Mudcake Sample Temperature
MFST .DEGF      68.00000                 :Mud Filtrate Sample Temperature
MRT  .DEGF     226.82001                 :Maximum Recorded Temperature
MST  .DEGF      68.00000                 :Mud Sample Temperature
RMCS .OHMM    -999.25000                 :Resistivity of Mud Cake Sample
RMS  .OHMM       0.20000                 :Resistivity of Mud Sample
RW   .OHMM       1.00000                 :Connate Water Resistivity
TDD  .F       3272.00000                 :Driller Total Depth
TDL  .F       3272.00000                 :Logger Total Depth
TLI  .F         10.00000                 :Top Log Interval
HIDE .                                   :Header Identifier
MATR .        LIME                       :Rock Matrix for Neutron Porosity Corrections
FNUM .           1.00000                 :F-Numerator for Formation Factor Formula
FEXP .           2.00000                 :Exponent "m" for Formation Factor Formula
DFT  .        WATER                      :Drilling Fluid Type
DFPH .        -999.25000                 :Drilling Fluid pH
MCSS .        Pressed                    :Mudcake Sample Source
MFSS .                                   :Mud Filtrate Sample Source
FD   .G/C3       1.00000                 :Fluid Density
MSS  .        Active Tank                :Mud Sample Source
OS1  .                                   :Other Services Line 1
OS2  .                                   :Other Services Line 2
OS3  .                                   :Other Services Line 3
OS4  .                                   :Other Services Line 4
OS5  .                                   :Other Services Line 5
R1   .        Toolstring ran as per tool sketch. :Remarks Line 1
R2   .                                   :Remarks Line 2
R3   .                                   :Remarks Line 3
R4   .                                   :Remarks Line 4
R5   .                                   :Remarks Line 5
R6   .                                   :Remarks Line 6
R7   .                                   :Remarks Line 7
R8   .                                   :Remarks Line 8
TCS  .                                   :Time Circulation Stopped
TLAB .        11 27 00                   :Time Logger At Bottom
EPD  .C3         5536.000000             :Elevation of Permanent Datum above Mean Sea Level
APD  .F           0.000000               :Elevation of Depth Reference (LMF) above Permanent Datum
#-----------------------------------------------------------------------------
~CURVE INFORMATION
#MNEM.UNIT   API CODE                                  DESCRIPTION
#---- -----  --------                                  -----------------------
DEPT .F                                                :DEPTH (BOREHOLE) {F10.1}
BI   .                                                 :Bond Index {F11.4}
CBL  .MV                                               :CBL Amplitude {F11.4}
CCL  .                                                 :Casing Collar Locator Amplitude {F11.4}
CDF  .LBF                                              :Calibrated Downhole Force {F11.4}
CTEM .DEGF                                             :Cartridge Temperature {F11.4}
DCAL .IN                                               :Differential Caliper {F11.4}
ECGR .GAPI                                             :Environmentally Corrected Gamma Ray {F11.4}
ED   .F                                                :East Departure {F11.4}
GR   .GAPI                                             :Gamma Ray {F11.4}
GTEM .DEGF                                             :Generalized Borehole Temperature {F11.4}
HGR  .GAPI                                             :High Resolution Gamma Ray {F11.4}
ND   .F                                                :North Departure {F11.4}
STIT .F                                                :Stuck Tool Indicator, Total {F11.4}
TENS .LBF                                              :Cable Tension {F11.4}
#-----------------------------------------------------------------------------
# 
#     DEPT        BI        CBL        CCL        CDF        CTEM       DCAL       ECGR        ED         GR        GTEM       HGR         ND        STIT       TENS
#
~A  
# ...
     868.0     0.2385    23.9014    -0.0042  2218.1692   151.7176     0.0000    81.8189     0.0000    82.5750   110.1792    72.6000     0.0000     0.0000  1041.3750
     868.5     0.2336    24.4449    -0.0126  2249.9375   151.7176     0.0000    81.5959     0.0000    82.3500   110.2035    87.6000     0.0000     0.0000  1031.7144
     869.0     0.2309    24.7440     0.0013  2276.0664   151.7176     0.0000    87.8382     0.0000    88.6500   110.2278    84.9000     0.0000     0.0000  1039.7500
     869.5     0.2297    24.8759    -0.0170  2312.2368   151.7176     0.0000    94.3035     0.0000    95.1750   110.2521    93.9000     0.0000     0.0000  1043.2500
     870.0     0.2280    25.0725     0.0311  2383.0945   151.7176     0.0000   102.7752     0.0000   103.7250   110.2764   106.5000     0.0000     0.0000  1060.2500
     870.5     0.2275    25.1222    -0.0114  2302.8752   151.7176     0.0000   108.2992     0.0000   109.3000   110.3007   111.9000     0.0000     0.0000  1066.1250
     871.0     0.2315    24.6734    -0.0042  2383.7786   151.7176     0.0000   110.7515     0.0000   111.7750   110.3250   109.2000     0.0000     0.0000  1037.0000
     871.5     0.2360    24.1725     0.0510  2268.6233   151.7176     0.0000   107.4074     0.0000   108.4000   110.3493   114.9000     0.0000     0.0000  1045.0000
     872.0     0.2386    23.8986     0.0070  2306.2578   151.7176     0.0000   104.1129     0.0000   105.0750   110.3736   101.4000     0.0000     0.0000  1049.0000
     872.5     0.2418    23.5473    -0.0255  2198.5676   151.7176     0.0000    97.6476     0.0000    98.5500   110.3979   100.5000     0.0000     0.0000  1031.5000
     873.0     0.2456    23.1527    -0.0013  2159.6848   151.7176     0.0000    95.4182     0.0000    96.3000   110.4222    92.7000     0.0000     0.0000  1040.1250
     873.5     0.2451    23.2025     0.0242  2138.3867   151.7176     0.0000    86.2777     0.0000    87.0750   110.4465    92.1000     0.0000     0.0000  1043.7142
     874.0     0.2384    23.9125    -0.0527  2202.1338   151.7176     0.0000    83.7510     0.0000    84.5250   110.4708    71.1000     0.0000     0.0000  1035.1250
     874.5     0.2297    24.8776    -0.0283  2330.1692   151.7176     0.0000    79.2922     0.0000    80.0250   110.4951    88.2000     0.0000     0.0000  1036.6250
     875.0     0.2205    25.9389    -0.0481  2182.2207   151.7176     0.0000    85.3116     0.0000    86.1000   110.5194    80.1000     0.0000     0.0000  1036.7500
     875.5     0.2220    25.7593    -0.0182  2144.3762   151.7176     0.0000    88.0612     0.0000    88.8750   110.5437    90.6000     0.0000     0.0000  1020.7143
     876.0     0.2510    22.5889     0.0028  2116.8733   151.7176     0.0000   100.3229     0.0000   101.2500   110.5680   100.8000     0.0000     0.0000  1029.6250
     876.5     0.3027    17.8709     0.0551  2290.0200   151.7176     0.0000   101.8835     0.0000   102.8250   110.5922   117.6000     0.0000     0.0000  1032.1251
     877.0     0.3424    14.9278    -0.0099  2373.4690   151.7176     0.0000   100.3229     0.0000   101.2500   110.6165    95.4000     0.0000     0.0000  1025.0000
     877.5     0.3500    14.4178     0.0269  2214.9319   152.0770     0.0000    87.6153     0.0000    88.4250   110.6408    91.8000     0.0000     0.0000  1046.2501
     878.0     0.3504    14.3916     0.8283  2387.7642   151.8412     0.0000    77.8060     0.0000    78.5250   110.6651    77.4000     0.0000     0.0000  1041.7142
     878.5     0.3459    14.6908    -0.0509  2185.5029   152.6759     0.0000    72.9013     0.0000    73.5750   110.6894    64.8000     0.0000     0.0000  1034.1250
     879.0     0.3353    15.4104    -0.0183  2302.1965   153.2748     0.0000    77.1371     0.0000    77.8500   110.7137    75.0000     0.0000     0.0000  1057.2500
     879.5     0.3180    16.6710    -0.0013  2350.1438   153.6941     0.0000    83.8253     0.0000    84.6000   110.7380    94.2000     0.0000     0.0000  1039.8751
     880.0     0.2788    19.9148    -0.0127  2374.5786   153.3946     0.0000    86.1538     0.0000    86.9500   110.7623    86.1000     0.0000     0.0000  1041.7500
     880.5     0.2298    24.8714     0.0198  2304.3066   153.5088     0.0000    88.6062     0.0000    89.4250   110.7866    84.0000     0.0000     0.0000  1062.2856
     881.0     0.1972    28.8323     0.0198  2300.1174   153.6941     0.0000    91.2814     0.0000    92.1250   110.8109    97.8000     0.0000     0.0000  1044.2500
     881.5     0.1925    29.4486     0.0184  2284.6765   153.6941     0.0000    89.1759     0.0000    90.0000   110.8352    92.7000     0.0000     0.0000  1031.0000
     882.0     0.2049    27.8383    -0.0213  2140.8879   153.6941     0.0000    85.8318     0.0000    86.6250   110.8595    78.9000     0.0000     0.0000  1047.2501
     882.5     0.2185    26.1696    -0.0341  2271.3325   153.6941     0.0000    85.9804     0.0000    86.7750   110.8838    89.7000     0.0000     0.0000  1037.3750
     883.0     0.2294    24.9141     0.0412  2300.1851   153.6941     0.0000    96.6815     0.0000    97.5750   110.9081    93.6000     0.0000     0.0000  1046.4286
     883.5     0.2404    23.7012     0.0298  2198.0242   153.6941     0.0000   103.8156     0.0000   104.7750   110.9324   107.4000     0.0000     0.0000  1047.8750
     884.0     0.2523    22.4543    -0.0183  2284.8765   153.6941     0.0000   104.3358     0.0000   105.3000   110.9567   113.1000     0.0000     0.0000  1048.6250
     884.5     0.2620    21.4906    -0.0113  2318.7327   153.6941     0.0000   104.3358     0.0000   105.3000   110.9810    95.7000     0.0000     0.0000  1053.1251
     885.0     0.2696    20.7655    -0.0070  2242.0051   153.6941     0.0000    98.0935     0.0000    99.0000   111.0053   109.2000     0.0000     0.0000  1050.4286
     885.5     0.2779    19.9959    -0.0141  2290.9531   153.6941     0.0000    94.6008     0.0000    95.4750   111.0296    90.9000     0.0000     0.0000  1039.1250
     886.0     0.2879    19.1053     0.0425  2256.5525   153.6941     0.0000    89.6961     0.0000    90.5250   111.0539    84.6000     0.0000     0.0000  1049.6250
     886.5     0.2962    18.4039     0.0227  2394.5293   153.6941     0.0000    93.2631     0.0000    94.1250   111.0782    95.1000     0.0000     0.0000  1034.2500
     887.0     0.3008    18.0271    -0.0425  2244.6050   153.6941     0.0000    96.9788     0.0000    97.8750   111.1025   102.0000     0.0000     0.0000  1023.1251
     887.5     0.3038    17.7827     0.0227  2371.4436   153.6941     0.0000    96.0870     0.0000    96.9750   111.1268    91.8000     0.0000     0.0000  1040.6250
     888.0     0.3054    17.6475     0.0057  2264.4165   153.6941     0.0000    92.0741     0.0000    92.9250   111.1511    93.6000     0.0000     0.0000  1034.8572
     888.5     0.3055    17.6438     0.0397  2366.2637   153.6941     0.0000    85.1878     0.0000    85.9750   111.1754    90.9000     0.0000     0.0000  1022.0000
     889.0     0.3045    17.7217    -0.0198  2199.4895   153.6941     0.0000    84.7419     0.0000    85.5250   111.1997    75.0000     0.0000     0.0000  1035.3749
     889.5     0.3032    17.8317     0.0028  2172.3098   153.6941     0.0000    85.1878     0.0000    85.9750   111.2240    96.9000     0.0000     0.0000  1038.0000
     890.0     0.2996    18.1246    -0.0357  2174.3672   153.6941     0.0000    91.4053     0.0000    92.2500   111.2483    89.4000     0.0000     0.0000  1047.0000
     890.5     0.2934    18.6375    -0.0127  2355.3987   153.6941     0.0000    96.0870     0.0000    96.9750   111.2726    95.7000     0.0000     0.0000  1042.8750
     891.0     0.2899    18.9348     0.0256  2257.2637   153.6941     0.0000    94.1053     0.0000    94.9750   111.2969   104.4000     0.0000     0.0000  1043.1428
     891.5     0.2900    18.9278     0.0228  2245.8711   153.6941     0.0000    92.7677     0.0000    93.6250   111.3212    85.8000     0.0000     0.0000  1044.5000
     892.0     0.2899    18.9361     0.0199  2138.1926   153.6941     0.0000    86.9713     0.0000    87.7750   111.3455    92.7000     0.0000     0.0000  1051.3750
