~VERSION INFORMATION
VERS.           1.2   :CWLS Log ASCII Standard - VERSION 1.2
WRAP.           NO    :One Line per depth step
PROD.  Schlumberger   :LAS Producer
PROG.  DLIS to ASCII 2.3                               :LAS Program name and version
CREA.        2019/04/17 13:32                          :LAS Creation date {YYYY/MM/DD hh:mm}
DLIS_CREA.  2019-Apr-17 13:22                          :DLIS Creation date and time {YYYY-MMM-DD hh:mm}
SOURCE.     E9OJ-00005_University-of-Utah_78-32_CBL-VDL_17APR19_Main.dlis  :DLIS File Name
FILE-ID.     ConPr_R01_L003Up_DSLT_SGT_CAL             :File Identification Number
#--------------------------------------------------
~WELL INFORMATION
#MNEM.UNIT      DATA             DESCRIPTION
#---- ------ --------------   -----------------------------
STRT .F      10.5            :START DEPTH     
STOP .F      3230.0          :STOP DEPTH     
STEP .F       0.5            :STEP     
NULL .          -999.25      :NULL VALUE
COMP .                 COMPANY:  University of Utah                 
WELL .                    WELL:  78-32                              
FLD  .                   FIELD:  None                               
LOC  .                LOCATION:                                     
CNTY .                  COUNTY:  Beaver                             
STAT .                   STATE:  Utah                               
CTRY .                 COUNTRY:  USA                                
SRVC .         SERVICE COMPANY:  Schlumberger                       
LATI .DEG             LATITUDE:  38.500182 degrees                  
LONG .DEG            LONGITUDE:  -112.88320 degrees                 
API  .              API NUMBER:                                     
DATE .                LOG DATE:  17-Apr-2019
UWI  .          UNIQUE WELL ID:                                     
#-----------------------------------------------------------------------------
~PARAMETER INFORMATION
#MNEM.UNIT    VALUE                      DESCRIPTION
#---- -----   --------------------       ------------------------
CN   .        University of Utah         :Company Name
WN   .        78-32                      :Well Name
FN   .        None                       :Field Name
FL   .                                   :Field Location
FL1  .                                   :Field Location, Line 1
COUN .        Beaver                     :County or Parish
STAT .        Utah                       :State or Province
NATI .        USA                        :Nation
DATE .        17-Apr-2019                :Tools Above Rotary Table Date
APIN .                                   :API Well Number
SECT .                                   :Section
TOWN .                                   :Township
RANG .                                   :Range
DMF  .        GL                         :Drilling Measured From (Name of Drilling Elevation Reference)
LMF  .        GL                         :Logging Measured From (Name of Logging Elevation Reference)
PDAT .        GL                         :Permanent Datum
ENGI .        Alan Moreno                :Engineer s Name
WITN .        Virgil Welch               :Witness s Name
LATI .        38.500182 degrees          :Latitude
LONG .        -112.88320 degrees         :Longitude
LUL  .                                   :Logging Unit Location
LUN  .        9102                       :Logging Unit Number
RUN  .        ONE                        :Run Number
SON  .        E9OJ-00005                 :Service Order Number
BHT  .DEGF     224.86000                 :Bottom Hole Temperature
BS   .IN         8.75000                 :Bit Size
MDEN .G/C3       2.71000                 :Matrix Density for Density Porosity
DFD  .LB/G       8.40000                 :Drilling Fluid Density
DFV  .S       -999.25000                 :Drilling Fluid Viscosity
DFL  .C3      -999.25000                 :Drilling Fluid Loss
RMFS .OHMM       0.15000                 :Resistivity of Mud Filtrate Sample
EKB  .F       5536.00000                 :Elevation of Kelly Bushing
EGL  .F       5536.00000                 :Elevation of Ground Level
BLI  .F       3228.00000                 :Bottom Log Interval
BSAL .PPM        0.00000                 :Borehole Salinity
FLEV .F          8.00000                 :Depth of Drilling Fluid Level to LMF (Log Measured From)
MCST .DEGF      68.00000                 :Mudcake Sample Temperature
MFST .DEGF      68.00000                 :Mud Filtrate Sample Temperature
MRT  .DEGF     226.82001                 :Maximum Recorded Temperature
MST  .DEGF      68.00000                 :Mud Sample Temperature
RMCS .OHMM    -999.25000                 :Resistivity of Mud Cake Sample
RMS  .OHMM       0.20000                 :Resistivity of Mud Sample
RW   .OHMM       1.00000                 :Connate Water Resistivity
TDD  .F       3272.00000                 :Driller Total Depth
TDL  .F       3272.00000                 :Logger Total Depth
TLI  .F         10.00000                 :Top Log Interval
HIDE .                                   :Header Identifier
MATR .        LIME                       :Rock Matrix for Neutron Porosity Corrections
FNUM .           1.00000                 :F-Numerator for Formation Factor Formula
FEXP .           2.00000                 :Exponent "m" for Formation Factor Formula
DFT  .        WATER                      :Drilling Fluid Type
DFPH .        -999.25000                 :Drilling Fluid pH
MCSS .        Pressed                    :Mudcake Sample Source
MFSS .                                   :Mud Filtrate Sample Source
FD   .G/C3       1.00000                 :Fluid Density
MSS  .        Active Tank                :Mud Sample Source
OS1  .                                   :Other Services Line 1
OS2  .                                   :Other Services Line 2
OS3  .                                   :Other Services Line 3
OS4  .                                   :Other Services Line 4
OS5  .                                   :Other Services Line 5
R1   .        Toolstring ran as per tool sketch. :Remarks Line 1
R2   .                                   :Remarks Line 2
R3   .                                   :Remarks Line 3
R4   .                                   :Remarks Line 4
R5   .                                   :Remarks Line 5
R6   .                                   :Remarks Line 6
R7   .                                   :Remarks Line 7
R8   .                                   :Remarks Line 8
TCS  .                                   :Time Circulation Stopped
TLAB .        11 27 00                   :Time Logger At Bottom
EPD  .C3         5536.000000             :Elevation of Permanent Datum above Mean Sea Level
APD  .F           0.000000               :Elevation of Depth Reference (LMF) above Permanent Datum
#-----------------------------------------------------------------------------
~CURVE INFORMATION
#MNEM.UNIT   API CODE                                  DESCRIPTION
#---- -----  --------                                  -----------------------
DEPT .F                                                :DEPTH (BOREHOLE) {F10.1}
BI   .                                                 :Bond Index {F11.4}
CBL  .MV                                               :CBL Amplitude {F11.4}
CCL  .                                                 :Casing Collar Locator Amplitude {F11.4}
CDF  .LBF                                              :Calibrated Downhole Force {F11.4}
CTEM .DEGF                                             :Cartridge Temperature {F11.4}
DCAL .IN                                               :Differential Caliper {F11.4}
ECGR .GAPI                                             :Environmentally Corrected Gamma Ray {F11.4}
ED   .F                                                :East Departure {F11.4}
GR   .GAPI                                             :Gamma Ray {F11.4}
GTEM .DEGF                                             :Generalized Borehole Temperature {F11.4}
HGR  .GAPI                                             :High Resolution Gamma Ray {F11.4}
ND   .F                                                :North Departure {F11.4}
STIT .F                                                :Stuck Tool Indicator, Total {F11.4}
TENS .LBF                                              :Cable Tension {F11.4}
#-----------------------------------------------------------------------------
# 
#     DEPT        BI        CBL        CCL        CDF        CTEM       DCAL       ECGR        ED         GR        GTEM       HGR         ND        STIT       TENS
#
~A  
# ...
    2142.0     0.4122    10.8765    -0.0059  2244.7107   203.1059     0.0000    98.4403     0.0000    99.3500   172.0874   110.4000     0.0000     0.0000  1494.2500
    2142.5     0.4488     9.2130     0.0087  2291.8655   203.1059     0.0000    96.9540     0.0000    97.8500   172.1117    87.0000     0.0000     0.0000  1502.6251
    2143.0     0.4771     8.1034     0.0250  2164.7021   203.1059     0.0000    91.4796     0.0000    92.3250   172.1360    95.4000     0.0000     0.0000  1514.8889
    2143.5     0.5184     6.7213    -0.0044  2266.1245   203.4547     0.0000    93.2136     0.0000    94.0750   172.1603    95.1000     0.0000     0.0000  1493.2500
    2144.0     0.5568     5.6463     0.0146  2123.4224   204.0941     0.0000    92.4704     0.0000    93.3250   172.1846    93.0000     0.0000     0.0000  1483.2500
    2144.5     0.5683     5.3602    -0.0014  2231.2256   203.7453     0.0000    99.1339     0.0000   100.0500   172.2089    91.8000     0.0000     0.0000  1496.7501
    2145.0     0.5817     5.0440    -0.0087  2211.7224   205.0824     0.0000   100.0752     0.0000   101.0000   172.2332   114.0000     0.0000     0.0000  1503.8750
    2145.5     0.5995     4.6529    -0.0014  2346.7810   205.0824     0.0000   109.7359     0.0000   110.7500   172.2575    97.2000     0.0000     0.0000  1480.3750
    2146.0     0.5998     4.6469    -0.0117  2334.1606   205.0824     0.0000   104.8560     0.0000   105.8250   172.2818   122.4000     0.0000     0.0000  1488.2500
    2146.5     0.6064     4.5095     0.0059  2201.7998   205.0824     0.0000   110.4542     0.0000   111.4750   172.3061    98.1000     0.0000     0.0000  1511.5000
    2147.0     0.6190     4.2591     0.0131  2151.5486   205.0824     0.0000   105.2523     0.0000   106.2250   172.3304   112.8000     0.0000     0.0000  1508.5557
    2147.5     0.6110     4.4158    -0.0161  2220.7771   205.0824     0.0000   110.7267     0.0000   111.7500   172.3547   108.3000     0.0000     0.0000  1490.7500
    2148.0     0.6016     4.6097    -0.0102  2278.7761   205.0824     0.0000   112.4855     0.0000   113.5250   172.3790   115.8000     0.0000     0.0000  1496.8750
    2148.5     0.6126     4.3840     0.0102  2270.8296   205.0824     0.0000   111.5442     0.0000   112.5750   172.4033   120.3000     0.0000     0.0000  1523.6250
    2149.0     0.6379     3.9094    -0.0176  2280.3340   205.0824     0.0000   111.1974     0.0000   112.2250   172.4276   103.8000     0.0000     0.0000  1514.0000
    2149.5     0.6504     3.6941    -0.0044  2249.3845   205.0824     0.0000   110.2313     0.0000   111.2500   172.4518   116.7000     0.0000     0.0000  1515.6250
    2150.0     0.6530     3.6510    -0.0072  2277.5002   205.0824     0.0000   117.6379     0.0000   118.7250   172.4762   115.2000     0.0000     0.0000  1501.3334
    2150.5     0.6677     3.4154    -0.0103  2207.8640   205.0824     0.0000   125.9114     0.0000   127.0750   172.5005   125.7000     0.0000     0.0000  1508.5001
    2151.0     0.6867     3.1341    -0.0014  2313.7090   205.0824     0.0000   128.6610     0.0000   129.8500   172.5247   139.8000     0.0000     0.0000  1502.3750
    2151.5     0.6979     2.9790     0.0073  2267.8181   205.0824     0.0000   123.2361     0.0000   124.3750   172.5490   123.3000     0.0000     0.0000  1501.2500
    2152.0     0.7020     2.9232     0.0044  2331.5259   205.0824     0.0000   113.6249     0.0000   114.6750   172.5733   109.8000     0.0000     0.0000  1500.7501
    2152.5     0.6879     3.1164    -0.0014  2209.7881   205.0824     0.0000   111.3956     0.0000   112.4250   172.5976   109.2000     0.0000     0.0000  1497.5000
    2153.0     0.6633     3.4852     0.0044  2334.1624   205.0824     0.0000   111.7919     0.0000   112.8250   172.6219   117.9000     0.0000     0.0000  1489.4445
    2153.5     0.6590     3.5523    -0.0059  2363.9351   205.0824     0.0000   107.7790     0.0000   108.7750   172.6462   111.0000     0.0000     0.0000  1504.3750
    2154.0     0.6671     3.4246     0.0162  2200.6707   205.0824     0.0000   103.4936     0.0000   104.4500   172.6705    97.8000     0.0000     0.0000  1494.6250
    2154.5     0.6672     3.4228     0.0000  2301.0889   205.0824     0.0000    98.0439     0.0000    98.9500   172.6948   103.8000     0.0000     0.0000  1487.8750
    2155.0     0.6730     3.3343     0.0073  2161.4609   205.0824     0.0000   104.3358     0.0000   105.3000   172.7191    95.1000     0.0000     0.0000  1490.5000
    2155.5     0.6846     3.1638     0.0029  2331.9724   205.0824     0.0000   103.2706     0.0000   104.2250   172.7434   117.6000     0.0000     0.0000  1493.8751
    2156.0     0.6753     3.2999    -0.0072  2341.5530   205.0824     0.0000   112.0891     0.0000   113.1250   172.7677   105.9000     0.0000     0.0000  1494.5000
    2156.5     0.6671     3.4246     0.0044  2319.1042   205.0824     0.0000   107.8037     0.0000   108.8000   172.7920   121.2000     0.0000     0.0000  1480.0000
    2157.0     0.6870     3.1292     0.0117  2340.8003   205.0824     0.0000   115.2103     0.0000   116.2750   172.8163   102.6000     0.0000     0.0000  1495.8889
    2157.5     0.6947     3.0227     0.0102  2200.9006   205.0824     0.0000   113.5259     0.0000   114.5750   172.8406   123.0000     0.0000     0.0000  1488.2500
    2158.0     0.6776     3.2655     0.0044  2261.8479   205.0824     0.0000   109.0918     0.0000   110.1000   172.8649   115.2000     0.0000     0.0000  1482.7500
    2158.5     0.6712     3.3617     0.0117  2145.4006   205.0824     0.0000   106.8129     0.0000   107.8000   172.8892    91.2000     0.0000     0.0000  1481.1250
    2159.0     0.6889     3.1020    -0.0117  2331.4109   205.0824     0.0000   105.3266     0.0000   106.3000   172.9135   117.3000     0.0000     0.0000  1484.5000
    2159.5     0.7164     2.7395     0.0087  2273.1687   205.0824     0.0000   108.6460     0.0000   109.6500   172.9378   111.6000     0.0000     0.0000  1478.7500
    2160.0     0.7035     2.9039    -0.0131  2174.3950   205.0824     0.0000   103.7908     0.0000   104.7500   172.9621   101.1000     0.0000     0.0000  1481.5000
    2160.5     0.6527     3.6554     0.0014  2235.7935   205.0824     0.0000   101.7101     0.0000   102.6500   172.9864   101.4000     0.0000     0.0000  1496.0000
    2161.0     0.5962     4.7235    -0.0177  2259.9644   205.0824     0.0000   106.5156     0.0000   107.5000   173.0107   105.6000     0.0000     0.0000  1474.2501
    2161.5     0.5029     7.2103    -0.0029  2382.2266   205.0824     0.0000   102.4532     0.0000   103.4000   173.0350   115.8000     0.0000     0.0000  1464.5000
    2162.0     0.4389     9.6382    -0.0103  2304.7275   205.0824     0.0000    96.8054     0.0000    97.7000   173.0593    90.6000     0.0000     0.0000  1479.0000
    2162.5     0.4334     9.8804    -0.0163  2325.3147   205.0824     0.0000    88.8786     0.0000    89.7000   173.0836    88.2000     0.0000     0.0000  1501.3750
    2163.0     0.4277    10.1378    -0.1848  2290.7166   205.0824     0.0000    84.4198     0.0000    85.2000   173.1079    89.1000     0.0000     0.0000  1481.5000
    2163.5     0.4254    10.2443    -0.5370  2155.0513   205.0824     0.0000    88.9529     0.0000    89.7750   173.1322    75.6000     0.0000     0.0000  1476.3334
    2164.0     0.4388     9.6430    -0.0250  2200.5020   205.0824     0.0000    97.4742     0.0000    98.3750   173.1565   102.3000     0.0000     0.0000  1501.5000
    2164.5     0.3797    12.6037     0.0118  2388.5313   205.0824     0.0000   108.3982     0.0000   109.4000   173.1808   117.6000     0.0000     0.0000  1497.8750
    2165.0     0.3318    15.6614    -0.0103  2346.5510   205.0824     0.0000   104.8560     0.0000   105.8250   173.2050   109.8000     0.0000     0.0000  1484.6251
    2165.5     0.3722    13.0422     0.0133  2395.5159   205.0824     0.0000   103.9147     0.0000   104.8750   173.2293    91.2000     0.0000     0.0000  1486.3750
    2166.0     0.3976    11.6220     0.0029  2161.8279   205.0824     0.0000   100.1247     0.0000   101.0500   173.2536   113.1000     0.0000     0.0000  1507.6250
