~VERSION INFORMATION
VERS.           1.2   :CWLS Log ASCII Standard - VERSION 1.2
WRAP.           NO    :One Line per depth step
PROD.  Schlumberger   :LAS Producer
PROG.  DLIS to ASCII 2.3                               :LAS Program name and version
CREA.        2019/04/17 13:32                          :LAS Creation date {YYYY/MM/DD hh:mm}
DLIS_CREA.  2019-Apr-17 13:22                          :DLIS Creation date and time {YYYY-MMM-DD hh:mm}
SOURCE.     E9OJ-00005_University-of-Utah_78-32_CBL-VDL_17APR19_Main.dlis  :DLIS File Name
FILE-ID.     ConPr_R01_L003Up_DSLT_SGT_CAL             :File Identification Number
#--------------------------------------------------
~WELL INFORMATION
#MNEM.UNIT      DATA             DESCRIPTION
#---- ------ --------------   -----------------------------
STRT .F      10.5            :START DEPTH     
STOP .F      3230.0          :STOP DEPTH     
STEP .F       0.5            :STEP     
NULL .          -999.25      :NULL VALUE
COMP .                 COMPANY:  University of Utah                 
WELL .                    WELL:  78-32                              
FLD  .                   FIELD:  None                               
LOC  .                LOCATION:                                     
CNTY .                  COUNTY:  Beaver                             
STAT .                   STATE:  Utah                               
CTRY .                 COUNTRY:  USA                                
SRVC .         SERVICE COMPANY:  Schlumberger                       
LATI .DEG             LATITUDE:  38.500182 degrees                  
LONG .DEG            LONGITUDE:  -112.88320 degrees                 
API  .              API NUMBER:                                     
DATE .                LOG DATE:  17-Apr-2019
UWI  .          UNIQUE WELL ID:                                     
#-----------------------------------------------------------------------------
~PARAMETER INFORMATION
#MNEM.UNIT    VALUE                      DESCRIPTION
#---- -----   --------------------       ------------------------
CN   .        University of Utah         :Company Name
WN   .        78-32                      :Well Name
FN   .        None                       :Field Name
FL   .                                   :Field Location
FL1  .                                   :Field Location, Line 1
COUN .        Beaver                     :County or Parish
STAT .        Utah                       :State or Province
NATI .        USA                        :Nation
DATE .        17-Apr-2019                :Tools Above Rotary Table Date
APIN .                                   :API Well Number
SECT .                                   :Section
TOWN .                                   :Township
RANG .                                   :Range
DMF  .        GL                         :Drilling Measured From (Name of Drilling Elevation Reference)
LMF  .        GL                         :Logging Measured From (Name of Logging Elevation Reference)
PDAT .        GL                         :Permanent Datum
ENGI .        Alan Moreno                :Engineer s Name
WITN .        Virgil Welch               :Witness s Name
LATI .        38.500182 degrees          :Latitude
LONG .        -112.88320 degrees         :Longitude
LUL  .                                   :Logging Unit Location
LUN  .        9102                       :Logging Unit Number
RUN  .        ONE                        :Run Number
SON  .        E9OJ-00005                 :Service Order Number
BHT  .DEGF     224.86000                 :Bottom Hole Temperature
BS   .IN         8.75000                 :Bit Size
MDEN .G/C3       2.71000                 :Matrix Density for Density Porosity
DFD  .LB/G       8.40000                 :Drilling Fluid Density
DFV  .S       -999.25000                 :Drilling Fluid Viscosity
DFL  .C3      -999.25000                 :Drilling Fluid Loss
RMFS .OHMM       0.15000                 :Resistivity of Mud Filtrate Sample
EKB  .F       5536.00000                 :Elevation of Kelly Bushing
EGL  .F       5536.00000                 :Elevation of Ground Level
BLI  .F       3228.00000                 :Bottom Log Interval
BSAL .PPM        0.00000                 :Borehole Salinity
FLEV .F          8.00000                 :Depth of Drilling Fluid Level to LMF (Log Measured From)
MCST .DEGF      68.00000                 :Mudcake Sample Temperature
MFST .DEGF      68.00000                 :Mud Filtrate Sample Temperature
MRT  .DEGF     226.82001                 :Maximum Recorded Temperature
MST  .DEGF      68.00000                 :Mud Sample Temperature
RMCS .OHMM    -999.25000                 :Resistivity of Mud Cake Sample
RMS  .OHMM       0.20000                 :Resistivity of Mud Sample
RW   .OHMM       1.00000                 :Connate Water Resistivity
TDD  .F       3272.00000                 :Driller Total Depth
TDL  .F       3272.00000                 :Logger Total Depth
TLI  .F         10.00000                 :Top Log Interval
HIDE .                                   :Header Identifier
MATR .        LIME                       :Rock Matrix for Neutron Porosity Corrections
FNUM .           1.00000                 :F-Numerator for Formation Factor Formula
FEXP .           2.00000                 :Exponent "m" for Formation Factor Formula
DFT  .        WATER                      :Drilling Fluid Type
DFPH .        -999.25000                 :Drilling Fluid pH
MCSS .        Pressed                    :Mudcake Sample Source
MFSS .                                   :Mud Filtrate Sample Source
FD   .G/C3       1.00000                 :Fluid Density
MSS  .        Active Tank                :Mud Sample Source
OS1  .                                   :Other Services Line 1
OS2  .                                   :Other Services Line 2
OS3  .                                   :Other Services Line 3
OS4  .                                   :Other Services Line 4
OS5  .                                   :Other Services Line 5
R1   .        Toolstring ran as per tool sketch. :Remarks Line 1
R2   .                                   :Remarks Line 2
R3   .                                   :Remarks Line 3
R4   .                                   :Remarks Line 4
R5   .                                   :Remarks Line 5
R6   .                                   :Remarks Line 6
R7   .                                   :Remarks Line 7
R8   .                                   :Remarks Line 8
TCS  .                                   :Time Circulation Stopped
TLAB .        11 27 00                   :Time Logger At Bottom
EPD  .C3         5536.000000             :Elevation of Permanent Datum above Mean Sea Level
APD  .F           0.000000               :Elevation of Depth Reference (LMF) above Permanent Datum
#-----------------------------------------------------------------------------
~CURVE INFORMATION
#MNEM.UNIT   API CODE                                  DESCRIPTION
#---- -----  --------                                  -----------------------
DEPT .F                                                :DEPTH (BOREHOLE) {F10.1}
BI   .                                                 :Bond Index {F11.4}
CBL  .MV                                               :CBL Amplitude {F11.4}
CCL  .                                                 :Casing Collar Locator Amplitude {F11.4}
CDF  .LBF                                              :Calibrated Downhole Force {F11.4}
CTEM .DEGF                                             :Cartridge Temperature {F11.4}
DCAL .IN                                               :Differential Caliper {F11.4}
ECGR .GAPI                                             :Environmentally Corrected Gamma Ray {F11.4}
ED   .F                                                :East Departure {F11.4}
GR   .GAPI                                             :Gamma Ray {F11.4}
GTEM .DEGF                                             :Generalized Borehole Temperature {F11.4}
HGR  .GAPI                                             :High Resolution Gamma Ray {F11.4}
ND   .F                                                :North Departure {F11.4}
STIT .F                                                :Stuck Tool Indicator, Total {F11.4}
TENS .LBF                                              :Cable Tension {F11.4}
#-----------------------------------------------------------------------------
# 
#     DEPT        BI        CBL        CCL        CDF        CTEM       DCAL       ECGR        ED         GR        GTEM       HGR         ND        STIT       TENS
#
~A  
# ...
    1505.0     0.1991    28.5812    -0.0072  2182.3101   179.3882     0.0000    88.9777     0.0000    89.8000   141.1333    85.8000     0.0000     0.0000  1278.2500
    1505.5     0.2048    27.8481    -0.0160  2305.3638   179.3882     0.0000    89.4236     0.0000    90.2500   141.1576    96.9000     0.0000     0.0000  1279.5000
    1506.0     0.2119    26.9665    -0.0160  2328.7190   179.3882     0.0000    88.6309     0.0000    89.4500   141.1819    88.2000     0.0000     0.0000  1285.2501
    1506.5     0.2184    26.1799    -0.0087  2371.5303   179.3882     0.0000    88.6309     0.0000    89.4500   141.2062    83.4000     0.0000     0.0000  1275.0001
    1507.0     0.2207    25.9112    -0.0028  2173.8286   179.3882     0.0000    86.6245     0.0000    87.4250   141.2305    93.9000     0.0000     0.0000  1298.6250
    1507.5     0.2177    26.2630    -0.0174  2281.3835   179.3882     0.0000    90.2906     0.0000    91.1250   141.2548    81.0000     0.0000     0.0000  1269.0000
    1508.0     0.2125    26.8923     0.0013  2194.5015   179.3882     0.0000    90.2906     0.0000    91.1250   141.2791    95.4000     0.0000     0.0000  1267.1251
    1508.5     0.2073    27.5321    -0.0144  2176.0574   179.3882     0.0000    92.6686     0.0000    93.5250   141.3034    96.3000     0.0000     0.0000  1293.5000
    1509.0     0.1998    28.4931     0.0116  2273.9827   179.3882     0.0000    92.8915     0.0000    93.7500   141.3277    88.2000     0.0000     0.0000  1260.1250
    1509.5     0.1927    29.4152    -0.0028  2294.6125   179.3882     0.0000    92.8915     0.0000    93.7500   141.3520    96.9000     0.0000     0.0000  1278.8751
    1510.0     0.1912    29.6281     0.0117  2172.3875   179.3882     0.0000    91.5044     0.0000    92.3500   141.3763    97.8000     0.0000     0.0000  1279.6250
    1510.5     0.1908    29.6809     0.0188  2254.9258   179.3882     0.0000    89.2750     0.0000    90.1000   141.4006    84.0000     0.0000     0.0000  1273.6250
    1511.0     0.1897    29.8301     0.0116  2199.1125   179.3882     0.0000    81.0262     0.0000    81.7750   141.4249    89.1000     0.0000     0.0000  1268.6250
    1511.5     0.1915    29.5805     0.0101  2351.5896   179.3882     0.0000    84.7914     0.0000    85.5750   141.4491    74.7000     0.0000     0.0000  1277.0001
    1512.0     0.1946    29.1752    -0.0058  2198.7153   179.3882     0.0000    89.2502     0.0000    90.0750   141.4734    95.4000     0.0000     0.0000  1271.8750
    1512.5     0.1979    28.7403    -0.0058  2177.8350   179.3882     0.0000    96.3843     0.0000    97.2750   141.4977   102.0000     0.0000     0.0000  1264.7500
    1513.0     0.2017    28.2421    -0.0159  2294.9036   179.3882     0.0000    97.5733     0.0000    98.4750   141.5220    94.2000     0.0000     0.0000  1261.8750
    1513.5     0.2045    27.8834     0.0160  2283.6484   179.3882     0.0000    96.4586     0.0000    97.3500   141.5464    99.0000     0.0000     0.0000  1266.1251
    1514.0     0.2071    27.5569    -0.0306  2300.7019   179.3882     0.0000   105.0789     0.0000   106.0500   141.5706    98.7000     0.0000     0.0000  1266.6251
    1514.5     0.2102    27.1775    -0.0117  2292.7241   179.3882     0.0000   100.9174     0.0000   101.8500   141.5949   120.6000     0.0000     0.0000  1252.8889
    1515.0     0.2126    26.8877    -0.0028  2371.9285   179.3882     0.0000   101.3633     0.0000   102.3000   141.6192    84.9000     0.0000     0.0000  1270.7500
    1515.5     0.2138    26.7334    -0.0043  2277.5737   179.3882     0.0000    94.4274     0.0000    95.3000   141.6435   101.1000     0.0000     0.0000  1270.6250
    1516.0     0.2173    26.3110    -0.0072  2177.5669   179.3882     0.0000    99.1091     0.0000   100.0250   141.6678    99.6000     0.0000     0.0000  1266.5000
    1516.5     0.2246    25.4580    -0.0117  2096.5508   179.3882     0.0000    93.7585     0.0000    94.6250   141.6921   100.2000     0.0000     0.0000  1279.7500
    1517.0     0.2332    24.4815     0.0028  2232.9172   179.3882     0.0000    93.5604     0.0000    94.4250   141.7164    84.9000     0.0000     0.0000  1263.5000
    1517.5     0.2384    23.9155     0.0175  2230.8594   179.3882     0.0000    91.1080     0.0000    91.9500   141.7407    99.0000     0.0000     0.0000  1280.2500
    1518.0     0.2392    23.8310    -0.0072  2145.5471   179.3882     0.0000    92.9906     0.0000    93.8500   141.7650    92.4000     0.0000     0.0000  1262.1250
    1518.5     0.2376    23.9990     0.0117  2330.4963   179.3882     0.0000    90.6126     0.0000    91.4500   141.7893    89.4000     0.0000     0.0000  1255.2500
    1519.0     0.2241    25.5137    -0.0366  2268.3621   179.3882     0.0000    87.9373     0.0000    88.7500   141.8136    93.0000     0.0000     0.0000  1265.7500
    1519.5     0.2062    27.6709    -0.0072  2296.5945   179.3882     0.0000    90.1172     0.0000    90.9500   141.8379    84.3000     0.0000     0.0000  1264.7500
    1520.0     0.2008    28.3656     0.0101  2315.1938   179.3882     0.0000    88.5566     0.0000    89.3750   141.8622    96.0000     0.0000     0.0000  1264.1250
    1520.5     0.2029    28.0908     0.0129  2241.8047   179.3882     0.0000    91.4548     0.0000    92.3000   141.8865    85.5000     0.0000     0.0000  1258.6250
    1521.0     0.2050    27.8299    -0.0043  2239.0332   179.3882     0.0000    83.1317     0.0000    83.9000   141.9108    96.6000     0.0000     0.0000  1257.8750
    1521.5     0.2072    27.5548     0.0202  2238.9390   179.3882     0.0000    79.1188     0.0000    79.8500   141.9351    70.8000     0.0000     0.0000  1270.2500
    1522.0     0.2084    27.4039    -0.0188  2081.8079   179.3882     0.0000    74.8830     0.0000    75.5750   141.9594    78.3000     0.0000     0.0000  1269.0000
    1522.5     0.2121    26.9449    -0.0144  2307.3889   179.3882     0.0000    73.3472     0.0000    74.0250   141.9837    81.0000     0.0000     0.0000  1254.1250
    1523.0     0.2244    25.4866     0.0160  2269.9646   179.3882     0.0000    73.3472     0.0000    74.0250   142.0080    63.6000     0.0000     0.0000  1280.5000
    1523.5     0.2343    24.3690     0.0072  2268.6338   179.3882     0.0000    75.7252     0.0000    76.4250   142.0323    75.3000     0.0000     0.0000  1268.5000
    1524.0     0.2388    23.8774     0.0013  2240.4690   179.3882     0.0000    77.0628     0.0000    77.7750   142.0566    88.2000     0.0000     0.0000  1253.1250
    1524.5     0.2400    23.7429    -0.0333  2130.2961   179.3882     0.0000    79.0693     0.0000    79.8000   142.0809    68.4000     0.0000     0.0000  1278.8751
    1525.0     0.2323    24.5828     0.0101  2397.0112   179.3882     0.0000    82.4877     0.0000    83.2500   142.1052    81.0000     0.0000     0.0000  1284.1250
    1525.5     0.2266    25.2316     0.0101  2307.5291   179.3882     0.0000    87.4419     0.0000    88.2500   142.1295    97.2000     0.0000     0.0000  1271.5001
    1526.0     0.2295    24.9031    -0.0043  2373.2974   179.3882     0.0000    83.6519     0.0000    84.4250   142.1538    85.2000     0.0000     0.0000  1282.2500
    1526.5     0.2345    24.3446    -0.0072  2271.9790   179.3882     0.0000    79.8620     0.0000    80.6000   142.1781    69.3000     0.0000     0.0000  1291.3750
    1527.0     0.2371    24.0520     0.0058  2298.0491   179.3882     0.0000    79.6638     0.0000    80.4000   142.2024    85.8000     0.0000     0.0000  1302.8750
    1527.5     0.2417    23.5656    -0.0087  2265.1938   179.3882     0.0000    86.1291     0.0000    86.9250   142.2267    84.6000     0.0000     0.0000  1295.8750
    1528.0     0.2456    23.1457    -0.0203  2236.3669   179.3882     0.0000    87.4915     0.0000    88.3000   142.2509    91.2000     0.0000     0.0000  1288.0000
    1528.5     0.2431    23.4088     0.0028  2283.5813   179.3882     0.0000    94.7742     0.0000    95.6500   142.2753    91.2000     0.0000     0.0000  1310.0000
    1529.0     0.2373    24.0400    -0.0043  2197.5549   179.3882     0.0000    92.7677     0.0000    93.6250   142.2996   106.5000     0.0000     0.0000  1291.2500
