~VERSION INFORMATION
VERS.           1.2   :CWLS Log ASCII Standard - VERSION 1.2
WRAP.           NO    :One Line per depth step
PROD.  Schlumberger   :LAS Producer
PROG.  DLIS to ASCII 2.3                               :LAS Program name and version
CREA.        2019/04/17 13:32                          :LAS Creation date {YYYY/MM/DD hh:mm}
DLIS_CREA.  2019-Apr-17 13:22                          :DLIS Creation date and time {YYYY-MMM-DD hh:mm}
SOURCE.     E9OJ-00005_University-of-Utah_78-32_CBL-VDL_17APR19_Main.dlis  :DLIS File Name
FILE-ID.     ConPr_R01_L003Up_DSLT_SGT_CAL             :File Identification Number
#--------------------------------------------------
~WELL INFORMATION
#MNEM.UNIT      DATA             DESCRIPTION
#---- ------ --------------   -----------------------------
STRT .F      10.5            :START DEPTH     
STOP .F      3230.0          :STOP DEPTH     
STEP .F       0.5            :STEP     
NULL .          -999.25      :NULL VALUE
COMP .                 COMPANY:  University of Utah                 
WELL .                    WELL:  78-32                              
FLD  .                   FIELD:  None                               
LOC  .                LOCATION:                                     
CNTY .                  COUNTY:  Beaver                             
STAT .                   STATE:  Utah                               
CTRY .                 COUNTRY:  USA                                
SRVC .         SERVICE COMPANY:  Schlumberger                       
LATI .DEG             LATITUDE:  38.500182 degrees                  
LONG .DEG            LONGITUDE:  -112.88320 degrees                 
API  .              API NUMBER:                                     
DATE .                LOG DATE:  17-Apr-2019
UWI  .          UNIQUE WELL ID:                                     
#-----------------------------------------------------------------------------
~PARAMETER INFORMATION
#MNEM.UNIT    VALUE                      DESCRIPTION
#---- -----   --------------------       ------------------------
CN   .        University of Utah         :Company Name
WN   .        78-32                      :Well Name
FN   .        None                       :Field Name
FL   .                                   :Field Location
FL1  .                                   :Field Location, Line 1
COUN .        Beaver                     :County or Parish
STAT .        Utah                       :State or Province
NATI .        USA                        :Nation
DATE .        17-Apr-2019                :Tools Above Rotary Table Date
APIN .                                   :API Well Number
SECT .                                   :Section
TOWN .                                   :Township
RANG .                                   :Range
DMF  .        GL                         :Drilling Measured From (Name of Drilling Elevation Reference)
LMF  .        GL                         :Logging Measured From (Name of Logging Elevation Reference)
PDAT .        GL                         :Permanent Datum
ENGI .        Alan Moreno                :Engineer s Name
WITN .        Virgil Welch               :Witness s Name
LATI .        38.500182 degrees          :Latitude
LONG .        -112.88320 degrees         :Longitude
LUL  .                                   :Logging Unit Location
LUN  .        9102                       :Logging Unit Number
RUN  .        ONE                        :Run Number
SON  .        E9OJ-00005                 :Service Order Number
BHT  .DEGF     224.86000                 :Bottom Hole Temperature
BS   .IN         8.75000                 :Bit Size
MDEN .G/C3       2.71000                 :Matrix Density for Density Porosity
DFD  .LB/G       8.40000                 :Drilling Fluid Density
DFV  .S       -999.25000                 :Drilling Fluid Viscosity
DFL  .C3      -999.25000                 :Drilling Fluid Loss
RMFS .OHMM       0.15000                 :Resistivity of Mud Filtrate Sample
EKB  .F       5536.00000                 :Elevation of Kelly Bushing
EGL  .F       5536.00000                 :Elevation of Ground Level
BLI  .F       3228.00000                 :Bottom Log Interval
BSAL .PPM        0.00000                 :Borehole Salinity
FLEV .F          8.00000                 :Depth of Drilling Fluid Level to LMF (Log Measured From)
MCST .DEGF      68.00000                 :Mudcake Sample Temperature
MFST .DEGF      68.00000                 :Mud Filtrate Sample Temperature
MRT  .DEGF     226.82001                 :Maximum Recorded Temperature
MST  .DEGF      68.00000                 :Mud Sample Temperature
RMCS .OHMM    -999.25000                 :Resistivity of Mud Cake Sample
RMS  .OHMM       0.20000                 :Resistivity of Mud Sample
RW   .OHMM       1.00000                 :Connate Water Resistivity
TDD  .F       3272.00000                 :Driller Total Depth
TDL  .F       3272.00000                 :Logger Total Depth
TLI  .F         10.00000                 :Top Log Interval
HIDE .                                   :Header Identifier
MATR .        LIME                       :Rock Matrix for Neutron Porosity Corrections
FNUM .           1.00000                 :F-Numerator for Formation Factor Formula
FEXP .           2.00000                 :Exponent "m" for Formation Factor Formula
DFT  .        WATER                      :Drilling Fluid Type
DFPH .        -999.25000                 :Drilling Fluid pH
MCSS .        Pressed                    :Mudcake Sample Source
MFSS .                                   :Mud Filtrate Sample Source
FD   .G/C3       1.00000                 :Fluid Density
MSS  .        Active Tank                :Mud Sample Source
OS1  .                                   :Other Services Line 1
OS2  .                                   :Other Services Line 2
OS3  .                                   :Other Services Line 3
OS4  .                                   :Other Services Line 4
OS5  .                                   :Other Services Line 5
R1   .        Toolstring ran as per tool sketch. :Remarks Line 1
R2   .                                   :Remarks Line 2
R3   .                                   :Remarks Line 3
R4   .                                   :Remarks Line 4
R5   .                                   :Remarks Line 5
R6   .                                   :Remarks Line 6
R7   .                                   :Remarks Line 7
R8   .                                   :Remarks Line 8
TCS  .                                   :Time Circulation Stopped
TLAB .        11 27 00                   :Time Logger At Bottom
EPD  .C3         5536.000000             :Elevation of Permanent Datum above Mean Sea Level
APD  .F           0.000000               :Elevation of Depth Reference (LMF) above Permanent Datum
#-----------------------------------------------------------------------------
~CURVE INFORMATION
#MNEM.UNIT   API CODE                                  DESCRIPTION
#---- -----  --------                                  -----------------------
DEPT .F                                                :DEPTH (BOREHOLE) {F10.1}
BI   .                                                 :Bond Index {F11.4}
CBL  .MV                                               :CBL Amplitude {F11.4}
CCL  .                                                 :Casing Collar Locator Amplitude {F11.4}
CDF  .LBF                                              :Calibrated Downhole Force {F11.4}
CTEM .DEGF                                             :Cartridge Temperature {F11.4}
DCAL .IN                                               :Differential Caliper {F11.4}
ECGR .GAPI                                             :Environmentally Corrected Gamma Ray {F11.4}
ED   .F                                                :East Departure {F11.4}
GR   .GAPI                                             :Gamma Ray {F11.4}
GTEM .DEGF                                             :Generalized Borehole Temperature {F11.4}
HGR  .GAPI                                             :High Resolution Gamma Ray {F11.4}
ND   .F                                                :North Departure {F11.4}
STIT .F                                                :Stuck Tool Indicator, Total {F11.4}
TENS .LBF                                              :Cable Tension {F11.4}
#-----------------------------------------------------------------------------
# 
#     DEPT        BI        CBL        CCL        CDF        CTEM       DCAL       ECGR        ED         GR        GTEM       HGR         ND        STIT       TENS
#
~A  
# ...
    2779.0     0.4655     8.5426    -0.0262  2688.9810   224.8471     0.0000   105.1037     0.0000   106.0750   203.0415   105.6000     0.0000     0.0000  1743.1251
    2779.5     0.4806     7.9762    -0.0262  2656.8188   224.8471     0.0000   105.4009     0.0000   106.3750   203.0658   102.3000     0.0000     0.0000  1724.0001
    2780.0     0.5017     7.2482    -0.0308  2507.1221   224.8471     0.0000   105.3019     0.0000   106.2750   203.0901   111.6000     0.0000     0.0000  1725.7500
    2780.5     0.5140     6.8568     0.0118  2041.2183   224.8471     0.0000   107.9771     0.0000   108.9750   203.1144   104.4000     0.0000     0.0000  1760.1250
    2781.0     0.5058     7.1162     0.0103  1893.6127   224.8471     0.0000   100.6449     0.0000   101.5750   203.1387   109.5000     0.0000     0.0000  1743.7500
    2781.5     0.4787     8.0448    -0.0131  2434.5898   224.8471     0.0000   104.5092     0.0000   105.4750   203.1630    89.4000     0.0000     0.0000  1712.6250
    2782.0     0.4409     9.5492     0.0161  2852.6577   224.8471     0.0000   104.7321     0.0000   105.7000   203.1873   117.0000     0.0000     0.0000  1723.3334
    2782.5     0.4122    10.8787     0.0072  2348.2659   224.8471     0.0000   119.3471     0.0000   120.4500   203.2116   111.3000     0.0000     0.0000  1773.6250
    2783.0     0.3963    11.6893     0.0161  2288.3433   224.8471     0.0000   120.7342     0.0000   121.8500   203.2359   135.6000     0.0000     0.0000  1754.7500
    2783.5     0.3950    11.7593     0.0029  2921.0913   224.8471     0.0000   129.2060     0.0000   130.4000   203.2602   121.2000     0.0000     0.0000  1725.1250
    2784.0     0.4143    10.7725     0.0014  2517.4001   224.8471     0.0000   128.8592     0.0000   130.0500   203.2845   136.8000     0.0000     0.0000  1734.3750
    2784.5     0.4270    10.1726     0.0323  2009.6738   224.8471     0.0000   120.7095     0.0000   121.8250   203.3088   132.6000     0.0000     0.0000  1753.7500
    2785.0     0.4162    10.6797    -0.0250  2643.4875   224.8471     0.0000   108.9680     0.0000   109.9750   203.3331    97.2000     0.0000     0.0000  1768.5000
    2785.5     0.4252    10.2536     0.6569  2428.8076   224.8471     0.0000   101.0660     0.0000   102.0000   203.3574   100.8000     0.0000     0.0000  1740.5555
    2786.0     0.4659     8.5275    -0.2356  2512.6741   224.8471     0.0000   104.8560     0.0000   105.8250   203.3817   109.8000     0.0000     0.0000  1715.0000
    2786.5     0.5164     6.7831    -0.0293  2382.7805   224.8471     0.0000   105.2523     0.0000   106.2250   203.4059   107.7000     0.0000     0.0000  1756.8751
    2787.0     0.5588     5.5958    -0.0161  2013.8239   224.8471     0.0000   111.4946     0.0000   112.5250   203.4303   102.0000     0.0000     0.0000  1768.3750
    2787.5     0.5631     5.4870     0.0043  2319.6272   224.8471     0.0000   115.4580     0.0000   116.5250   203.4545   125.1000     0.0000     0.0000  1739.3750
    2788.0     0.5512     5.7915    -0.0028  1922.6172   224.8471     0.0000   125.6885     0.0000   126.8500   203.4788   120.0000     0.0000     0.0000  1711.8750
    2788.5     0.5439     5.9858     0.0014  2215.1636   224.8471     0.0000   129.5280     0.0000   130.7250   203.5031   134.1000     0.0000     0.0000  1721.2500
    2789.0     0.5446     5.9677    -0.0029  2224.1023   224.8471     0.0000   139.8328     0.0000   141.1250   203.5274   139.2000     0.0000     0.0000  1736.2500
    2789.5     0.5607     5.5469    -0.0014  1807.0275   224.8471     0.0000   143.0778     0.0000   144.4000   203.5517   149.1000     0.0000     0.0000  1701.1112
    2790.0     0.5781     5.1272    -0.0029  1936.8610   224.8471     0.0000   148.3788     0.0000   149.7500   203.5760   142.8000     0.0000     0.0000  1711.7501
    2790.5     0.5858     4.9509     0.0176  2333.7739   224.8471     0.0000   146.1989     0.0000   147.5500   203.6003   157.2000     0.0000     0.0000  1732.5000
    2791.0     0.5821     5.0346    -0.0029  2439.0332   224.8471     0.0000   145.6292     0.0000   146.9750   203.6246   144.6000     0.0000     0.0000  1705.1250
    2791.5     0.5684     5.3584    -0.0072  2224.7610   224.8471     0.0000   144.8860     0.0000   146.2250   203.6489   139.8000     0.0000     0.0000  1682.1250
    2792.0     0.5359     6.2091     0.0029  2053.6191   224.8471     0.0000   142.8300     0.0000   144.1500   203.6732   153.0000     0.0000     0.0000  1683.8750
    2792.5     0.4921     7.5701    -0.0014  2119.8467   224.8471     0.0000   140.2291     0.0000   141.5250   203.6975   141.3000     0.0000     0.0000  1711.7501
    2793.0     0.4562     8.9085    -0.0087  2014.3676   224.8471     0.0000   130.4940     0.0000   131.7000   203.7218   133.2000     0.0000     0.0000  1718.2500
    2793.5     0.4291    10.0725    -0.0014  2131.2227   224.8471     0.0000   128.3885     0.0000   129.5750   203.7461   121.8000     0.0000     0.0000  1687.1111
    2794.0     0.4110    10.9372     0.0044  2672.6907   224.8471     0.0000   123.8554     0.0000   125.0000   203.7704   132.0000     0.0000     0.0000  1695.6251
    2794.5     0.4112    10.9263    -0.0014  3084.8826   224.8471     0.0000   132.7730     0.0000   134.0000   203.7947   119.1000     0.0000     0.0000  1725.8750
    2795.0     0.4295    10.0582    -0.0087  2629.3201   224.8471     0.0000   136.9345     0.0000   138.2000   203.8190   149.1000     0.0000     0.0000  1721.7500
    2795.5     0.4524     9.0657     0.0029  2661.5869   224.8471     0.0000   140.7245     0.0000   142.0250   203.8433   144.6000     0.0000     0.0000  1725.7500
    2796.0     0.4786     8.0508    -0.0014  2931.3486   224.8471     0.0000   136.5877     0.0000   137.8500   203.8676   129.9000     0.0000     0.0000  1730.7500
    2796.5     0.4987     7.3495    -0.0087  2817.3794   224.8471     0.0000   136.7611     0.0000   138.0250   203.8919   138.0000     0.0000     0.0000  1747.5001
    2797.0     0.4996     7.3188     0.0014  2705.2798   224.8471     0.0000   128.7849     0.0000   129.9750   203.9162   146.7000     0.0000     0.0000  1727.0000
    2797.5     0.4971     7.4026    -0.0103  2458.5962   224.8471     0.0000   126.4564     0.0000   127.6250   203.9405   106.8000     0.0000     0.0000  1682.0000
    2798.0     0.4997     7.3155    -0.0029  2456.7979   224.8471     0.0000   121.3288     0.0000   122.4500   203.9648   130.5000     0.0000     0.0000  1703.1250
    2798.5     0.5147     6.8357    -0.0073  2249.7258   224.8471     0.0000   125.5151     0.0000   126.6750   203.9891   129.6000     0.0000     0.0000  1741.1251
    2799.0     0.5335     6.2765    -0.0059  2686.5449   224.8471     0.0000   123.6820     0.0000   124.8250   204.0134   120.3000     0.0000     0.0000  1729.3750
    2799.5     0.5510     5.7984     0.0044  2163.9285   224.8471     0.0000   125.9114     0.0000   127.0750   204.0377   125.4000     0.0000     0.0000  1690.5000
    2800.0     0.5836     5.0013     0.0014  2202.8035   224.8471     0.0000   125.4655     0.0000   126.6250   204.0620   138.3000     0.0000     0.0000  1680.6667
    2800.5     0.6048     4.5433    -0.0014  2584.6467   224.8471     0.0000   133.1941     0.0000   134.4250   204.0863   120.3000     0.0000     0.0000  1727.6250
    2801.0     0.6019     4.6018    -0.0029  2695.2126   224.8471     0.0000   130.7418     0.0000   131.9500   204.1105   148.8000     0.0000     0.0000  1717.6251
    2801.5     0.5989     4.6658     0.0044  2251.2847   224.8471     0.0000   137.1079     0.0000   138.3750   204.1349   129.9000     0.0000     0.0000  1685.8750
    2802.0     0.5782     5.1260     0.0088  2902.3020   224.8471     0.0000   129.8748     0.0000   131.0750   204.1591   137.4000     0.0000     0.0000  1694.6251
    2802.5     0.5322     6.3126     0.0000  2844.5542   224.8471     0.0000   133.0702     0.0000   134.3000   204.1834   128.7000     0.0000     0.0000  1734.0000
    2803.0     0.4840     7.8542    -0.0029  2631.9968   224.8471     0.0000   136.5134     0.0000   137.7750   204.2077   138.6000     0.0000     0.0000  1748.1250
