~VERSION INFORMATION
VERS.           1.2   :CWLS Log ASCII Standard - VERSION 1.2
WRAP.           NO    :One Line per depth step
PROD.  Schlumberger   :LAS Producer
PROG.  DLIS to ASCII 2.3                               :LAS Program name and version
CREA.        2019/04/17 13:32                          :LAS Creation date {YYYY/MM/DD hh:mm}
DLIS_CREA.  2019-Apr-17 13:22                          :DLIS Creation date and time {YYYY-MMM-DD hh:mm}
SOURCE.     E9OJ-00005_University-of-Utah_78-32_CBL-VDL_17APR19_Main.dlis  :DLIS File Name
FILE-ID.     ConPr_R01_L003Up_DSLT_SGT_CAL             :File Identification Number
#--------------------------------------------------
~WELL INFORMATION
#MNEM.UNIT      DATA             DESCRIPTION
#---- ------ --------------   -----------------------------
STRT .F      10.5            :START DEPTH     
STOP .F      3230.0          :STOP DEPTH     
STEP .F       0.5            :STEP     
NULL .          -999.25      :NULL VALUE
COMP .                 COMPANY:  University of Utah                 
WELL .                    WELL:  78-32                              
FLD  .                   FIELD:  None                               
LOC  .                LOCATION:                                     
CNTY .                  COUNTY:  Beaver                             
STAT .                   STATE:  Utah                               
CTRY .                 COUNTRY:  USA                                
SRVC .         SERVICE COMPANY:  Schlumberger                       
LATI .DEG             LATITUDE:  38.500182 degrees                  
LONG .DEG            LONGITUDE:  -112.88320 degrees                 
API  .              API NUMBER:                                     
DATE .                LOG DATE:  17-Apr-2019
UWI  .          UNIQUE WELL ID:                                     
#-----------------------------------------------------------------------------
~PARAMETER INFORMATION
#MNEM.UNIT    VALUE                      DESCRIPTION
#---- -----   --------------------       ------------------------
CN   .        University of Utah         :Company Name
WN   .        78-32                      :Well Name
FN   .        None                       :Field Name
FL   .                                   :Field Location
FL1  .                                   :Field Location, Line 1
COUN .        Beaver                     :County or Parish
STAT .        Utah                       :State or Province
NATI .        USA                        :Nation
DATE .        17-Apr-2019                :Tools Above Rotary Table Date
APIN .                                   :API Well Number
SECT .                                   :Section
TOWN .                                   :Township
RANG .                                   :Range
DMF  .        GL                         :Drilling Measured From (Name of Drilling Elevation Reference)
LMF  .        GL                         :Logging Measured From (Name of Logging Elevation Reference)
PDAT .        GL                         :Permanent Datum
ENGI .        Alan Moreno                :Engineer s Name
WITN .        Virgil Welch               :Witness s Name
LATI .        38.500182 degrees          :Latitude
LONG .        -112.88320 degrees         :Longitude
LUL  .                                   :Logging Unit Location
LUN  .        9102                       :Logging Unit Number
RUN  .        ONE                        :Run Number
SON  .        E9OJ-00005                 :Service Order Number
BHT  .DEGF     224.86000                 :Bottom Hole Temperature
BS   .IN         8.75000                 :Bit Size
MDEN .G/C3       2.71000                 :Matrix Density for Density Porosity
DFD  .LB/G       8.40000                 :Drilling Fluid Density
DFV  .S       -999.25000                 :Drilling Fluid Viscosity
DFL  .C3      -999.25000                 :Drilling Fluid Loss
RMFS .OHMM       0.15000                 :Resistivity of Mud Filtrate Sample
EKB  .F       5536.00000                 :Elevation of Kelly Bushing
EGL  .F       5536.00000                 :Elevation of Ground Level
BLI  .F       3228.00000                 :Bottom Log Interval
BSAL .PPM        0.00000                 :Borehole Salinity
FLEV .F          8.00000                 :Depth of Drilling Fluid Level to LMF (Log Measured From)
MCST .DEGF      68.00000                 :Mudcake Sample Temperature
MFST .DEGF      68.00000                 :Mud Filtrate Sample Temperature
MRT  .DEGF     226.82001                 :Maximum Recorded Temperature
MST  .DEGF      68.00000                 :Mud Sample Temperature
RMCS .OHMM    -999.25000                 :Resistivity of Mud Cake Sample
RMS  .OHMM       0.20000                 :Resistivity of Mud Sample
RW   .OHMM       1.00000                 :Connate Water Resistivity
TDD  .F       3272.00000                 :Driller Total Depth
TDL  .F       3272.00000                 :Logger Total Depth
TLI  .F         10.00000                 :Top Log Interval
HIDE .                                   :Header Identifier
MATR .        LIME                       :Rock Matrix for Neutron Porosity Corrections
FNUM .           1.00000                 :F-Numerator for Formation Factor Formula
FEXP .           2.00000                 :Exponent "m" for Formation Factor Formula
DFT  .        WATER                      :Drilling Fluid Type
DFPH .        -999.25000                 :Drilling Fluid pH
MCSS .        Pressed                    :Mudcake Sample Source
MFSS .                                   :Mud Filtrate Sample Source
FD   .G/C3       1.00000                 :Fluid Density
MSS  .        Active Tank                :Mud Sample Source
OS1  .                                   :Other Services Line 1
OS2  .                                   :Other Services Line 2
OS3  .                                   :Other Services Line 3
OS4  .                                   :Other Services Line 4
OS5  .                                   :Other Services Line 5
R1   .        Toolstring ran as per tool sketch. :Remarks Line 1
R2   .                                   :Remarks Line 2
R3   .                                   :Remarks Line 3
R4   .                                   :Remarks Line 4
R5   .                                   :Remarks Line 5
R6   .                                   :Remarks Line 6
R7   .                                   :Remarks Line 7
R8   .                                   :Remarks Line 8
TCS  .                                   :Time Circulation Stopped
TLAB .        11 27 00                   :Time Logger At Bottom
EPD  .C3         5536.000000             :Elevation of Permanent Datum above Mean Sea Level
APD  .F           0.000000               :Elevation of Depth Reference (LMF) above Permanent Datum
#-----------------------------------------------------------------------------
~CURVE INFORMATION
#MNEM.UNIT   API CODE                                  DESCRIPTION
#---- -----  --------                                  -----------------------
DEPT .F                                                :DEPTH (BOREHOLE) {F10.1}
BI   .                                                 :Bond Index {F11.4}
CBL  .MV                                               :CBL Amplitude {F11.4}
CCL  .                                                 :Casing Collar Locator Amplitude {F11.4}
CDF  .LBF                                              :Calibrated Downhole Force {F11.4}
CTEM .DEGF                                             :Cartridge Temperature {F11.4}
DCAL .IN                                               :Differential Caliper {F11.4}
ECGR .GAPI                                             :Environmentally Corrected Gamma Ray {F11.4}
ED   .F                                                :East Departure {F11.4}
GR   .GAPI                                             :Gamma Ray {F11.4}
GTEM .DEGF                                             :Generalized Borehole Temperature {F11.4}
HGR  .GAPI                                             :High Resolution Gamma Ray {F11.4}
ND   .F                                                :North Departure {F11.4}
STIT .F                                                :Stuck Tool Indicator, Total {F11.4}
TENS .LBF                                              :Cable Tension {F11.4}
#-----------------------------------------------------------------------------
# 
#     DEPT        BI        CBL        CCL        CDF        CTEM       DCAL       ECGR        ED         GR        GTEM       HGR         ND        STIT       TENS
#
~A  
# ...
    2975.0     0.4072    11.1263    -0.0014  2547.7432   226.8235     0.0000   161.7304     0.0000   163.2250   212.5658   159.0000     0.0000     0.0000  1779.8889
    2975.5     0.4086    11.0550     0.0029  2617.7766   226.8235     0.0000   150.0384     0.0000   151.4250   212.5901   156.6000     0.0000     0.0000  1722.6250
    2976.0     0.4079    11.0928     0.0029  2232.7703   226.8235     0.0000   143.1273     0.0000   144.4500   212.6144   141.3000     0.0000     0.0000  1752.3750
    2976.5     0.4082    11.0776    -0.0131  2268.2363   226.8235     0.0000   141.1456     0.0000   142.4500   212.6387   137.7000     0.0000     0.0000  1820.7500
    2977.0     0.4091    11.0313     0.0176  2420.8611   226.8235     0.0000   140.9227     0.0000   142.2250   212.6630   150.6000     0.0000     0.0000  1800.6250
    2977.5     0.4106    10.9553    -0.0163  2531.5364   226.8235     0.0000   148.7999     0.0000   150.1750   212.6873   142.8000     0.0000     0.0000  1720.3750
    2978.0     0.4103    10.9734     0.0147  2501.1472   226.8235     0.0000   145.6540     0.0000   147.0000   212.7116   160.2000     0.0000     0.0000  1699.2500
    2978.5     0.4082    11.0767    -0.0280  2780.0728   226.8235     0.0000   151.2274     0.0000   152.6250   212.7359   140.4000     0.0000     0.0000  1787.6251
    2979.0     0.4104    10.9661     0.0250  2439.4619   226.8235     0.0000   146.0255     0.0000   147.3750   212.7602   156.6000     0.0000     0.0000  1824.3334
    2979.5     0.4176    10.6160     0.0321  2226.8103   226.8235     0.0000   153.1348     0.0000   154.5500   212.7845   145.8000     0.0000     0.0000  1723.1250
    2980.0     0.4183    10.5796    -0.0103  2677.7410   226.8235     0.0000   153.3578     0.0000   154.7750   212.8088   162.6000     0.0000     0.0000  1684.7500
    2980.5     0.4081    11.0813     0.0118  2166.5842   226.8235     0.0000   151.8219     0.0000   153.2250   212.8331   155.1000     0.0000     0.0000  1772.5001
    2981.0     0.3942    11.7996     0.0162  2503.9805   226.8235     0.0000   138.2474     0.0000   139.5250   212.8574   139.8000     0.0000     0.0000  1822.5001
    2981.5     0.3818    12.4846     0.0146  2375.7126   226.8235     0.0000   136.0428     0.0000   137.3000   212.8817   124.2000     0.0000     0.0000  1751.2500
    2982.0     0.3717    13.0665     0.0162  2579.6125   226.8235     0.0000   140.9227     0.0000   142.2250   212.9060   150.6000     0.0000     0.0000  1675.0001
    2982.5     0.3610    13.7212    -0.0383  2418.6130   226.8235     0.0000   146.5705     0.0000   147.9250   212.9303   154.5000     0.0000     0.0000  1724.2500
    2983.0     0.3336    15.5349    -0.0221  2893.6655   226.8235     0.0000   152.1192     0.0000   153.5250   212.9546   138.6000     0.0000     0.0000  1806.6667
    2983.5     0.2919    18.7615     0.0059  2434.7358   226.8235     0.0000   152.9862     0.0000   154.4000   212.9789   169.2000     0.0000     0.0000  1766.1251
    2984.0     0.2676    20.9486     0.0087  2505.6477   226.8235     0.0000   155.5872     0.0000   157.0250   213.0032   157.2000     0.0000     0.0000  1698.3750
    2984.5     0.2605    21.6381     0.0190  2801.4761   226.8235     0.0000   143.1025     0.0000   144.4250   213.0275   145.2000     0.0000     0.0000  1716.6251
    2985.0     0.2575    21.9358    -0.0087  2312.4333   226.8235     0.0000   140.0061     0.0000   141.3000   213.0518   129.6000     0.0000     0.0000  1782.6250
    2985.5     0.2677    20.9375    -0.0118  2513.3528   226.8235     0.0000   145.1338     0.0000   146.4750   213.0761   144.9000     0.0000     0.0000  1803.3750
    2986.0     0.2957    18.4422     0.0132  2666.9402   226.8235     0.0000   154.7202     0.0000   156.1500   213.1004   162.0000     0.0000     0.0000  1744.8750
    2986.5     0.3357    15.3845    -0.0088  2536.6182   226.8235     0.0000   154.6458     0.0000   156.0750   213.1246   160.5000     0.0000     0.0000  1720.7778
    2987.0     0.3833    12.3986     0.0103  2653.8914   226.8235     0.0000   155.7606     0.0000   157.2000   213.1490   147.6000     0.0000     0.0000  1778.2500
    2987.5     0.4348     9.8195     0.0044  2813.9290   226.8235     0.0000   160.2441     0.0000   161.7250   213.1732   166.5000     0.0000     0.0000  1801.5000
    2988.0     0.4757     8.1572    -0.0294  2152.5945   226.8235     0.0000   163.8855     0.0000   165.4000   213.1976   172.2000     0.0000     0.0000  1763.0000
    2988.5     0.4998     7.3115    -0.0293  1969.2504   226.8235     0.0000   160.5909     0.0000   162.0750   213.2218   159.9000     0.0000     0.0000  1725.2500
    2989.0     0.5165     6.7791    -0.0073  2734.4414   226.8235     0.0000   156.7762     0.0000   158.2250   213.2461   155.4000     0.0000     0.0000  1750.7500
    2989.5     0.5254     6.5115    -0.0455  2483.9309   226.8235     0.0000   157.8909     0.0000   159.3500   213.2704   158.1000     0.0000     0.0000  1787.6251
    2990.0     0.5323     6.3100     0.0102  2377.9917   226.8235     0.0000   164.9754     0.0000   166.5000   213.2947   162.0000     0.0000     0.0000  1767.5000
    2990.5     0.5376     6.1592     0.0029  2029.8621   226.8235     0.0000   162.2506     0.0000   163.7500   213.3190   173.4000     0.0000     0.0000  1733.2500
    2991.0     0.5335     6.2756    -0.0146  2288.2595   226.8235     0.0000   159.1294     0.0000   160.6000   213.3433   152.4000     0.0000     0.0000  1748.3334
    2991.5     0.5291     6.4034    -0.0013  2428.1069   226.8235     0.0000   150.8559     0.0000   152.2500   213.3676   151.2000     0.0000     0.0000  1782.6250
    2992.0     0.5329     6.2940     0.0275  2370.9133   226.8235     0.0000   161.6065     0.0000   163.1000   213.3919   151.8000     0.0000     0.0000  1772.6250
    2992.5     0.5332     6.2850     0.0348  2513.0713   226.8235     0.0000   165.9167     0.0000   167.4500   213.4162   186.6000     0.0000     0.0000  1741.8750
    2993.0     0.5218     6.6172     0.0072  2383.0317   226.8235     0.0000   165.7185     0.0000   167.2500   213.4405   165.6000     0.0000     0.0000  1742.2500
    2993.5     0.5172     6.7583    -0.0073  2826.7480   226.8235     0.0000   151.5990     0.0000   153.0000   213.4648   150.0000     0.0000     0.0000  1761.6250
    2994.0     0.5228     6.5882    -0.0088  2266.2917   226.8235     0.0000   145.5053     0.0000   146.8500   213.4891   142.2000     0.0000     0.0000  1777.8889
    2994.5     0.5194     6.6891     0.0190  2212.4021   226.8235     0.0000   145.3072     0.0000   146.6500   213.5134   145.2000     0.0000     0.0000  1759.0000
    2995.0     0.5039     7.1777    -0.0280  2478.6509   226.8235     0.0000   147.3879     0.0000   148.7500   213.5377   150.6000     0.0000     0.0000  1732.3750
    2995.5     0.4867     7.7587     0.0178  2888.8767   226.8235     0.0000   153.6798     0.0000   155.1000   213.5620   148.8000     0.0000     0.0000  1740.8750
    2996.0     0.4723     8.2817     0.0237  2181.8396   226.8235     0.0000   154.3238     0.0000   155.7500   213.5863   166.2000     0.0000     0.0000  1770.0001
    2996.5     0.4510     9.1232     0.0059  2079.9492   226.8235     0.0000   155.2156     0.0000   156.6500   213.6106   149.7000     0.0000     0.0000  1779.1250
    2997.0     0.4255    10.2421    -0.0044  2453.8911   226.8235     0.0000   151.3761     0.0000   152.7750   213.6349   151.2000     0.0000     0.0000  1736.8889
    2997.5     0.4108    10.9454    -0.0029  2629.5151   226.8235     0.0000   147.5613     0.0000   148.9250   213.6592   155.4000     0.0000     0.0000  1755.3750
    2998.0     0.4049    11.2451     0.0119  2597.7744   226.8235     0.0000   141.0961     0.0000   142.4000   213.6835   141.0000     0.0000     0.0000  1783.1250
    2998.5     0.3978    11.6107    -0.0149  2095.5471   226.8235     0.0000   134.8537     0.0000   136.1000   213.7078   132.0000     0.0000     0.0000  1791.2500
    2999.0     0.3928    11.8756    -0.0029  2512.8416   226.8235     0.0000   136.6373     0.0000   137.9000   213.7321   134.7000     0.0000     0.0000  1756.3751
