~VERSION INFORMATION
VERS.           1.2   :CWLS Log ASCII Standard - VERSION 1.2
WRAP.           NO    :One Line per depth step
PROD.  Schlumberger   :LAS Producer
PROG.  DLIS to ASCII 2.3                               :LAS Program name and version
CREA.        2019/04/17 13:32                          :LAS Creation date {YYYY/MM/DD hh:mm}
DLIS_CREA.  2019-Apr-17 13:22                          :DLIS Creation date and time {YYYY-MMM-DD hh:mm}
SOURCE.     E9OJ-00005_University-of-Utah_78-32_CBL-VDL_17APR19_Main.dlis  :DLIS File Name
FILE-ID.     ConPr_R01_L003Up_DSLT_SGT_CAL             :File Identification Number
#--------------------------------------------------
~WELL INFORMATION
#MNEM.UNIT      DATA             DESCRIPTION
#---- ------ --------------   -----------------------------
STRT .F      10.5            :START DEPTH     
STOP .F      3230.0          :STOP DEPTH     
STEP .F       0.5            :STEP     
NULL .          -999.25      :NULL VALUE
COMP .                 COMPANY:  University of Utah                 
WELL .                    WELL:  78-32                              
FLD  .                   FIELD:  None                               
LOC  .                LOCATION:                                     
CNTY .                  COUNTY:  Beaver                             
STAT .                   STATE:  Utah                               
CTRY .                 COUNTRY:  USA                                
SRVC .         SERVICE COMPANY:  Schlumberger                       
LATI .DEG             LATITUDE:  38.500182 degrees                  
LONG .DEG            LONGITUDE:  -112.88320 degrees                 
API  .              API NUMBER:                                     
DATE .                LOG DATE:  17-Apr-2019
UWI  .          UNIQUE WELL ID:                                     
#-----------------------------------------------------------------------------
~PARAMETER INFORMATION
#MNEM.UNIT    VALUE                      DESCRIPTION
#---- -----   --------------------       ------------------------
CN   .        University of Utah         :Company Name
WN   .        78-32                      :Well Name
FN   .        None                       :Field Name
FL   .                                   :Field Location
FL1  .                                   :Field Location, Line 1
COUN .        Beaver                     :County or Parish
STAT .        Utah                       :State or Province
NATI .        USA                        :Nation
DATE .        17-Apr-2019                :Tools Above Rotary Table Date
APIN .                                   :API Well Number
SECT .                                   :Section
TOWN .                                   :Township
RANG .                                   :Range
DMF  .        GL                         :Drilling Measured From (Name of Drilling Elevation Reference)
LMF  .        GL                         :Logging Measured From (Name of Logging Elevation Reference)
PDAT .        GL                         :Permanent Datum
ENGI .        Alan Moreno                :Engineer s Name
WITN .        Virgil Welch               :Witness s Name
LATI .        38.500182 degrees          :Latitude
LONG .        -112.88320 degrees         :Longitude
LUL  .                                   :Logging Unit Location
LUN  .        9102                       :Logging Unit Number
RUN  .        ONE                        :Run Number
SON  .        E9OJ-00005                 :Service Order Number
BHT  .DEGF     224.86000                 :Bottom Hole Temperature
BS   .IN         8.75000                 :Bit Size
MDEN .G/C3       2.71000                 :Matrix Density for Density Porosity
DFD  .LB/G       8.40000                 :Drilling Fluid Density
DFV  .S       -999.25000                 :Drilling Fluid Viscosity
DFL  .C3      -999.25000                 :Drilling Fluid Loss
RMFS .OHMM       0.15000                 :Resistivity of Mud Filtrate Sample
EKB  .F       5536.00000                 :Elevation of Kelly Bushing
EGL  .F       5536.00000                 :Elevation of Ground Level
BLI  .F       3228.00000                 :Bottom Log Interval
BSAL .PPM        0.00000                 :Borehole Salinity
FLEV .F          8.00000                 :Depth of Drilling Fluid Level to LMF (Log Measured From)
MCST .DEGF      68.00000                 :Mudcake Sample Temperature
MFST .DEGF      68.00000                 :Mud Filtrate Sample Temperature
MRT  .DEGF     226.82001                 :Maximum Recorded Temperature
MST  .DEGF      68.00000                 :Mud Sample Temperature
RMCS .OHMM    -999.25000                 :Resistivity of Mud Cake Sample
RMS  .OHMM       0.20000                 :Resistivity of Mud Sample
RW   .OHMM       1.00000                 :Connate Water Resistivity
TDD  .F       3272.00000                 :Driller Total Depth
TDL  .F       3272.00000                 :Logger Total Depth
TLI  .F         10.00000                 :Top Log Interval
HIDE .                                   :Header Identifier
MATR .        LIME                       :Rock Matrix for Neutron Porosity Corrections
FNUM .           1.00000                 :F-Numerator for Formation Factor Formula
FEXP .           2.00000                 :Exponent "m" for Formation Factor Formula
DFT  .        WATER                      :Drilling Fluid Type
DFPH .        -999.25000                 :Drilling Fluid pH
MCSS .        Pressed                    :Mudcake Sample Source
MFSS .                                   :Mud Filtrate Sample Source
FD   .G/C3       1.00000                 :Fluid Density
MSS  .        Active Tank                :Mud Sample Source
OS1  .                                   :Other Services Line 1
OS2  .                                   :Other Services Line 2
OS3  .                                   :Other Services Line 3
OS4  .                                   :Other Services Line 4
OS5  .                                   :Other Services Line 5
R1   .        Toolstring ran as per tool sketch. :Remarks Line 1
R2   .                                   :Remarks Line 2
R3   .                                   :Remarks Line 3
R4   .                                   :Remarks Line 4
R5   .                                   :Remarks Line 5
R6   .                                   :Remarks Line 6
R7   .                                   :Remarks Line 7
R8   .                                   :Remarks Line 8
TCS  .                                   :Time Circulation Stopped
TLAB .        11 27 00                   :Time Logger At Bottom
EPD  .C3         5536.000000             :Elevation of Permanent Datum above Mean Sea Level
APD  .F           0.000000               :Elevation of Depth Reference (LMF) above Permanent Datum
#-----------------------------------------------------------------------------
~CURVE INFORMATION
#MNEM.UNIT   API CODE                                  DESCRIPTION
#---- -----  --------                                  -----------------------
DEPT .F                                                :DEPTH (BOREHOLE) {F10.1}
BI   .                                                 :Bond Index {F11.4}
CBL  .MV                                               :CBL Amplitude {F11.4}
CCL  .                                                 :Casing Collar Locator Amplitude {F11.4}
CDF  .LBF                                              :Calibrated Downhole Force {F11.4}
CTEM .DEGF                                             :Cartridge Temperature {F11.4}
DCAL .IN                                               :Differential Caliper {F11.4}
ECGR .GAPI                                             :Environmentally Corrected Gamma Ray {F11.4}
ED   .F                                                :East Departure {F11.4}
GR   .GAPI                                             :Gamma Ray {F11.4}
GTEM .DEGF                                             :Generalized Borehole Temperature {F11.4}
HGR  .GAPI                                             :High Resolution Gamma Ray {F11.4}
ND   .F                                                :North Departure {F11.4}
STIT .F                                                :Stuck Tool Indicator, Total {F11.4}
TENS .LBF                                              :Cable Tension {F11.4}
#-----------------------------------------------------------------------------
# 
#     DEPT        BI        CBL        CCL        CDF        CTEM       DCAL       ECGR        ED         GR        GTEM       HGR         ND        STIT       TENS
#
~A  
# ...
    1921.5     0.7233     2.6546    -0.0058  2398.6770   195.2000     0.0000    99.7779     0.0000   100.7000   161.3725   103.5000     0.0000     0.0000  1398.2500
    1922.0     0.7174     2.7260    -0.0058  2312.2869   195.2000     0.0000    96.8054     0.0000    97.7000   161.3968   104.7000     0.0000     0.0000  1367.6250
    1922.5     0.7305     2.5693    -0.0013  2318.2888   195.2000     0.0000    98.8118     0.0000    99.7250   161.4211    85.2000     0.0000     0.0000  1338.5555
    1923.0     0.7427     2.4311    -0.0028  2286.6729   195.2000     0.0000    99.0348     0.0000    99.9500   161.4454   111.9000     0.0000     0.0000  1363.8750
    1923.5     0.7249     2.6355    -0.0028  2239.7546   195.2000     0.0000   101.4128     0.0000   102.3500   161.4697   105.0000     0.0000     0.0000  1368.2500
    1924.0     0.6991     2.9624    -0.0013  2255.3337   195.2000     0.0000    93.8329     0.0000    94.7000   161.4940    92.4000     0.0000     0.0000  1346.8750
    1924.5     0.6985     2.9709     0.0101  2275.8442   195.2000     0.0000    94.5264     0.0000    95.4000   161.5183    88.2000     0.0000     0.0000  1391.2500
    1925.0     0.7001     2.9487    -0.0013  2222.5547   195.2000     0.0000    97.0035     0.0000    97.9000   161.5426   107.4000     0.0000     0.0000  1399.7500
    1925.5     0.6901     3.0864     0.0117  2212.4597   195.2000     0.0000   100.5706     0.0000   101.5000   161.5669   100.2000     0.0000     0.0000  1396.8750
    1926.0     0.6683     3.4066    -0.0117  2233.0002   195.2000     0.0000   100.1742     0.0000   101.1000   161.5912    96.0000     0.0000     0.0000  1392.0001
    1926.5     0.6397     3.8772     0.0013  2211.1670   195.2000     0.0000   103.2954     0.0000   104.2500   161.6155   106.2000     0.0000     0.0000  1385.6250
    1927.0     0.6150     4.3367    -0.0201  2265.1833   195.2000     0.0000   108.4230     0.0000   109.4250   161.6398   110.1000     0.0000     0.0000  1377.5000
    1927.5     0.5889     4.8825     0.0246  2448.6951   195.2000     0.0000   103.8651     0.0000   104.8250   161.6641   116.1000     0.0000     0.0000  1374.7500
    1928.0     0.5520     5.7714    -0.0144  2401.4243   195.2000     0.0000    98.9605     0.0000    99.8750   161.6884    92.4000     0.0000     0.0000  1376.2500
    1928.5     0.5017     7.2484     0.0129  2404.5813   195.2000     0.0000    92.0493     0.0000    92.9000   161.7127    95.4000     0.0000     0.0000  1371.0001
    1929.0     0.4566     8.8954     0.0071  2151.5183   195.2000     0.0000    90.6621     0.0000    91.5000   161.7370    93.3000     0.0000     0.0000  1356.3750
    1929.5     0.4415     9.5223    -0.0071  2215.8530   195.2000     0.0000    94.2292     0.0000    95.1000   161.7613    88.2000     0.0000     0.0000  1383.7500
    1930.0     0.4671     8.4800     0.0231  2443.2366   195.2000     0.0000    97.7962     0.0000    98.7000   161.7856   105.9000     0.0000     0.0000  1414.2500
    1930.5     0.5135     6.8725     0.0129  2381.2576   195.2000     0.0000    97.9944     0.0000    98.9000   161.8099   100.5000     0.0000     0.0000  1390.5001
    1931.0     0.5518     5.7776     0.0259  2230.4392   195.2000     0.0000    91.5291     0.0000    92.3750   161.8342    88.8000     0.0000     0.0000  1378.0000
    1931.5     0.5815     5.0491     0.0028  2271.9692   195.2000     0.0000    90.6374     0.0000    91.4750   161.8585    87.9000     0.0000     0.0000  1405.7501
    1932.0     0.6153     4.3320     0.0476  2465.3711   195.2000     0.0000    99.5550     0.0000   100.4750   161.8828    99.3000     0.0000     0.0000  1394.2500
    1932.5     0.6481     3.7333    -0.0216  2364.7024   195.2000     0.0000   100.6697     0.0000   101.6000   161.9070   115.8000     0.0000     0.0000  1381.3750
    1933.0     0.6493     3.7120     0.0058  2459.8337   195.2000     0.0000   101.5614     0.0000   102.5000   161.9314    92.7000     0.0000     0.0000  1384.7500
    1933.5     0.6362     3.9399    -0.0420  2358.7427   195.2000     0.0000    90.0676     0.0000    90.9000   161.9556   101.4000     0.0000     0.0000  1388.6250
    1934.0     0.6442     3.7993     0.0247  2406.0134   195.2000     0.0000    96.0870     0.0000    96.9750   161.9799    81.0000     0.0000     0.0000  1388.2500
    1934.5     0.6757     3.2934     0.0145  2392.5569   195.2000     0.0000    92.9659     0.0000    93.8250   162.0042   108.0000     0.0000     0.0000  1374.2500
    1935.0     0.7020     2.9232     0.0102  2155.8462   195.2000     0.0000    96.5329     0.0000    97.4250   162.0285    92.1000     0.0000     0.0000  1378.1250
    1935.5     0.6942     3.0294    -0.0467  2319.3467   195.2000     0.0000    98.9852     0.0000    99.9000   162.0528    91.8000     0.0000     0.0000  1377.5000
    1936.0     0.6747     3.3095    -0.0350  2186.9607   195.2000     0.0000    99.7284     0.0000   100.6500   162.0771   116.1000     0.0000     0.0000  1365.7500
    1936.5     0.6539     3.6365    -0.0277  2277.2036   195.6650     0.0000   101.9578     0.0000   102.9000   162.1014    95.4000     0.0000     0.0000  1388.6250
    1937.0     0.6379     3.9088    -0.0087  2270.0874   197.1765     0.0000    97.2760     0.0000    98.1750   162.1257    97.2000     0.0000     0.0000  1398.0000
    1937.5     0.6254     4.1379    -0.0159  2354.1855   197.1765     0.0000   102.6266     0.0000   103.5750   162.1500    98.4000     0.0000     0.0000  1376.6250
    1938.0     0.6024     4.5924    -0.0307  2338.1340   197.1765     0.0000   102.8495     0.0000   103.8000   162.1743   111.6000     0.0000     0.0000  1371.8750
    1938.5     0.5761     5.1736    -0.0290  2197.8411   197.1765     0.0000   105.7477     0.0000   106.7250   162.1986   100.2000     0.0000     0.0000  1379.8750
    1939.0     0.5333     6.2823     0.0492  2174.1733   197.1765     0.0000   101.7844     0.0000   102.7250   162.2229   110.7000     0.0000     0.0000  1384.2501
    1939.5     0.5008     7.2791     0.0201  2165.7168   197.1765     0.0000    99.1091     0.0000   100.0250   162.2472    99.6000     0.0000     0.0000  1384.6251
    1940.0     0.5260     6.4937    -0.0043  2198.8970   197.1765     0.0000    91.5291     0.0000    92.3750   162.2715    90.6000     0.0000     0.0000  1385.2500
    1940.5     0.5712     5.2896    -0.0610  2261.8848   197.1765     0.0000    87.7639     0.0000    88.5750   162.2958    86.4000     0.0000     0.0000  1401.3750
    1941.0     0.5605     5.5531    -0.2440  2257.3623   197.1765     0.0000    84.8657     0.0000    85.6500   162.3201    88.2000     0.0000     0.0000  1395.6250
    1941.5     0.5223     6.6041     0.0304  2464.2722   197.1765     0.0000    87.9869     0.0000    88.8000   162.3444    81.0000     0.0000     0.0000  1383.3750
    1942.0     0.4621     8.6766    -0.0246  2205.8562   197.1765     0.0000    96.3100     0.0000    97.2000   162.3687    96.0000     0.0000     0.0000  1402.3750
    1942.5     0.3922    11.9067    -0.0128  2192.3687   197.1765     0.0000   104.7817     0.0000   105.7500   162.3930   113.4000     0.0000     0.0000  1402.5000
    1943.0     0.3360    15.3621    -0.0028  2200.1033   197.1765     0.0000   113.9470     0.0000   115.0000   162.4173   108.3000     0.0000     0.0000  1399.5000
    1943.5     0.2968    18.3500     0.0058  2219.9143   197.1765     0.0000   109.2652     0.0000   110.2750   162.4416   123.6000     0.0000     0.0000  1422.8751
    1944.0     0.2958    18.4333     0.0058  2467.0730   197.1765     0.0000   108.8194     0.0000   109.8250   162.4659   102.3000     0.0000     0.0000  1425.5000
    1944.5     0.3366    15.3247    -0.0013  2346.9587   197.1765     0.0000   106.4413     0.0000   107.4250   162.4902   106.2000     0.0000     0.0000  1399.0000
    1945.0     0.4026    11.3582    -0.0043  2394.4434   197.1765     0.0000   114.4672     0.0000   115.5250   162.5145   116.4000     0.0000     0.0000  1392.8750
    1945.5     0.4883     7.7041     0.0072  2244.9824   197.1765     0.0000   112.3368     0.0000   113.3750   162.5388   125.4000     0.0000     0.0000  1392.8750
