~VERSION INFORMATION
VERS.           1.2   :CWLS Log ASCII Standard - VERSION 1.2
WRAP.           NO    :One Line per depth step
PROD.  Schlumberger   :LAS Producer
PROG.  DLIS to ASCII 2.3                               :LAS Program name and version
CREA.        2019/04/17 13:32                          :LAS Creation date {YYYY/MM/DD hh:mm}
DLIS_CREA.  2019-Apr-17 13:22                          :DLIS Creation date and time {YYYY-MMM-DD hh:mm}
SOURCE.     E9OJ-00005_University-of-Utah_78-32_CBL-VDL_17APR19_Main.dlis  :DLIS File Name
FILE-ID.     ConPr_R01_L003Up_DSLT_SGT_CAL             :File Identification Number
#--------------------------------------------------
~WELL INFORMATION
#MNEM.UNIT      DATA             DESCRIPTION
#---- ------ --------------   -----------------------------
STRT .F      10.5            :START DEPTH     
STOP .F      3230.0          :STOP DEPTH     
STEP .F       0.5            :STEP     
NULL .          -999.25      :NULL VALUE
COMP .                 COMPANY:  University of Utah                 
WELL .                    WELL:  78-32                              
FLD  .                   FIELD:  None                               
LOC  .                LOCATION:                                     
CNTY .                  COUNTY:  Beaver                             
STAT .                   STATE:  Utah                               
CTRY .                 COUNTRY:  USA                                
SRVC .         SERVICE COMPANY:  Schlumberger                       
LATI .DEG             LATITUDE:  38.500182 degrees                  
LONG .DEG            LONGITUDE:  -112.88320 degrees                 
API  .              API NUMBER:                                     
DATE .                LOG DATE:  17-Apr-2019
UWI  .          UNIQUE WELL ID:                                     
#-----------------------------------------------------------------------------
~PARAMETER INFORMATION
#MNEM.UNIT    VALUE                      DESCRIPTION
#---- -----   --------------------       ------------------------
CN   .        University of Utah         :Company Name
WN   .        78-32                      :Well Name
FN   .        None                       :Field Name
FL   .                                   :Field Location
FL1  .                                   :Field Location, Line 1
COUN .        Beaver                     :County or Parish
STAT .        Utah                       :State or Province
NATI .        USA                        :Nation
DATE .        17-Apr-2019                :Tools Above Rotary Table Date
APIN .                                   :API Well Number
SECT .                                   :Section
TOWN .                                   :Township
RANG .                                   :Range
DMF  .        GL                         :Drilling Measured From (Name of Drilling Elevation Reference)
LMF  .        GL                         :Logging Measured From (Name of Logging Elevation Reference)
PDAT .        GL                         :Permanent Datum
ENGI .        Alan Moreno                :Engineer s Name
WITN .        Virgil Welch               :Witness s Name
LATI .        38.500182 degrees          :Latitude
LONG .        -112.88320 degrees         :Longitude
LUL  .                                   :Logging Unit Location
LUN  .        9102                       :Logging Unit Number
RUN  .        ONE                        :Run Number
SON  .        E9OJ-00005                 :Service Order Number
BHT  .DEGF     224.86000                 :Bottom Hole Temperature
BS   .IN         8.75000                 :Bit Size
MDEN .G/C3       2.71000                 :Matrix Density for Density Porosity
DFD  .LB/G       8.40000                 :Drilling Fluid Density
DFV  .S       -999.25000                 :Drilling Fluid Viscosity
DFL  .C3      -999.25000                 :Drilling Fluid Loss
RMFS .OHMM       0.15000                 :Resistivity of Mud Filtrate Sample
EKB  .F       5536.00000                 :Elevation of Kelly Bushing
EGL  .F       5536.00000                 :Elevation of Ground Level
BLI  .F       3228.00000                 :Bottom Log Interval
BSAL .PPM        0.00000                 :Borehole Salinity
FLEV .F          8.00000                 :Depth of Drilling Fluid Level to LMF (Log Measured From)
MCST .DEGF      68.00000                 :Mudcake Sample Temperature
MFST .DEGF      68.00000                 :Mud Filtrate Sample Temperature
MRT  .DEGF     226.82001                 :Maximum Recorded Temperature
MST  .DEGF      68.00000                 :Mud Sample Temperature
RMCS .OHMM    -999.25000                 :Resistivity of Mud Cake Sample
RMS  .OHMM       0.20000                 :Resistivity of Mud Sample
RW   .OHMM       1.00000                 :Connate Water Resistivity
TDD  .F       3272.00000                 :Driller Total Depth
TDL  .F       3272.00000                 :Logger Total Depth
TLI  .F         10.00000                 :Top Log Interval
HIDE .                                   :Header Identifier
MATR .        LIME                       :Rock Matrix for Neutron Porosity Corrections
FNUM .           1.00000                 :F-Numerator for Formation Factor Formula
FEXP .           2.00000                 :Exponent "m" for Formation Factor Formula
DFT  .        WATER                      :Drilling Fluid Type
DFPH .        -999.25000                 :Drilling Fluid pH
MCSS .        Pressed                    :Mudcake Sample Source
MFSS .                                   :Mud Filtrate Sample Source
FD   .G/C3       1.00000                 :Fluid Density
MSS  .        Active Tank                :Mud Sample Source
OS1  .                                   :Other Services Line 1
OS2  .                                   :Other Services Line 2
OS3  .                                   :Other Services Line 3
OS4  .                                   :Other Services Line 4
OS5  .                                   :Other Services Line 5
R1   .        Toolstring ran as per tool sketch. :Remarks Line 1
R2   .                                   :Remarks Line 2
R3   .                                   :Remarks Line 3
R4   .                                   :Remarks Line 4
R5   .                                   :Remarks Line 5
R6   .                                   :Remarks Line 6
R7   .                                   :Remarks Line 7
R8   .                                   :Remarks Line 8
TCS  .                                   :Time Circulation Stopped
TLAB .        11 27 00                   :Time Logger At Bottom
EPD  .C3         5536.000000             :Elevation of Permanent Datum above Mean Sea Level
APD  .F           0.000000               :Elevation of Depth Reference (LMF) above Permanent Datum
#-----------------------------------------------------------------------------
~CURVE INFORMATION
#MNEM.UNIT   API CODE                                  DESCRIPTION
#---- -----  --------                                  -----------------------
DEPT .F                                                :DEPTH (BOREHOLE) {F10.1}
BI   .                                                 :Bond Index {F11.4}
CBL  .MV                                               :CBL Amplitude {F11.4}
CCL  .                                                 :Casing Collar Locator Amplitude {F11.4}
CDF  .LBF                                              :Calibrated Downhole Force {F11.4}
CTEM .DEGF                                             :Cartridge Temperature {F11.4}
DCAL .IN                                               :Differential Caliper {F11.4}
ECGR .GAPI                                             :Environmentally Corrected Gamma Ray {F11.4}
ED   .F                                                :East Departure {F11.4}
GR   .GAPI                                             :Gamma Ray {F11.4}
GTEM .DEGF                                             :Generalized Borehole Temperature {F11.4}
HGR  .GAPI                                             :High Resolution Gamma Ray {F11.4}
ND   .F                                                :North Departure {F11.4}
STIT .F                                                :Stuck Tool Indicator, Total {F11.4}
TENS .LBF                                              :Cable Tension {F11.4}
#-----------------------------------------------------------------------------
# 
#     DEPT        BI        CBL        CCL        CDF        CTEM       DCAL       ECGR        ED         GR        GTEM       HGR         ND        STIT       TENS
#
~A  
# ...
     427.0     0.7236     2.6510    -0.0056  2236.6121   139.8588     0.0000    55.0909     0.0000    55.6000    88.7495    53.4000     0.0000     0.0000   918.0000
     427.5     0.8311     1.6285     0.0902  2190.7021   139.8588     0.0000    62.0020     0.0000    62.5750    88.7737    64.2000     0.0000     0.0000   927.4285
     428.0     0.8626     1.4117    -0.0282  2335.3120   139.8588     0.0000    65.5443     0.0000    66.1500    88.7980    68.7000     0.0000     0.0000   932.5001
     428.5     0.7995     1.8792    -0.0338  2241.1609   139.8588     0.0000    64.8755     0.0000    65.4750    88.8223    66.0000     0.0000     0.0000   923.6250
     429.0     0.7353     2.5139     0.0154  2192.0994   139.8588     0.0000    64.2066     0.0000    64.8000    88.8466    62.1000     0.0000     0.0000   930.5000
     429.5     0.7211     2.6812     0.0069  2146.3982   139.8588     0.0000    62.8690     0.0000    63.4500    88.8709    69.0000     0.0000     0.0000   926.0000
     430.0     0.7160     2.7439     0.0577  2447.3508   139.8588     0.0000    58.4102     0.0000    58.9500    88.8952    60.3000     0.0000     0.0000   911.2857
     430.5     0.7102     2.8165     0.0027  2221.3472   139.8588     0.0000    52.1679     0.0000    52.6500    88.9195    48.3000     0.0000     0.0000   914.6251
     431.0     0.7603     2.2442     0.0352  2243.0715   139.8588     0.0000    51.7220     0.0000    52.2000    88.9438    50.1000     0.0000     0.0000   909.3750
     431.5     0.7912     1.9511     0.0083  2395.6929   139.8588     0.0000    60.0699     0.0000    60.6250    88.9681    60.0000     0.0000     0.0000   905.1250
     432.0     0.7794     2.0588    -0.0112  2373.1848   139.8588     0.0000    63.1910     0.0000    63.7750    88.9924    73.2000     0.0000     0.0000   908.8572
     432.5     0.7713     2.1357    -0.0098  2245.7158   139.8588     0.0000    62.0763     0.0000    62.6500    89.0167    58.5000     0.0000     0.0000   905.1250
     433.0     0.7576     2.2724     0.0250  2335.4629   139.8588     0.0000    63.7608     0.0000    64.3500    89.0410    57.9000     0.0000     0.0000   923.2501
     433.5     0.7715     2.1332    -0.0265  2260.1135   139.8588     0.0000    66.8819     0.0000    67.5000    89.0653    76.2000     0.0000     0.0000   916.2500
     434.0     0.8177     1.7301    -0.0251  2333.4243   139.8588     0.0000    67.5507     0.0000    68.1750    89.0896    66.9000     0.0000     0.0000   920.7143
     434.5     0.8188     1.7215    -0.0393  2440.3076   139.8588     0.0000    60.8625     0.0000    61.4250    89.1139    56.7000     0.0000     0.0000   916.6250
     435.0     0.7544     2.3052    -0.0622  2286.5977   139.8588     0.0000    54.6202     0.0000    55.1250    89.1382    57.6000     0.0000     0.0000   913.5000
     435.5     0.7233     2.6549     1.0652  2128.1785   139.8588     0.0000    53.9514     0.0000    54.4500    89.1625    50.1000     0.0000     0.0000   917.7500
     436.0     0.7362     2.5036     0.0267  2295.6467   139.8588     0.0000    52.8119     0.0000    53.3000    89.1868    54.6000     0.0000     0.0000   909.8750
     436.5     0.7449     2.4070    -0.0154  2145.6094   139.8588     0.0000    56.6019     0.0000    57.1250    89.2111    54.6000     0.0000     0.0000   908.5714
     437.0     0.7844     2.0120     0.0280  2382.1611   139.8588     0.0000    61.5066     0.0000    62.0750    89.2354    60.6000     0.0000     0.0000   908.0000
     437.5     0.8201     1.7119     0.0239  2215.3684   139.8588     0.0000    67.9966     0.0000    68.6250    89.2597    69.3000     0.0000     0.0000   905.8750
     438.0     0.7485     2.3686    -0.0154  2227.8755   139.8588     0.0000    68.6654     0.0000    69.3000    89.2840    75.0000     0.0000     0.0000   910.7500
     438.5     0.7232     2.6555    -0.0069  2261.9133   139.8588     0.0000    64.4296     0.0000    65.0250    89.3083    61.5000     0.0000     0.0000   911.3750
     439.0     0.7331     2.5387     0.0266  2314.2512   139.8588     0.0000    56.8496     0.0000    57.3750    89.3326    57.6000     0.0000     0.0000   897.8572
     439.5     0.6922     3.0560    -0.0112  2191.0911   139.8588     0.0000    53.2826     0.0000    53.7750    89.3569    51.6000     0.0000     0.0000   906.3750
     440.0     0.6772     3.2709     0.0042  2268.6609   139.8588     0.0000    53.9514     0.0000    54.4500    89.3812    51.3000     0.0000     0.0000   917.7500
     440.5     0.7029     2.9121    -0.0169  2236.5154   139.8588     0.0000    54.8432     0.0000    55.3500    89.4054    59.4000     0.0000     0.0000   920.0000
     441.0     0.7580     2.2686     0.0013  2290.6531   139.8588     0.0000    57.2955     0.0000    57.8250    89.4298    52.2000     0.0000     0.0000   922.2501
     441.5     0.8012     1.8649     0.0296  2389.7358   139.8588     0.0000    58.2864     0.0000    58.8250    89.4540    59.7000     0.0000     0.0000   919.1429
     442.0     0.7425     2.4336     0.0339  2253.7146   139.8588     0.0000    61.4075     0.0000    61.9750    89.4784    62.4000     0.0000     0.0000   918.3750
     442.5     0.7356     2.5109    -0.0338  2346.6333   139.8588     0.0000    64.0828     0.0000    64.6750    89.5026    64.5000     0.0000     0.0000   918.3751
     443.0     0.8349     1.6003    -0.0155  2308.3262   139.8588     0.0000    68.4425     0.0000    69.0750    89.5269    69.9000     0.0000     0.0000   910.6250
     443.5     0.8703     1.3636     0.0211  2402.3137   139.8588     0.0000    68.6654     0.0000    69.3000    89.5512    76.2000     0.0000     0.0000   914.1250
     444.0     0.8294     1.6411     0.0267  2368.7612   139.8588     0.0000    64.2066     0.0000    64.8000    89.5755    63.0000     0.0000     0.0000   914.7143
     444.5     0.7745     2.1051     0.0154  2406.2463   139.8588     0.0000    62.6461     0.0000    63.2250    89.5998    54.9000     0.0000     0.0000   910.1250
     445.0     0.7203     2.6914     0.0113  2284.4431   139.8588     0.0000    61.0855     0.0000    61.6500    89.6241    71.4000     0.0000     0.0000   917.8750
     445.5     0.7238     2.6482     0.0648  2133.0647   139.8588     0.0000    61.3084     0.0000    61.8750    89.6484    58.8000     0.0000     0.0000   921.0000
     446.0     0.7731     2.1182     0.0267  2382.3611   139.8588     0.0000    57.0726     0.0000    57.6000    89.6727    55.5000     0.0000     0.0000   910.0001
     446.5     0.8036     1.8444     0.0636  2268.0234   139.8588     0.0000    55.2891     0.0000    55.8000    89.6970    57.9000     0.0000     0.0000   905.6250
     447.0     0.7887     1.9734     0.0365  2231.2734   139.8588     0.0000    53.7285     0.0000    54.2250    89.7213    54.3000     0.0000     0.0000   920.7501
     447.5     0.7924     1.9409     0.0211  2100.1541   139.8588     0.0000    49.6165     0.0000    50.0750    89.7456    50.1000     0.0000     0.0000   913.7500
     448.0     0.8093     1.7972    -0.0240  2197.4011   139.8588     0.0000    47.1641     0.0000    47.6000    89.7699    45.6000     0.0000     0.0000   915.5714
     448.5     0.7928     1.9374     0.0125  2202.5447   139.8588     0.0000    50.0624     0.0000    50.5250    89.7942    46.5000     0.0000     0.0000   913.5000
     449.0     0.7558     2.2912    -0.0320  2212.0288   139.8588     0.0000    53.7285     0.0000    54.2250    89.8185    59.4000     0.0000     0.0000   891.3751
     449.5     0.7312     2.5616    -0.0265  2215.8979   139.8588     0.0000    55.7349     0.0000    56.2500    89.8428    57.3000     0.0000     0.0000   902.6251
     450.0     0.7247     2.6373    -0.0502  2293.0073   139.8588     0.0000    53.7285     0.0000    54.2250    89.8671    50.4000     0.0000     0.0000   905.0000
     450.5     0.7439     2.4185    -0.0180  2213.1875   139.8588     0.0000    50.1614     0.0000    50.6250    89.8914    54.0000     0.0000     0.0000   905.1251
     451.0     0.7681     2.1663    -0.0124  2369.3076   139.8588     0.0000    47.7091     0.0000    48.1500    89.9157    46.8000     0.0000     0.0000   912.0000
