~VERSION INFORMATION
VERS.           1.2   :CWLS Log ASCII Standard - VERSION 1.2
WRAP.           NO    :One Line per depth step
PROD.  Schlumberger   :LAS Producer
PROG.  DLIS to ASCII 2.3                               :LAS Program name and version
CREA.        2019/04/17 13:32                          :LAS Creation date {YYYY/MM/DD hh:mm}
DLIS_CREA.  2019-Apr-17 13:22                          :DLIS Creation date and time {YYYY-MMM-DD hh:mm}
SOURCE.     E9OJ-00005_University-of-Utah_78-32_CBL-VDL_17APR19_Main.dlis  :DLIS File Name
FILE-ID.     ConPr_R01_L003Up_DSLT_SGT_CAL             :File Identification Number
#--------------------------------------------------
~WELL INFORMATION
#MNEM.UNIT      DATA             DESCRIPTION
#---- ------ --------------   -----------------------------
STRT .F      10.5            :START DEPTH     
STOP .F      3230.0          :STOP DEPTH     
STEP .F       0.5            :STEP     
NULL .          -999.25      :NULL VALUE
COMP .                 COMPANY:  University of Utah                 
WELL .                    WELL:  78-32                              
FLD  .                   FIELD:  None                               
LOC  .                LOCATION:                                     
CNTY .                  COUNTY:  Beaver                             
STAT .                   STATE:  Utah                               
CTRY .                 COUNTRY:  USA                                
SRVC .         SERVICE COMPANY:  Schlumberger                       
LATI .DEG             LATITUDE:  38.500182 degrees                  
LONG .DEG            LONGITUDE:  -112.88320 degrees                 
API  .              API NUMBER:                                     
DATE .                LOG DATE:  17-Apr-2019
UWI  .          UNIQUE WELL ID:                                     
#-----------------------------------------------------------------------------
~PARAMETER INFORMATION
#MNEM.UNIT    VALUE                      DESCRIPTION
#---- -----   --------------------       ------------------------
CN   .        University of Utah         :Company Name
WN   .        78-32                      :Well Name
FN   .        None                       :Field Name
FL   .                                   :Field Location
FL1  .                                   :Field Location, Line 1
COUN .        Beaver                     :County or Parish
STAT .        Utah                       :State or Province
NATI .        USA                        :Nation
DATE .        17-Apr-2019                :Tools Above Rotary Table Date
APIN .                                   :API Well Number
SECT .                                   :Section
TOWN .                                   :Township
RANG .                                   :Range
DMF  .        GL                         :Drilling Measured From (Name of Drilling Elevation Reference)
LMF  .        GL                         :Logging Measured From (Name of Logging Elevation Reference)
PDAT .        GL                         :Permanent Datum
ENGI .        Alan Moreno                :Engineer s Name
WITN .        Virgil Welch               :Witness s Name
LATI .        38.500182 degrees          :Latitude
LONG .        -112.88320 degrees         :Longitude
LUL  .                                   :Logging Unit Location
LUN  .        9102                       :Logging Unit Number
RUN  .        ONE                        :Run Number
SON  .        E9OJ-00005                 :Service Order Number
BHT  .DEGF     224.86000                 :Bottom Hole Temperature
BS   .IN         8.75000                 :Bit Size
MDEN .G/C3       2.71000                 :Matrix Density for Density Porosity
DFD  .LB/G       8.40000                 :Drilling Fluid Density
DFV  .S       -999.25000                 :Drilling Fluid Viscosity
DFL  .C3      -999.25000                 :Drilling Fluid Loss
RMFS .OHMM       0.15000                 :Resistivity of Mud Filtrate Sample
EKB  .F       5536.00000                 :Elevation of Kelly Bushing
EGL  .F       5536.00000                 :Elevation of Ground Level
BLI  .F       3228.00000                 :Bottom Log Interval
BSAL .PPM        0.00000                 :Borehole Salinity
FLEV .F          8.00000                 :Depth of Drilling Fluid Level to LMF (Log Measured From)
MCST .DEGF      68.00000                 :Mudcake Sample Temperature
MFST .DEGF      68.00000                 :Mud Filtrate Sample Temperature
MRT  .DEGF     226.82001                 :Maximum Recorded Temperature
MST  .DEGF      68.00000                 :Mud Sample Temperature
RMCS .OHMM    -999.25000                 :Resistivity of Mud Cake Sample
RMS  .OHMM       0.20000                 :Resistivity of Mud Sample
RW   .OHMM       1.00000                 :Connate Water Resistivity
TDD  .F       3272.00000                 :Driller Total Depth
TDL  .F       3272.00000                 :Logger Total Depth
TLI  .F         10.00000                 :Top Log Interval
HIDE .                                   :Header Identifier
MATR .        LIME                       :Rock Matrix for Neutron Porosity Corrections
FNUM .           1.00000                 :F-Numerator for Formation Factor Formula
FEXP .           2.00000                 :Exponent "m" for Formation Factor Formula
DFT  .        WATER                      :Drilling Fluid Type
DFPH .        -999.25000                 :Drilling Fluid pH
MCSS .        Pressed                    :Mudcake Sample Source
MFSS .                                   :Mud Filtrate Sample Source
FD   .G/C3       1.00000                 :Fluid Density
MSS  .        Active Tank                :Mud Sample Source
OS1  .                                   :Other Services Line 1
OS2  .                                   :Other Services Line 2
OS3  .                                   :Other Services Line 3
OS4  .                                   :Other Services Line 4
OS5  .                                   :Other Services Line 5
R1   .        Toolstring ran as per tool sketch. :Remarks Line 1
R2   .                                   :Remarks Line 2
R3   .                                   :Remarks Line 3
R4   .                                   :Remarks Line 4
R5   .                                   :Remarks Line 5
R6   .                                   :Remarks Line 6
R7   .                                   :Remarks Line 7
R8   .                                   :Remarks Line 8
TCS  .                                   :Time Circulation Stopped
TLAB .        11 27 00                   :Time Logger At Bottom
EPD  .C3         5536.000000             :Elevation of Permanent Datum above Mean Sea Level
APD  .F           0.000000               :Elevation of Depth Reference (LMF) above Permanent Datum
#-----------------------------------------------------------------------------
~CURVE INFORMATION
#MNEM.UNIT   API CODE                                  DESCRIPTION
#---- -----  --------                                  -----------------------
DEPT .F                                                :DEPTH (BOREHOLE) {F10.1}
BI   .                                                 :Bond Index {F11.4}
CBL  .MV                                               :CBL Amplitude {F11.4}
CCL  .                                                 :Casing Collar Locator Amplitude {F11.4}
CDF  .LBF                                              :Calibrated Downhole Force {F11.4}
CTEM .DEGF                                             :Cartridge Temperature {F11.4}
DCAL .IN                                               :Differential Caliper {F11.4}
ECGR .GAPI                                             :Environmentally Corrected Gamma Ray {F11.4}
ED   .F                                                :East Departure {F11.4}
GR   .GAPI                                             :Gamma Ray {F11.4}
GTEM .DEGF                                             :Generalized Borehole Temperature {F11.4}
HGR  .GAPI                                             :High Resolution Gamma Ray {F11.4}
ND   .F                                                :North Departure {F11.4}
STIT .F                                                :Stuck Tool Indicator, Total {F11.4}
TENS .LBF                                              :Cable Tension {F11.4}
#-----------------------------------------------------------------------------
# 
#     DEPT        BI        CBL        CCL        CDF        CTEM       DCAL       ECGR        ED         GR        GTEM       HGR         ND        STIT       TENS
#
~A  
# ...
    1284.5     0.4840     7.8538     0.0257  2321.3718   167.5294     0.0000   100.8183     0.0000   101.7500   130.4184   103.8000     0.0000     0.0000  1169.8750
    1285.0     0.4741     8.2151    -0.0272  2218.8801   167.5294     0.0000   107.5560     0.0000   108.5500   130.4427   106.8000     0.0000     0.0000  1170.5000
    1285.5     0.4609     8.7241     0.0216  2283.4602   167.5294     0.0000   113.5754     0.0000   114.6250   130.4670   116.4000     0.0000     0.0000  1168.7500
    1286.0     0.4590     8.7958     0.0618  2215.4761   167.5294     0.0000   108.2496     0.0000   109.2500   130.4913   117.9000     0.0000     0.0000  1194.7500
    1286.5     0.4611     8.7141     0.0391  2172.2344   167.5294     0.0000   104.3606     0.0000   105.3250   130.5156    91.2000     0.0000     0.0000  1206.2500
    1287.0     0.4545     8.9802     0.0217  2295.5471   167.5294     0.0000    98.1182     0.0000    99.0250   130.5399   104.7000     0.0000     0.0000  1185.3750
    1287.5     0.4478     9.2561     0.0462  2159.4041   167.5294     0.0000    95.5420     0.0000    96.4250   130.5642    97.5000     0.0000     0.0000  1199.6250
    1288.0     0.4522     9.0715    -0.0624  2403.2449   167.5294     0.0000    97.7715     0.0000    98.6750   130.5885    83.4000     0.0000     0.0000  1195.6251
    1288.5     0.4661     8.5208    -0.0741  2331.9966   167.5294     0.0000    93.5356     0.0000    94.4000   130.6128   112.5000     0.0000     0.0000  1185.8750
    1289.0     0.4792     8.0266     0.0738  2318.1619   167.5294     0.0000   101.2642     0.0000   102.2000   130.6371    87.9000     0.0000     0.0000  1207.0000
    1289.5     0.4981     7.3669     0.0260  2394.9514   167.5294     0.0000    94.5760     0.0000    95.4500   130.6614   106.8000     0.0000     0.0000  1220.6251
    1290.0     0.5123     6.9085     0.0333  2284.6047   167.5294     0.0000    98.8118     0.0000    99.7250   130.6857    89.4000     0.0000     0.0000  1208.8750
    1290.5     0.5103     6.9706     0.0741  2383.5200   167.5294     0.0000   101.1899     0.0000   102.1250   130.7100   103.5000     0.0000     0.0000  1213.1250
    1291.0     0.5178     6.7384    -0.0390  2193.7383   167.5294     0.0000   104.5340     0.0000   105.5000   130.7343   114.0000     0.0000     0.0000  1221.8750
    1291.5     0.5440     5.9850    -0.0464  2044.2112   167.5294     0.0000   106.5404     0.0000   107.5250   130.7586   101.1000     0.0000     0.0000  1228.5000
    1292.0     0.5594     5.5816     0.0173  2155.2190   167.5294     0.0000   102.5523     0.0000   103.5000   130.7829   106.5000     0.0000     0.0000  1218.1251
    1292.5     0.5538     5.7231     0.0043  2197.9275   167.5294     0.0000   104.5835     0.0000   105.5500   130.8072   102.0000     0.0000     0.0000  1226.3750
    1293.0     0.5490     5.8506    -0.0116  2343.0359   167.5294     0.0000   103.0229     0.0000   103.9750   130.8315   107.4000     0.0000     0.0000  1224.3750
    1293.5     0.5407     6.0735    -0.0247  2110.9375   167.5294     0.0000   105.6982     0.0000   106.6750   130.8558   105.9000     0.0000     0.0000  1228.5001
    1294.0     0.5296     6.3870    -0.0260  2293.9788   167.5294     0.0000   107.4817     0.0000   108.4750   130.8801   111.9000     0.0000     0.0000  1223.8750
    1294.5     0.5338     6.2679    -0.0144  2368.7937   167.5294     0.0000   106.8129     0.0000   107.8000   130.9043   112.8000     0.0000     0.0000  1213.6250
    1295.0     0.5520     5.7711    -0.0071  2217.1890   167.5294     0.0000    97.2265     0.0000    98.1250   130.9286   102.0000     0.0000     0.0000  1268.1251
    1295.5     0.5629     5.4939     0.0187  2396.8857   167.5294     0.0000    97.0283     0.0000    97.9250   130.9529    80.4000     0.0000     0.0000  1262.7500
    1296.0     0.5553     5.6857     0.0347  2356.0281   167.5294     0.0000    93.4613     0.0000    94.3250   130.9772   112.2000     0.0000     0.0000  1246.1250
    1296.5     0.5489     5.8541     0.1215  2326.6182   167.5294     0.0000    98.8118     0.0000    99.7250   131.0015    92.4000     0.0000     0.0000  1219.3750
    1297.0     0.5477     5.8838    -0.0345  2213.1758   167.5294     0.0000    95.6411     0.0000    96.5250   131.0258    97.2000     0.0000     0.0000  1217.1250
    1297.5     0.5384     6.1372     0.0347  2154.5562   167.5294     0.0000    96.5329     0.0000    97.4250   131.0501   105.9000     0.0000     0.0000  1227.0000
    1298.0     0.5391     6.1184    -0.0231  2278.4644   167.5294     0.0000    93.9567     0.0000    94.8250   131.0744    93.6000     0.0000     0.0000  1229.7500
    1298.5     0.5539     5.7222    -0.0505  2313.6477   167.5294     0.0000    87.2685     0.0000    88.0750   131.0987    89.4000     0.0000     0.0000  1235.5000
    1299.0     0.5597     5.5722     0.0201  2350.7124   167.5294     0.0000    87.0456     0.0000    87.8500   131.1230    81.6000     0.0000     0.0000  1232.2500
    1299.5     0.5587     5.5977     0.0216  2231.5920   167.5294     0.0000    87.4419     0.0000    88.2500   131.1473    92.1000     0.0000     0.0000  1211.7500
    1300.0     0.5648     5.4446     0.0347  2291.3857   167.5294     0.0000    86.5501     0.0000    87.3500   131.1716    90.6000     0.0000     0.0000  1229.2500
    1300.5     0.5880     4.9017    -0.0201  2367.9639   167.5294     0.0000    87.4419     0.0000    88.2500   131.1959    78.0000     0.0000     0.0000  1239.2500
    1301.0     0.6190     4.2598     0.0086  2287.8098   168.1689     0.0000    90.4144     0.0000    91.2500   131.2202    93.0000     0.0000     0.0000  1223.5000
    1301.5     0.6240     4.1648     0.0289  2248.4729   169.5059     0.0000    98.8862     0.0000    99.8000   131.2445    99.6000     0.0000     0.0000  1236.5000
    1302.0     0.6127     4.3825     0.0607  2228.0547   169.5059     0.0000   100.8926     0.0000   101.8250   131.2688   104.4000     0.0000     0.0000  1252.7500
    1302.5     0.6112     4.4122    -0.0159  2267.9177   169.5059     0.0000    97.1274     0.0000    98.0250   131.2931   102.0000     0.0000     0.0000  1230.7499
    1303.0     0.6128     4.3811    -0.0406  2362.9438   169.5059     0.0000   101.1403     0.0000   102.0750   131.3174    88.2000     0.0000     0.0000  1224.8750
    1303.5     0.6118     4.4002     0.0305  2227.3123   169.5059     0.0000    97.5733     0.0000    98.4750   131.3417   118.2000     0.0000     0.0000  1229.0000
    1304.0     0.6099     4.4396    -0.0202  2245.8230   169.5059     0.0000   103.3202     0.0000   104.2750   131.3660    90.6000     0.0000     0.0000  1233.1250
    1304.5     0.5998     4.6474    -0.0449  2197.8303   169.5059     0.0000    94.8485     0.0000    95.7250   131.3903   105.6000     0.0000     0.0000  1222.2500
    1305.0     0.5792     5.1011     0.0333  2188.4788   169.5059     0.0000    97.0779     0.0000    97.9750   131.4146    93.0000     0.0000     0.0000  1228.1250
    1305.5     0.5584     5.6066    -0.0448  2368.4705   169.5059     0.0000    93.3127     0.0000    94.1750   131.4389    95.4000     0.0000     0.0000  1226.3750
    1306.0     0.5441     5.9817    -0.0086  2258.5669   169.5059     0.0000    97.1026     0.0000    98.0000   131.4632    94.2000     0.0000     0.0000  1215.1250
    1306.5     0.5353     6.2243    -0.0217  2304.4373   169.5059     0.0000   100.0009     0.0000   100.9250   131.4875   102.9000     0.0000     0.0000  1216.8750
    1307.0     0.5341     6.2600     0.0086  2157.0879   169.5059     0.0000   103.5679     0.0000   104.5250   131.5118   106.2000     0.0000     0.0000  1222.3750
    1307.5     0.5397     6.1021    -0.0043  2306.0242   169.5059     0.0000   101.7844     0.0000   102.7250   131.5361   105.0000     0.0000     0.0000  1227.6250
    1308.0     0.5464     5.9193     0.0129  2309.2957   169.5059     0.0000    95.3191     0.0000    96.2000   131.5604    96.9000     0.0000     0.0000  1210.8750
    1308.5     0.5567     5.6493    -0.0344  2353.9058   169.5059     0.0000    93.7338     0.0000    94.6000   131.5847    86.1000     0.0000     0.0000  1205.8750
