~VERSION INFORMATION
VERS.           1.2   :CWLS Log ASCII Standard - VERSION 1.2
WRAP.           NO    :One Line per depth step
PROD.  Schlumberger   :LAS Producer
PROG.  DLIS to ASCII 2.3                               :LAS Program name and version
CREA.        2019/04/17 13:32                          :LAS Creation date {YYYY/MM/DD hh:mm}
DLIS_CREA.  2019-Apr-17 13:22                          :DLIS Creation date and time {YYYY-MMM-DD hh:mm}
SOURCE.     E9OJ-00005_University-of-Utah_78-32_CBL-VDL_17APR19_Main.dlis  :DLIS File Name
FILE-ID.     ConPr_R01_L003Up_DSLT_SGT_CAL             :File Identification Number
#--------------------------------------------------
~WELL INFORMATION
#MNEM.UNIT      DATA             DESCRIPTION
#---- ------ --------------   -----------------------------
STRT .F      10.5            :START DEPTH     
STOP .F      3230.0          :STOP DEPTH     
STEP .F       0.5            :STEP     
NULL .          -999.25      :NULL VALUE
COMP .                 COMPANY:  University of Utah                 
WELL .                    WELL:  78-32                              
FLD  .                   FIELD:  None                               
LOC  .                LOCATION:                                     
CNTY .                  COUNTY:  Beaver                             
STAT .                   STATE:  Utah                               
CTRY .                 COUNTRY:  USA                                
SRVC .         SERVICE COMPANY:  Schlumberger                       
LATI .DEG             LATITUDE:  38.500182 degrees                  
LONG .DEG            LONGITUDE:  -112.88320 degrees                 
API  .              API NUMBER:                                     
DATE .                LOG DATE:  17-Apr-2019
UWI  .          UNIQUE WELL ID:                                     
#-----------------------------------------------------------------------------
~PARAMETER INFORMATION
#MNEM.UNIT    VALUE                      DESCRIPTION
#---- -----   --------------------       ------------------------
CN   .        University of Utah         :Company Name
WN   .        78-32                      :Well Name
FN   .        None                       :Field Name
FL   .                                   :Field Location
FL1  .                                   :Field Location, Line 1
COUN .        Beaver                     :County or Parish
STAT .        Utah                       :State or Province
NATI .        USA                        :Nation
DATE .        17-Apr-2019                :Tools Above Rotary Table Date
APIN .                                   :API Well Number
SECT .                                   :Section
TOWN .                                   :Township
RANG .                                   :Range
DMF  .        GL                         :Drilling Measured From (Name of Drilling Elevation Reference)
LMF  .        GL                         :Logging Measured From (Name of Logging Elevation Reference)
PDAT .        GL                         :Permanent Datum
ENGI .        Alan Moreno                :Engineer s Name
WITN .        Virgil Welch               :Witness s Name
LATI .        38.500182 degrees          :Latitude
LONG .        -112.88320 degrees         :Longitude
LUL  .                                   :Logging Unit Location
LUN  .        9102                       :Logging Unit Number
RUN  .        ONE                        :Run Number
SON  .        E9OJ-00005                 :Service Order Number
BHT  .DEGF     224.86000                 :Bottom Hole Temperature
BS   .IN         8.75000                 :Bit Size
MDEN .G/C3       2.71000                 :Matrix Density for Density Porosity
DFD  .LB/G       8.40000                 :Drilling Fluid Density
DFV  .S       -999.25000                 :Drilling Fluid Viscosity
DFL  .C3      -999.25000                 :Drilling Fluid Loss
RMFS .OHMM       0.15000                 :Resistivity of Mud Filtrate Sample
EKB  .F       5536.00000                 :Elevation of Kelly Bushing
EGL  .F       5536.00000                 :Elevation of Ground Level
BLI  .F       3228.00000                 :Bottom Log Interval
BSAL .PPM        0.00000                 :Borehole Salinity
FLEV .F          8.00000                 :Depth of Drilling Fluid Level to LMF (Log Measured From)
MCST .DEGF      68.00000                 :Mudcake Sample Temperature
MFST .DEGF      68.00000                 :Mud Filtrate Sample Temperature
MRT  .DEGF     226.82001                 :Maximum Recorded Temperature
MST  .DEGF      68.00000                 :Mud Sample Temperature
RMCS .OHMM    -999.25000                 :Resistivity of Mud Cake Sample
RMS  .OHMM       0.20000                 :Resistivity of Mud Sample
RW   .OHMM       1.00000                 :Connate Water Resistivity
TDD  .F       3272.00000                 :Driller Total Depth
TDL  .F       3272.00000                 :Logger Total Depth
TLI  .F         10.00000                 :Top Log Interval
HIDE .                                   :Header Identifier
MATR .        LIME                       :Rock Matrix for Neutron Porosity Corrections
FNUM .           1.00000                 :F-Numerator for Formation Factor Formula
FEXP .           2.00000                 :Exponent "m" for Formation Factor Formula
DFT  .        WATER                      :Drilling Fluid Type
DFPH .        -999.25000                 :Drilling Fluid pH
MCSS .        Pressed                    :Mudcake Sample Source
MFSS .                                   :Mud Filtrate Sample Source
FD   .G/C3       1.00000                 :Fluid Density
MSS  .        Active Tank                :Mud Sample Source
OS1  .                                   :Other Services Line 1
OS2  .                                   :Other Services Line 2
OS3  .                                   :Other Services Line 3
OS4  .                                   :Other Services Line 4
OS5  .                                   :Other Services Line 5
R1   .        Toolstring ran as per tool sketch. :Remarks Line 1
R2   .                                   :Remarks Line 2
R3   .                                   :Remarks Line 3
R4   .                                   :Remarks Line 4
R5   .                                   :Remarks Line 5
R6   .                                   :Remarks Line 6
R7   .                                   :Remarks Line 7
R8   .                                   :Remarks Line 8
TCS  .                                   :Time Circulation Stopped
TLAB .        11 27 00                   :Time Logger At Bottom
EPD  .C3         5536.000000             :Elevation of Permanent Datum above Mean Sea Level
APD  .F           0.000000               :Elevation of Depth Reference (LMF) above Permanent Datum
#-----------------------------------------------------------------------------
~CURVE INFORMATION
#MNEM.UNIT   API CODE                                  DESCRIPTION
#---- -----  --------                                  -----------------------
DEPT .F                                                :DEPTH (BOREHOLE) {F10.1}
BI   .                                                 :Bond Index {F11.4}
CBL  .MV                                               :CBL Amplitude {F11.4}
CCL  .                                                 :Casing Collar Locator Amplitude {F11.4}
CDF  .LBF                                              :Calibrated Downhole Force {F11.4}
CTEM .DEGF                                             :Cartridge Temperature {F11.4}
DCAL .IN                                               :Differential Caliper {F11.4}
ECGR .GAPI                                             :Environmentally Corrected Gamma Ray {F11.4}
ED   .F                                                :East Departure {F11.4}
GR   .GAPI                                             :Gamma Ray {F11.4}
GTEM .DEGF                                             :Generalized Borehole Temperature {F11.4}
HGR  .GAPI                                             :High Resolution Gamma Ray {F11.4}
ND   .F                                                :North Departure {F11.4}
STIT .F                                                :Stuck Tool Indicator, Total {F11.4}
TENS .LBF                                              :Cable Tension {F11.4}
#-----------------------------------------------------------------------------
# 
#     DEPT        BI        CBL        CCL        CDF        CTEM       DCAL       ECGR        ED         GR        GTEM       HGR         ND        STIT       TENS
#
~A  
# ...
    1064.0     0.2812    19.7018     0.0360  2195.3958   157.6470     0.0000   105.0046     0.0000   105.9750   119.7035   103.8000     0.0000     0.0000  1115.8750
    1064.5     0.2758    20.1874     0.0619  2215.7454   157.6470     0.0000   107.0854     0.0000   108.0750   119.7279   118.5000     0.0000     0.0000  1104.8750
    1065.0     0.2707    20.6539    -0.0245  2177.7607   157.6470     0.0000   110.6524     0.0000   111.6750   119.7521   100.8000     0.0000     0.0000  1119.0000
    1065.5     0.2675    20.9562    -0.0315  2168.2593   157.6470     0.0000   107.9771     0.0000   108.9750   119.7764   116.1000     0.0000     0.0000  1110.8750
    1066.0     0.2621    21.4825     0.0244  2134.8196   157.6470     0.0000   105.2028     0.0000   106.1750   119.8007   112.5000     0.0000     0.0000  1111.8750
    1066.5     0.2547    22.2084    -0.0058  2323.3220   157.6470     0.0000   102.3046     0.0000   103.2500   119.8250    92.4000     0.0000     0.0000  1116.1250
    1067.0     0.2499    22.7039    -0.0013  2342.1958   158.1262     0.0000    99.1834     0.0000   100.1000   119.8493   105.3000     0.0000     0.0000  1105.8750
    1067.5     0.2483    22.8661    -0.0445  2192.5195   158.1262     0.0000    97.0035     0.0000    97.9000   119.8736   103.2000     0.0000     0.0000  1107.5000
    1068.0     0.2451    23.1953    -0.0100  2387.8721   159.6235     0.0000    92.7677     0.0000    93.6250   119.8979    85.8000     0.0000     0.0000  1113.0000
    1068.5     0.2339    24.4048     0.0372  2483.0491   159.6235     0.0000    94.9971     0.0000    95.8750   119.9222    96.3000     0.0000     0.0000  1107.0001
    1069.0     0.2180    26.2274    -0.0272  2278.9058   159.6235     0.0000    95.3934     0.0000    96.2750   119.9465   108.0000     0.0000     0.0000  1111.3751
    1069.5     0.2070    27.5700     0.0142  2397.5339   159.6235     0.0000   100.7440     0.0000   101.6750   119.9708    87.0000     0.0000     0.0000  1105.7500
    1070.0     0.2044    27.9042     0.0301  2255.5032   159.6235     0.0000    98.9605     0.0000    99.8750   119.9951   111.9000     0.0000     0.0000  1109.8750
    1070.5     0.2078    27.4753    -0.0417  2419.2297   159.6235     0.0000   105.2275     0.0000   106.2000   120.0194   102.0000     0.0000     0.0000  1116.8750
    1071.0     0.2124    26.9078     0.0460  2417.3784   159.6235     0.0000   103.7908     0.0000   104.7500   120.0437   107.4000     0.0000     0.0000  1124.8750
    1071.5     0.2162    26.4451     0.0258  2115.2573   159.6235     0.0000   106.0202     0.0000   107.0000   120.0680   105.0000     0.0000     0.0000  1126.0000
    1072.0     0.2204    25.9484     0.0993  2138.8867   159.6235     0.0000   108.9184     0.0000   109.9250   120.0923   108.0000     0.0000     0.0000  1127.0000
    1072.5     0.2253    25.3780     0.0560  2265.7310   159.6235     0.0000   117.0434     0.0000   118.1250   120.1166   116.4000     0.0000     0.0000  1109.6250
    1073.0     0.2301    24.8314     0.0550  2220.0652   159.6235     0.0000   119.4957     0.0000   120.6000   120.1409   129.6000     0.0000     0.0000  1122.6250
    1073.5     0.2338    24.4157     0.0419  2329.3198   159.6235     0.0000   116.1516     0.0000   117.2250   120.1652   114.6000     0.0000     0.0000  1124.0000
    1074.0     0.2378    23.9828    -0.0043  2397.2659   159.6235     0.0000   112.1882     0.0000   113.2250   120.1895   105.3000     0.0000     0.0000  1124.8750
    1074.5     0.2429    23.4323    -0.0159  2265.8386   159.6235     0.0000   110.4047     0.0000   111.4250   120.2138   117.6000     0.0000     0.0000  1125.5000
    1075.0     0.2503    22.6619    -0.0478  2323.4644   159.6235     0.0000   113.0800     0.0000   114.1250   120.2381   113.7000     0.0000     0.0000  1127.6250
    1075.5     0.2662    21.0877     0.0101  2360.4878   159.6235     0.0000   107.2340     0.0000   108.2250   120.2624   111.3000     0.0000     0.0000  1121.7144
    1076.0     0.2862    19.2596    -0.0202  2421.6338   159.6235     0.0000   107.0854     0.0000   108.0750   120.2867   104.7000     0.0000     0.0000  1122.3750
    1076.5     0.2972    18.3203    -0.0231  2328.3313   159.6235     0.0000   115.5571     0.0000   116.6250   120.3110   111.6000     0.0000     0.0000  1128.0000
    1077.0     0.3068    17.5383    -0.0419  2163.5208   159.6235     0.0000   123.5829     0.0000   124.7250   120.3353   137.1000     0.0000     0.0000  1128.6250
    1077.5     0.3089    17.3741    -0.0316  2196.7122   159.6235     0.0000   120.6104     0.0000   121.7250   120.3596   126.6000     0.0000     0.0000  1115.7500
    1078.0     0.2949    18.5122    -0.0201  2249.9490   159.6235     0.0000   108.2001     0.0000   109.2000   120.3839   104.4000     0.0000     0.0000  1118.8750
    1078.5     0.2835    19.4926     0.1010  2344.8242   159.6235     0.0000    97.4990     0.0000    98.4000   120.4081   100.8000     0.0000     0.0000  1124.3750
    1079.0     0.2734    20.4031     0.0274  2176.8127   159.6235     0.0000    99.9513     0.0000   100.8750   120.4324    89.7000     0.0000     0.0000  1108.6250
    1079.5     0.2574    21.9380     0.0490  2338.4360   159.6235     0.0000    93.0154     0.0000    93.8750   120.4567   108.6000     0.0000     0.0000  1122.8750
    1080.0     0.2436    23.3635    -0.0172  2072.4250   159.6235     0.0000    97.0283     0.0000    97.9250   120.4810    79.8000     0.0000     0.0000  1117.5000
    1080.5     0.2367    24.1016     0.0617  2197.1155   159.6235     0.0000    94.3530     0.0000    95.2250   120.5053   105.3000     0.0000     0.0000  1101.8750
    1081.0     0.2363    24.1442    -0.0028  2292.3179   159.6235     0.0000    98.7128     0.0000    99.6250   120.5296   100.8000     0.0000     0.0000  1107.5000
    1081.5     0.2402    23.7241     0.0530  2144.7422   159.6235     0.0000    98.9357     0.0000    99.8500   120.5539    93.0000     0.0000     0.0000  1104.0000
    1082.0     0.2463    23.0738     0.0244  2261.4324   159.6235     0.0000    97.5981     0.0000    98.5000   120.5782   105.0000     0.0000     0.0000  1087.2500
    1082.5     0.2522    22.4703    -0.0257  2140.4866   159.6235     0.0000    96.0127     0.0000    96.9000   120.6025    98.4000     0.0000     0.0000  1098.7500
    1083.0     0.2547    22.2142     0.0372  2313.7234   159.6235     0.0000    95.1209     0.0000    96.0000   120.6268    88.2000     0.0000     0.0000  1109.7500
    1083.5     0.2563    22.0482     0.0965  2339.3733   159.6235     0.0000    91.9998     0.0000    92.8500   120.6511   102.6000     0.0000     0.0000  1112.7500
    1084.0     0.2575    21.9334     0.0273  2241.9661   159.6235     0.0000    95.7650     0.0000    96.6500   120.6754    90.0000     0.0000     0.0000  1107.7500
    1084.5     0.2514    22.5474     0.0447  2081.5388   159.6235     0.0000    95.3191     0.0000    96.2000   120.6997    99.6000     0.0000     0.0000  1111.2500
    1085.0     0.2372    24.0460     0.0058  2122.6487   159.6235     0.0000    99.3320     0.0000   100.2500   120.7240    99.6000     0.0000     0.0000  1125.0000
    1085.5     0.2221    25.7538    -0.0173  2462.0315   159.6235     0.0000    98.5394     0.0000    99.4500   120.7483   104.7000     0.0000     0.0000  1118.1250
    1086.0     0.2120    26.9516     0.0245  2420.2979   159.6235     0.0000    95.1953     0.0000    96.0750   120.7726    97.2000     0.0000     0.0000  1111.8750
    1086.5     0.2081    27.4391    -0.0071  2142.6633   159.6235     0.0000    94.3035     0.0000    95.1750   120.7969    88.5000     0.0000     0.0000  1127.1251
    1087.0     0.2113    27.0412    -0.0607  2270.4426   159.6235     0.0000    93.5108     0.0000    94.3750   120.8212    98.7000     0.0000     0.0000  1115.5000
    1087.5     0.2214    25.8261     0.1007  2191.0974   159.6235     0.0000    95.2943     0.0000    96.1750   120.8455    94.8000     0.0000     0.0000  1105.5001
    1088.0     0.2295    24.8991     0.0708  2280.8125   159.6235     0.0000    96.4090     0.0000    97.3000   120.8698    98.1000     0.0000     0.0000  1116.5000
