~VERSION INFORMATION
VERS.           1.2   :CWLS Log ASCII Standard - VERSION 1.2
WRAP.           NO    :One Line per depth step
PROD.  Schlumberger   :LAS Producer
PROG.  DLIS to ASCII 2.3                               :LAS Program name and version
CREA.        2019/04/17 13:32                          :LAS Creation date {YYYY/MM/DD hh:mm}
DLIS_CREA.  2019-Apr-17 13:22                          :DLIS Creation date and time {YYYY-MMM-DD hh:mm}
SOURCE.     E9OJ-00005_University-of-Utah_78-32_CBL-VDL_17APR19_Main.dlis  :DLIS File Name
FILE-ID.     ConPr_R01_L003Up_DSLT_SGT_CAL             :File Identification Number
#--------------------------------------------------
~WELL INFORMATION
#MNEM.UNIT      DATA             DESCRIPTION
#---- ------ --------------   -----------------------------
STRT .F      10.5            :START DEPTH     
STOP .F      3230.0          :STOP DEPTH     
STEP .F       0.5            :STEP     
NULL .          -999.25      :NULL VALUE
COMP .                 COMPANY:  University of Utah                 
WELL .                    WELL:  78-32                              
FLD  .                   FIELD:  None                               
LOC  .                LOCATION:                                     
CNTY .                  COUNTY:  Beaver                             
STAT .                   STATE:  Utah                               
CTRY .                 COUNTRY:  USA                                
SRVC .         SERVICE COMPANY:  Schlumberger                       
LATI .DEG             LATITUDE:  38.500182 degrees                  
LONG .DEG            LONGITUDE:  -112.88320 degrees                 
API  .              API NUMBER:                                     
DATE .                LOG DATE:  17-Apr-2019
UWI  .          UNIQUE WELL ID:                                     
#-----------------------------------------------------------------------------
~PARAMETER INFORMATION
#MNEM.UNIT    VALUE                      DESCRIPTION
#---- -----   --------------------       ------------------------
CN   .        University of Utah         :Company Name
WN   .        78-32                      :Well Name
FN   .        None                       :Field Name
FL   .                                   :Field Location
FL1  .                                   :Field Location, Line 1
COUN .        Beaver                     :County or Parish
STAT .        Utah                       :State or Province
NATI .        USA                        :Nation
DATE .        17-Apr-2019                :Tools Above Rotary Table Date
APIN .                                   :API Well Number
SECT .                                   :Section
TOWN .                                   :Township
RANG .                                   :Range
DMF  .        GL                         :Drilling Measured From (Name of Drilling Elevation Reference)
LMF  .        GL                         :Logging Measured From (Name of Logging Elevation Reference)
PDAT .        GL                         :Permanent Datum
ENGI .        Alan Moreno                :Engineer s Name
WITN .        Virgil Welch               :Witness s Name
LATI .        38.500182 degrees          :Latitude
LONG .        -112.88320 degrees         :Longitude
LUL  .                                   :Logging Unit Location
LUN  .        9102                       :Logging Unit Number
RUN  .        ONE                        :Run Number
SON  .        E9OJ-00005                 :Service Order Number
BHT  .DEGF     224.86000                 :Bottom Hole Temperature
BS   .IN         8.75000                 :Bit Size
MDEN .G/C3       2.71000                 :Matrix Density for Density Porosity
DFD  .LB/G       8.40000                 :Drilling Fluid Density
DFV  .S       -999.25000                 :Drilling Fluid Viscosity
DFL  .C3      -999.25000                 :Drilling Fluid Loss
RMFS .OHMM       0.15000                 :Resistivity of Mud Filtrate Sample
EKB  .F       5536.00000                 :Elevation of Kelly Bushing
EGL  .F       5536.00000                 :Elevation of Ground Level
BLI  .F       3228.00000                 :Bottom Log Interval
BSAL .PPM        0.00000                 :Borehole Salinity
FLEV .F          8.00000                 :Depth of Drilling Fluid Level to LMF (Log Measured From)
MCST .DEGF      68.00000                 :Mudcake Sample Temperature
MFST .DEGF      68.00000                 :Mud Filtrate Sample Temperature
MRT  .DEGF     226.82001                 :Maximum Recorded Temperature
MST  .DEGF      68.00000                 :Mud Sample Temperature
RMCS .OHMM    -999.25000                 :Resistivity of Mud Cake Sample
RMS  .OHMM       0.20000                 :Resistivity of Mud Sample
RW   .OHMM       1.00000                 :Connate Water Resistivity
TDD  .F       3272.00000                 :Driller Total Depth
TDL  .F       3272.00000                 :Logger Total Depth
TLI  .F         10.00000                 :Top Log Interval
HIDE .                                   :Header Identifier
MATR .        LIME                       :Rock Matrix for Neutron Porosity Corrections
FNUM .           1.00000                 :F-Numerator for Formation Factor Formula
FEXP .           2.00000                 :Exponent "m" for Formation Factor Formula
DFT  .        WATER                      :Drilling Fluid Type
DFPH .        -999.25000                 :Drilling Fluid pH
MCSS .        Pressed                    :Mudcake Sample Source
MFSS .                                   :Mud Filtrate Sample Source
FD   .G/C3       1.00000                 :Fluid Density
MSS  .        Active Tank                :Mud Sample Source
OS1  .                                   :Other Services Line 1
OS2  .                                   :Other Services Line 2
OS3  .                                   :Other Services Line 3
OS4  .                                   :Other Services Line 4
OS5  .                                   :Other Services Line 5
R1   .        Toolstring ran as per tool sketch. :Remarks Line 1
R2   .                                   :Remarks Line 2
R3   .                                   :Remarks Line 3
R4   .                                   :Remarks Line 4
R5   .                                   :Remarks Line 5
R6   .                                   :Remarks Line 6
R7   .                                   :Remarks Line 7
R8   .                                   :Remarks Line 8
TCS  .                                   :Time Circulation Stopped
TLAB .        11 27 00                   :Time Logger At Bottom
EPD  .C3         5536.000000             :Elevation of Permanent Datum above Mean Sea Level
APD  .F           0.000000               :Elevation of Depth Reference (LMF) above Permanent Datum
#-----------------------------------------------------------------------------
~CURVE INFORMATION
#MNEM.UNIT   API CODE                                  DESCRIPTION
#---- -----  --------                                  -----------------------
DEPT .F                                                :DEPTH (BOREHOLE) {F10.1}
BI   .                                                 :Bond Index {F11.4}
CBL  .MV                                               :CBL Amplitude {F11.4}
CCL  .                                                 :Casing Collar Locator Amplitude {F11.4}
CDF  .LBF                                              :Calibrated Downhole Force {F11.4}
CTEM .DEGF                                             :Cartridge Temperature {F11.4}
DCAL .IN                                               :Differential Caliper {F11.4}
ECGR .GAPI                                             :Environmentally Corrected Gamma Ray {F11.4}
ED   .F                                                :East Departure {F11.4}
GR   .GAPI                                             :Gamma Ray {F11.4}
GTEM .DEGF                                             :Generalized Borehole Temperature {F11.4}
HGR  .GAPI                                             :High Resolution Gamma Ray {F11.4}
ND   .F                                                :North Departure {F11.4}
STIT .F                                                :Stuck Tool Indicator, Total {F11.4}
TENS .LBF                                              :Cable Tension {F11.4}
#-----------------------------------------------------------------------------
# 
#     DEPT        BI        CBL        CCL        CDF        CTEM       DCAL       ECGR        ED         GR        GTEM       HGR         ND        STIT       TENS
#
~A  
# ...
     231.0     0.8291     1.6436    -0.0829  2410.5503   128.0000     0.0000    52.8686     0.0000    53.3571    79.2251    51.1200     0.0000     0.0000   817.7857
     231.5     0.7993     1.8813    -0.0340  2154.9966   128.0000     0.0000    54.7795     0.0000    55.2857    79.2494    58.3200     0.0000     0.0000   812.3077
     232.0     0.7761     2.0896     0.0391  2197.6758   128.8322     0.0000    56.5630     0.0000    57.0857    79.2737    56.8800     0.0000     0.0000   796.7858
     232.5     0.7571     2.2779     0.0782  2315.1721   129.9765     0.0000    55.4164     0.0000    55.9286    79.2980    56.1600     0.0000     0.0000   783.8461
     233.0     0.7500     2.3525    -0.0170  2277.5515   129.9765     0.0000    56.5375     0.0000    57.0600    79.3223    54.9900     0.0000     0.0000   782.0000
     233.5     0.7626     2.2214    -0.0098  2188.4771   129.9765     0.0000    56.5375     0.0000    57.0600    79.3466    60.4800     0.0000     0.0000   791.2143
     234.0     0.7748     2.1015    -0.0612  2246.9661   129.9765     0.0000    57.1745     0.0000    57.7029    79.3709    56.6100     0.0000     0.0000   788.8462
     234.5     0.7889     1.9716     0.0293  2204.4556   129.9765     0.0000    54.5247     0.0000    55.0286    79.3952    55.5300     0.0000     0.0000   782.5000
     235.0     0.8089     1.8008     0.0393  2394.2737   129.9765     0.0000    54.6521     0.0000    55.1571    79.4195    53.1900     0.0000     0.0000   785.2308
     235.5     0.7875     1.9845     0.0763  2303.4434   129.9765     0.0000    58.4739     0.0000    59.0143    79.4438    56.5200     0.0000     0.0000   793.4286
     236.0     0.7570     2.2788    -0.0098  2363.8528   129.9765     0.0000    65.0984     0.0000    65.7000    79.4681    68.2200     0.0000     0.0000   785.0000
     236.5     0.7556     2.2931    -0.0491  2216.5610   129.9765     0.0000    63.4423     0.0000    64.0286    79.4924    72.0900     0.0000     0.0000   795.4286
     237.0     0.7564     2.2846    -0.0073  2309.6899   129.9765     0.0000    61.9135     0.0000    62.4857    79.5167    52.0200     0.0000     0.0000   792.9231
     237.5     0.7596     2.2516     0.0048  2319.2695   129.9765     0.0000    58.6013     0.0000    59.1429    79.5410    63.9000     0.0000     0.0000   796.5714
     238.0     0.7551     2.2988     0.0395  2250.9873   129.9765     0.0000    61.2766     0.0000    61.8429    79.5653    63.6300     0.0000     0.0000   785.2308
     238.5     0.7460     2.3946    -0.0048  2259.2834   129.9765     0.0000    63.4423     0.0000    64.0286    79.5896    59.7600     0.0000     0.0000   793.5715
     239.0     0.7482     2.3713    -0.0564  2260.5994   129.9765     0.0000    65.7354     0.0000    66.3429    79.6139    69.7500     0.0000     0.0000   798.7692
     239.5     0.7407     2.4534     0.0295  2220.0588   129.9765     0.0000    68.1049     0.0000    68.7343    79.6382    68.4000     0.0000     0.0000   801.6154
     240.0     0.7335     2.5342    -0.0294  2289.6995   129.9765     0.0000    65.3022     0.0000    65.9057    79.6625    66.9600     0.0000     0.0000   800.4286
     240.5     0.7457     2.3978     0.0492  2252.5791   129.9765     0.0000    63.6461     0.0000    64.2343    79.6867    61.5600     0.0000     0.0000   802.4615
     241.0     0.7551     2.2985     0.0614  2241.3960   129.9765     0.0000    60.0026     0.0000    60.5571    79.7110    64.5300     0.0000     0.0000   812.7143
     241.5     0.7517     2.3338    -0.0912  2273.8035   129.9765     0.0000    60.7670     0.0000    61.3286    79.7353    56.0700     0.0000     0.0000   819.5385
     242.0     0.7494     2.3589    -0.1006  2290.6094   129.9765     0.0000    61.4040     0.0000    61.9714    79.7596    62.9100     0.0000     0.0000   802.8572
     242.5     0.7483     2.3699    -0.0462  2254.3816   129.9765     0.0000    61.0048     0.0000    61.5686    79.7839    66.6900     0.0000     0.0000   807.0000
     243.0     0.7595     2.2530     0.0365  2312.3562   129.9765     0.0000    58.7117     0.0000    59.2543    79.8082    54.7200     0.0000     0.0000   793.2143
     243.5     0.7703     2.1451     0.0662  2401.0217   129.9765     0.0000    53.7433     0.0000    54.2400    79.8325    55.6200     0.0000     0.0000   802.6923
     244.0     0.7695     2.1528    -0.0836  2287.2869   129.9765     0.0000    55.9260     0.0000    56.4429    79.8568    50.7600     0.0000     0.0000   807.1429
     244.5     0.7645     2.2028    -0.0437  2171.3191   129.9765     0.0000    58.9835     0.0000    59.5286    79.8811    61.5600     0.0000     0.0000   808.5385
     245.0     0.7516     2.3351     0.0342  2186.1855   129.9765     0.0000    63.7990     0.0000    64.3886    79.9054    67.5000     0.0000     0.0000   799.5000
     245.5     0.7467     2.3878     0.0271  2279.6406   129.9765     0.0000    61.6333     0.0000    62.2029    79.9297    65.8800     0.0000     0.0000   800.0769
     246.0     0.7381     2.4827    -0.0121  2245.6682   129.9765     0.0000    58.0662     0.0000    58.6029    79.9540    55.0800     0.0000     0.0000   793.2143
     246.5     0.7272     2.6080    -0.0370  2113.0610   129.9765     0.0000    55.1617     0.0000    55.6714    79.9783    54.1800     0.0000     0.0000   780.9231
     247.0     0.7387     2.4757    -0.0271  2265.0366   129.9765     0.0000    52.6138     0.0000    53.1000    80.0026    57.3300     0.0000     0.0000   782.7143
     247.5     0.7578     2.2699     0.0198  2258.9675   129.9765     0.0000    51.6371     0.0000    52.1143    80.0269    47.2500     0.0000     0.0000   789.7692
     248.0     0.7528     2.3225    -0.0148  2191.1406   129.9765     0.0000    48.8344     0.0000    49.2857    80.0512    52.2000     0.0000     0.0000   793.2857
     248.5     0.7332     2.5384     0.0273  2243.5730   129.9765     0.0000    48.4522     0.0000    48.9000    80.0755    48.7800     0.0000     0.0000   795.6923
     249.0     0.7398     2.4628    -0.0572  2253.9780   129.9765     0.0000    44.8427     0.0000    45.2571    80.0998    45.5400     0.0000     0.0000   795.1429
     249.5     0.7670     2.1776    -0.0447  2213.4382   129.9765     0.0000    37.0717     0.0000    37.4143    80.1241    40.5000     0.0000     0.0000   796.5385
     250.0     0.7661     2.1867    -0.0546  2380.3457   129.9765     0.0000    30.4472     0.0000    30.7286    80.1484    25.2900     0.0000     0.0000   793.6429
     250.5     0.7518     2.3334    -0.0122  2243.8525   129.9765     0.0000    26.6848     0.0000    26.9314    80.1727    25.9200     0.0000     0.0000   794.0770
     251.0     0.7563     2.2862     0.0270  2304.5605   129.9765     0.0000    26.5574     0.0000    26.8029    80.1970    29.8800     0.0000     0.0000   801.9231
     251.5     0.7660     2.1873     0.0591  2113.5427   129.9765     0.0000    29.7423     0.0000    30.0171    80.2213    23.9400     0.0000     0.0000   796.6429
     252.0     0.7710     2.1385    -0.0121  2339.7231   129.9765     0.0000    31.8485     0.0000    32.1429    80.2456    35.2800     0.0000     0.0000   802.5385
     252.5     0.7635     2.2123    -0.0048  2322.0183   129.9765     0.0000    35.2882     0.0000    35.6143    80.2699    36.9000     0.0000     0.0000   797.8572
     253.0     0.7582     2.2660    -0.0295  2426.9160   129.9765     0.0000    37.0717     0.0000    37.4143    80.2942    35.8200     0.0000     0.0000   804.1539
     253.5     0.7623     2.2246    -0.0098  2266.6057   129.9765     0.0000    39.6026     0.0000    39.9686    80.3185    41.2200     0.0000     0.0000   791.1428
     254.0     0.7612     2.2357     0.0294  2345.7986   129.9765     0.0000    40.1122     0.0000    40.4829    80.3428    43.9200     0.0000     0.0000   798.4615
     254.5     0.7643     2.2042    -0.0366  2344.3044   130.2539     0.0000    38.5834     0.0000    38.9400    80.3671    36.3600     0.0000     0.0000   787.6429
     255.0     0.7631     2.2162     0.0709  2240.7102   130.2539     0.0000    39.4157     0.0000    39.7800    80.3914    36.1800     0.0000     0.0000   785.2308
