~VERSION INFORMATION
VERS.           1.2   :CWLS Log ASCII Standard - VERSION 1.2
WRAP.           NO    :One Line per depth step
PROD.  Schlumberger   :LAS Producer
PROG.  DLIS to ASCII 2.3                               :LAS Program name and version
CREA.        2019/04/17 13:32                          :LAS Creation date {YYYY/MM/DD hh:mm}
DLIS_CREA.  2019-Apr-17 13:22                          :DLIS Creation date and time {YYYY-MMM-DD hh:mm}
SOURCE.     E9OJ-00005_University-of-Utah_78-32_CBL-VDL_17APR19_Main.dlis  :DLIS File Name
FILE-ID.     ConPr_R01_L003Up_DSLT_SGT_CAL             :File Identification Number
#--------------------------------------------------
~WELL INFORMATION
#MNEM.UNIT      DATA             DESCRIPTION
#---- ------ --------------   -----------------------------
STRT .F      10.5            :START DEPTH     
STOP .F      3230.0          :STOP DEPTH     
STEP .F       0.5            :STEP     
NULL .          -999.25      :NULL VALUE
COMP .                 COMPANY:  University of Utah                 
WELL .                    WELL:  78-32                              
FLD  .                   FIELD:  None                               
LOC  .                LOCATION:                                     
CNTY .                  COUNTY:  Beaver                             
STAT .                   STATE:  Utah                               
CTRY .                 COUNTRY:  USA                                
SRVC .         SERVICE COMPANY:  Schlumberger                       
LATI .DEG             LATITUDE:  38.500182 degrees                  
LONG .DEG            LONGITUDE:  -112.88320 degrees                 
API  .              API NUMBER:                                     
DATE .                LOG DATE:  17-Apr-2019
UWI  .          UNIQUE WELL ID:                                     
#-----------------------------------------------------------------------------
~PARAMETER INFORMATION
#MNEM.UNIT    VALUE                      DESCRIPTION
#---- -----   --------------------       ------------------------
CN   .        University of Utah         :Company Name
WN   .        78-32                      :Well Name
FN   .        None                       :Field Name
FL   .                                   :Field Location
FL1  .                                   :Field Location, Line 1
COUN .        Beaver                     :County or Parish
STAT .        Utah                       :State or Province
NATI .        USA                        :Nation
DATE .        17-Apr-2019                :Tools Above Rotary Table Date
APIN .                                   :API Well Number
SECT .                                   :Section
TOWN .                                   :Township
RANG .                                   :Range
DMF  .        GL                         :Drilling Measured From (Name of Drilling Elevation Reference)
LMF  .        GL                         :Logging Measured From (Name of Logging Elevation Reference)
PDAT .        GL                         :Permanent Datum
ENGI .        Alan Moreno                :Engineer s Name
WITN .        Virgil Welch               :Witness s Name
LATI .        38.500182 degrees          :Latitude
LONG .        -112.88320 degrees         :Longitude
LUL  .                                   :Logging Unit Location
LUN  .        9102                       :Logging Unit Number
RUN  .        ONE                        :Run Number
SON  .        E9OJ-00005                 :Service Order Number
BHT  .DEGF     224.86000                 :Bottom Hole Temperature
BS   .IN         8.75000                 :Bit Size
MDEN .G/C3       2.71000                 :Matrix Density for Density Porosity
DFD  .LB/G       8.40000                 :Drilling Fluid Density
DFV  .S       -999.25000                 :Drilling Fluid Viscosity
DFL  .C3      -999.25000                 :Drilling Fluid Loss
RMFS .OHMM       0.15000                 :Resistivity of Mud Filtrate Sample
EKB  .F       5536.00000                 :Elevation of Kelly Bushing
EGL  .F       5536.00000                 :Elevation of Ground Level
BLI  .F       3228.00000                 :Bottom Log Interval
BSAL .PPM        0.00000                 :Borehole Salinity
FLEV .F          8.00000                 :Depth of Drilling Fluid Level to LMF (Log Measured From)
MCST .DEGF      68.00000                 :Mudcake Sample Temperature
MFST .DEGF      68.00000                 :Mud Filtrate Sample Temperature
MRT  .DEGF     226.82001                 :Maximum Recorded Temperature
MST  .DEGF      68.00000                 :Mud Sample Temperature
RMCS .OHMM    -999.25000                 :Resistivity of Mud Cake Sample
RMS  .OHMM       0.20000                 :Resistivity of Mud Sample
RW   .OHMM       1.00000                 :Connate Water Resistivity
TDD  .F       3272.00000                 :Driller Total Depth
TDL  .F       3272.00000                 :Logger Total Depth
TLI  .F         10.00000                 :Top Log Interval
HIDE .                                   :Header Identifier
MATR .        LIME                       :Rock Matrix for Neutron Porosity Corrections
FNUM .           1.00000                 :F-Numerator for Formation Factor Formula
FEXP .           2.00000                 :Exponent "m" for Formation Factor Formula
DFT  .        WATER                      :Drilling Fluid Type
DFPH .        -999.25000                 :Drilling Fluid pH
MCSS .        Pressed                    :Mudcake Sample Source
MFSS .                                   :Mud Filtrate Sample Source
FD   .G/C3       1.00000                 :Fluid Density
MSS  .        Active Tank                :Mud Sample Source
OS1  .                                   :Other Services Line 1
OS2  .                                   :Other Services Line 2
OS3  .                                   :Other Services Line 3
OS4  .                                   :Other Services Line 4
OS5  .                                   :Other Services Line 5
R1   .        Toolstring ran as per tool sketch. :Remarks Line 1
R2   .                                   :Remarks Line 2
R3   .                                   :Remarks Line 3
R4   .                                   :Remarks Line 4
R5   .                                   :Remarks Line 5
R6   .                                   :Remarks Line 6
R7   .                                   :Remarks Line 7
R8   .                                   :Remarks Line 8
TCS  .                                   :Time Circulation Stopped
TLAB .        11 27 00                   :Time Logger At Bottom
EPD  .C3         5536.000000             :Elevation of Permanent Datum above Mean Sea Level
APD  .F           0.000000               :Elevation of Depth Reference (LMF) above Permanent Datum
#-----------------------------------------------------------------------------
~CURVE INFORMATION
#MNEM.UNIT   API CODE                                  DESCRIPTION
#---- -----  --------                                  -----------------------
DEPT .F                                                :DEPTH (BOREHOLE) {F10.1}
BI   .                                                 :Bond Index {F11.4}
CBL  .MV                                               :CBL Amplitude {F11.4}
CCL  .                                                 :Casing Collar Locator Amplitude {F11.4}
CDF  .LBF                                              :Calibrated Downhole Force {F11.4}
CTEM .DEGF                                             :Cartridge Temperature {F11.4}
DCAL .IN                                               :Differential Caliper {F11.4}
ECGR .GAPI                                             :Environmentally Corrected Gamma Ray {F11.4}
ED   .F                                                :East Departure {F11.4}
GR   .GAPI                                             :Gamma Ray {F11.4}
GTEM .DEGF                                             :Generalized Borehole Temperature {F11.4}
HGR  .GAPI                                             :High Resolution Gamma Ray {F11.4}
ND   .F                                                :North Departure {F11.4}
STIT .F                                                :Stuck Tool Indicator, Total {F11.4}
TENS .LBF                                              :Cable Tension {F11.4}
#-----------------------------------------------------------------------------
# 
#     DEPT        BI        CBL        CCL        CDF        CTEM       DCAL       ECGR        ED         GR        GTEM       HGR         ND        STIT       TENS
#
~A  
# ...
    2558.5     0.5481     5.8740    -0.0029  2026.5802   218.9176     0.0000   119.9416     0.0000   121.0500   192.3266   118.8000     0.0000     0.0000  1617.7501
    2559.0     0.5592     5.5852    -0.0059  2069.4805   218.9176     0.0000   114.6901     0.0000   115.7500   192.3509   115.8000     0.0000     0.0000  1629.1250
    2559.5     0.5564     5.6573     0.0014  2110.2063   218.9176     0.0000   114.4672     0.0000   115.5250   192.3752   111.0000     0.0000     0.0000  1597.5000
    2560.0     0.5567     5.6499     0.0000  2007.6235   218.9176     0.0000   108.1753     0.0000   109.1750   192.3995   118.5000     0.0000     0.0000  1590.7778
    2560.5     0.5775     5.1408     0.0072  2114.6604   218.9176     0.0000   104.5092     0.0000   105.4750   192.4238    98.4000     0.0000     0.0000  1614.5000
    2561.0     0.5999     4.6453     0.0029  1996.7625   218.9176     0.0000    98.7871     0.0000    99.7000   192.4481    96.9000     0.0000     0.0000  1623.2500
    2561.5     0.5552     5.6893    -0.0118  2186.0532   218.9176     0.0000   100.3972     0.0000   101.3250   192.4724   100.8000     0.0000     0.0000  1594.6250
    2562.0     0.5096     6.9936    -0.0118  2165.5598   218.9176     0.0000   100.8926     0.0000   101.8250   192.4967   103.5000     0.0000     0.0000  1565.3750
    2562.5     0.5157     6.8045    -0.0073  2046.5922   218.9176     0.0000    99.2577     0.0000   100.1750   192.5210   101.4000     0.0000     0.0000  1583.7500
    2563.0     0.4943     7.4967    -0.1420  2085.1702   218.9176     0.0000    96.0622     0.0000    96.9500   192.5453    95.7000     0.0000     0.0000  1609.1112
    2563.5     0.4671     8.4817     2.0641  1872.2512   218.9176     0.0000   101.1403     0.0000   102.0750   192.5696    93.6000     0.0000     0.0000  1609.6250
    2564.0     0.4753     8.1698     0.0190  2108.0417   218.9176     0.0000    99.8027     0.0000   100.7250   192.5939   120.9000     0.0000     0.0000  1578.3750
    2564.5     0.4454     9.3586    -0.0087  2003.3574   218.9176     0.0000   106.1441     0.0000   107.1250   192.6182    93.3000     0.0000     0.0000  1593.1250
    2565.0     0.4225    10.3783    -0.0014  2206.8628   218.9176     0.0000   100.5706     0.0000   101.5000   192.6425   112.8000     0.0000     0.0000  1607.1112
    2565.5     0.4915     7.5932    -0.0014  2142.6821   218.9176     0.0000   102.3541     0.0000   103.3000   192.6668   102.9000     0.0000     0.0000  1591.7501
    2566.0     0.5780     5.1305     0.0029  2081.5818   218.9176     0.0000    99.8770     0.0000   100.8000   192.6911    97.2000     0.0000     0.0000  1579.0000
    2566.5     0.5864     4.9374     0.0059  2198.7361   218.9176     0.0000    99.9761     0.0000   100.9000   192.7153   105.9000     0.0000     0.0000  1604.3750
    2567.0     0.5946     4.7574     0.0131  2217.7346   218.9176     0.0000    97.5238     0.0000    98.4250   192.7397   100.2000     0.0000     0.0000  1616.3750
    2567.5     0.6137     4.3632    -0.0014  2074.3843   218.9176     0.0000    93.0650     0.0000    93.9250   192.7640    91.2000     0.0000     0.0000  1601.6250
    2568.0     0.6188     4.2638     0.0146  2073.8931   218.9176     0.0000    90.5135     0.0000    91.3500   192.7883    91.8000     0.0000     0.0000  1587.0000
    2568.5     0.6035     4.5702    -0.0059  2024.0394   218.9176     0.0000    89.7952     0.0000    90.6250   192.8126    93.9000     0.0000     0.0000  1589.7500
    2569.0     0.5904     4.8480    -0.0014  1992.7762   218.9176     0.0000    93.3622     0.0000    94.2250   192.8369    87.6000     0.0000     0.0000  1605.5557
    2569.5     0.5945     4.7588    -0.0029  2022.2513   218.9176     0.0000    95.7155     0.0000    96.6000   192.8611   103.2000     0.0000     0.0000  1600.6250
    2570.0     0.6255     4.1358     0.0044  2031.1332   218.9176     0.0000    95.9879     0.0000    96.8750   192.8854    99.6000     0.0000     0.0000  1601.7500
    2570.5     0.6342     3.9758     0.0072  2157.2996   218.9176     0.0000    95.3934     0.0000    96.2750   192.9097    86.1000     0.0000     0.0000  1597.0000
    2571.0     0.6066     4.5055    -0.0044  1982.2786   218.9176     0.0000    96.3843     0.0000    97.2750   192.9340   100.8000     0.0000     0.0000  1599.7500
    2571.5     0.5943     4.7641     0.0072  2186.0305   218.9176     0.0000   101.8587     0.0000   102.8000   192.9583    99.3000     0.0000     0.0000  1600.6251
    2572.0     0.5891     4.8772    -0.0059  2033.4810   218.9176     0.0000   105.7973     0.0000   106.7750   192.9826   105.0000     0.0000     0.0000  1604.7778
    2572.5     0.5702     5.3150    -0.0059  2166.2603   218.9176     0.0000   112.1387     0.0000   113.1750   193.0069   112.8000     0.0000     0.0000  1615.0000
    2573.0     0.5570     5.6409     0.0118  2176.9775   218.9176     0.0000   115.8048     0.0000   116.8750   193.0312   121.8000     0.0000     0.0000  1613.7500
    2573.5     0.5617     5.5229     0.0087  2027.9707   218.9176     0.0000   109.8845     0.0000   110.9000   193.0555   115.5000     0.0000     0.0000  1597.7501
    2574.0     0.5625     5.5029    -0.0176  2109.1294   218.9176     0.0000   100.1990     0.0000   101.1250   193.0798    94.8000     0.0000     0.0000  1584.7500
    2574.5     0.5537     5.7262     0.0000  1951.7489   218.9176     0.0000    94.7494     0.0000    95.6250   193.1041    89.4000     0.0000     0.0000  1609.5001
    2575.0     0.5467     5.9114     0.0014  1931.0447   218.9176     0.0000    91.3062     0.0000    92.1500   193.1284    99.6000     0.0000     0.0000  1612.3750
    2575.5     0.5367     6.1847    -0.0014  2063.7488   218.9176     0.0000    93.4613     0.0000    94.3250   193.1527    84.0000     0.0000     0.0000  1597.1111
    2576.0     0.5227     6.5906     0.0072  2096.4255   218.9176     0.0000    97.3503     0.0000    98.2500   193.1770    99.0000     0.0000     0.0000  1557.8750
    2576.5     0.4975     7.3889     0.0059  2038.5771   218.9176     0.0000   103.5679     0.0000   104.5250   193.2013   110.1000     0.0000     0.0000  1593.0000
    2577.0     0.4515     9.1011    -0.0014  2100.1895   218.9176     0.0000   105.6487     0.0000   106.6250   193.2256   103.2000     0.0000     0.0000  1605.8750
    2577.5     0.4070    11.1388    -0.0029  2200.4404   218.9176     0.0000   100.5706     0.0000   101.5000   193.2499   104.1000     0.0000     0.0000  1591.1250
    2578.0     0.3801    12.5792    -0.0014  2152.8452   218.9176     0.0000    96.5824     0.0000    97.4750   193.2742    96.0000     0.0000     0.0000  1573.2500
    2578.5     0.3608    13.7297    -0.0103  2090.8313   218.9176     0.0000    91.7273     0.0000    92.5750   193.2985    93.0000     0.0000     0.0000  1589.2500
    2579.0     0.3408    15.0308     0.0014  2090.6328   218.9176     0.0000    97.9201     0.0000    98.8250   193.3228    90.6000     0.0000     0.0000  1598.2222
    2579.5     0.3297    15.8071    -0.0044  2162.0566   218.9176     0.0000   106.2679     0.0000   107.2500   193.3471   114.9000     0.0000     0.0000  1589.5000
    2580.0     0.3319    15.6496     0.0044  2090.1519   218.9176     0.0000   121.8242     0.0000   122.9500   193.3714   116.4000     0.0000     0.0000  1578.1251
    2580.5     0.3335    15.5418    -0.0014  1975.6809   218.9176     0.0000   129.1069     0.0000   130.3000   193.3957   139.5000     0.0000     0.0000  1603.7500
    2581.0     0.3215    16.4087     0.0000  1950.2208   218.9176     0.0000   133.4666     0.0000   134.7000   193.4200   136.8000     0.0000     0.0000  1609.8751
    2581.5     0.2978    18.2669     0.0044  2002.1970   218.9176     0.0000   125.0444     0.0000   126.2000   193.4443   129.9000     0.0000     0.0000  1578.2500
    2582.0     0.2703    20.6917    -0.0044  2033.0836   218.9176     0.0000   109.7359     0.0000   110.7500   193.4686   112.2000     0.0000     0.0000  1575.7778
    2582.5     0.2450    23.2131     0.0073  2041.5111   218.9176     0.0000    94.0806     0.0000    94.9500   193.4929    91.8000     0.0000     0.0000  1590.6250
