~VERSION INFORMATION
VERS.           1.2   :CWLS Log ASCII Standard - VERSION 1.2
WRAP.           NO    :One Line per depth step
PROD.  Schlumberger   :LAS Producer
PROG.  DLIS to ASCII 2.3                               :LAS Program name and version
CREA.        2019/04/17 13:32                          :LAS Creation date {YYYY/MM/DD hh:mm}
DLIS_CREA.  2019-Apr-17 13:22                          :DLIS Creation date and time {YYYY-MMM-DD hh:mm}
SOURCE.     E9OJ-00005_University-of-Utah_78-32_CBL-VDL_17APR19_Main.dlis  :DLIS File Name
FILE-ID.     ConPr_R01_L003Up_DSLT_SGT_CAL             :File Identification Number
#--------------------------------------------------
~WELL INFORMATION
#MNEM.UNIT      DATA             DESCRIPTION
#---- ------ --------------   -----------------------------
STRT .F      10.5            :START DEPTH     
STOP .F      3230.0          :STOP DEPTH     
STEP .F       0.5            :STEP     
NULL .          -999.25      :NULL VALUE
COMP .                 COMPANY:  University of Utah                 
WELL .                    WELL:  78-32                              
FLD  .                   FIELD:  None                               
LOC  .                LOCATION:                                     
CNTY .                  COUNTY:  Beaver                             
STAT .                   STATE:  Utah                               
CTRY .                 COUNTRY:  USA                                
SRVC .         SERVICE COMPANY:  Schlumberger                       
LATI .DEG             LATITUDE:  38.500182 degrees                  
LONG .DEG            LONGITUDE:  -112.88320 degrees                 
API  .              API NUMBER:                                     
DATE .                LOG DATE:  17-Apr-2019
UWI  .          UNIQUE WELL ID:                                     
#-----------------------------------------------------------------------------
~PARAMETER INFORMATION
#MNEM.UNIT    VALUE                      DESCRIPTION
#---- -----   --------------------       ------------------------
CN   .        University of Utah         :Company Name
WN   .        78-32                      :Well Name
FN   .        None                       :Field Name
FL   .                                   :Field Location
FL1  .                                   :Field Location, Line 1
COUN .        Beaver                     :County or Parish
STAT .        Utah                       :State or Province
NATI .        USA                        :Nation
DATE .        17-Apr-2019                :Tools Above Rotary Table Date
APIN .                                   :API Well Number
SECT .                                   :Section
TOWN .                                   :Township
RANG .                                   :Range
DMF  .        GL                         :Drilling Measured From (Name of Drilling Elevation Reference)
LMF  .        GL                         :Logging Measured From (Name of Logging Elevation Reference)
PDAT .        GL                         :Permanent Datum
ENGI .        Alan Moreno                :Engineer s Name
WITN .        Virgil Welch               :Witness s Name
LATI .        38.500182 degrees          :Latitude
LONG .        -112.88320 degrees         :Longitude
LUL  .                                   :Logging Unit Location
LUN  .        9102                       :Logging Unit Number
RUN  .        ONE                        :Run Number
SON  .        E9OJ-00005                 :Service Order Number
BHT  .DEGF     224.86000                 :Bottom Hole Temperature
BS   .IN         8.75000                 :Bit Size
MDEN .G/C3       2.71000                 :Matrix Density for Density Porosity
DFD  .LB/G       8.40000                 :Drilling Fluid Density
DFV  .S       -999.25000                 :Drilling Fluid Viscosity
DFL  .C3      -999.25000                 :Drilling Fluid Loss
RMFS .OHMM       0.15000                 :Resistivity of Mud Filtrate Sample
EKB  .F       5536.00000                 :Elevation of Kelly Bushing
EGL  .F       5536.00000                 :Elevation of Ground Level
BLI  .F       3228.00000                 :Bottom Log Interval
BSAL .PPM        0.00000                 :Borehole Salinity
FLEV .F          8.00000                 :Depth of Drilling Fluid Level to LMF (Log Measured From)
MCST .DEGF      68.00000                 :Mudcake Sample Temperature
MFST .DEGF      68.00000                 :Mud Filtrate Sample Temperature
MRT  .DEGF     226.82001                 :Maximum Recorded Temperature
MST  .DEGF      68.00000                 :Mud Sample Temperature
RMCS .OHMM    -999.25000                 :Resistivity of Mud Cake Sample
RMS  .OHMM       0.20000                 :Resistivity of Mud Sample
RW   .OHMM       1.00000                 :Connate Water Resistivity
TDD  .F       3272.00000                 :Driller Total Depth
TDL  .F       3272.00000                 :Logger Total Depth
TLI  .F         10.00000                 :Top Log Interval
HIDE .                                   :Header Identifier
MATR .        LIME                       :Rock Matrix for Neutron Porosity Corrections
FNUM .           1.00000                 :F-Numerator for Formation Factor Formula
FEXP .           2.00000                 :Exponent "m" for Formation Factor Formula
DFT  .        WATER                      :Drilling Fluid Type
DFPH .        -999.25000                 :Drilling Fluid pH
MCSS .        Pressed                    :Mudcake Sample Source
MFSS .                                   :Mud Filtrate Sample Source
FD   .G/C3       1.00000                 :Fluid Density
MSS  .        Active Tank                :Mud Sample Source
OS1  .                                   :Other Services Line 1
OS2  .                                   :Other Services Line 2
OS3  .                                   :Other Services Line 3
OS4  .                                   :Other Services Line 4
OS5  .                                   :Other Services Line 5
R1   .        Toolstring ran as per tool sketch. :Remarks Line 1
R2   .                                   :Remarks Line 2
R3   .                                   :Remarks Line 3
R4   .                                   :Remarks Line 4
R5   .                                   :Remarks Line 5
R6   .                                   :Remarks Line 6
R7   .                                   :Remarks Line 7
R8   .                                   :Remarks Line 8
TCS  .                                   :Time Circulation Stopped
TLAB .        11 27 00                   :Time Logger At Bottom
EPD  .C3         5536.000000             :Elevation of Permanent Datum above Mean Sea Level
APD  .F           0.000000               :Elevation of Depth Reference (LMF) above Permanent Datum
#-----------------------------------------------------------------------------
~CURVE INFORMATION
#MNEM.UNIT   API CODE                                  DESCRIPTION
#---- -----  --------                                  -----------------------
DEPT .F                                                :DEPTH (BOREHOLE) {F10.1}
BI   .                                                 :Bond Index {F11.4}
CBL  .MV                                               :CBL Amplitude {F11.4}
CCL  .                                                 :Casing Collar Locator Amplitude {F11.4}
CDF  .LBF                                              :Calibrated Downhole Force {F11.4}
CTEM .DEGF                                             :Cartridge Temperature {F11.4}
DCAL .IN                                               :Differential Caliper {F11.4}
ECGR .GAPI                                             :Environmentally Corrected Gamma Ray {F11.4}
ED   .F                                                :East Departure {F11.4}
GR   .GAPI                                             :Gamma Ray {F11.4}
GTEM .DEGF                                             :Generalized Borehole Temperature {F11.4}
HGR  .GAPI                                             :High Resolution Gamma Ray {F11.4}
ND   .F                                                :North Departure {F11.4}
STIT .F                                                :Stuck Tool Indicator, Total {F11.4}
TENS .LBF                                              :Cable Tension {F11.4}
#-----------------------------------------------------------------------------
# 
#     DEPT        BI        CBL        CCL        CDF        CTEM       DCAL       ECGR        ED         GR        GTEM       HGR         ND        STIT       TENS
#
~A  
# ...
    1701.0     0.1950    29.1172     0.0043  2124.0803   187.2941     0.0000    88.8043     0.0000    89.6250   150.6577    79.2000     0.0000     0.0000  1331.7501
    1701.5     0.1871    30.1774     0.0144  2224.0403   187.2941     0.0000    95.0466     0.0000    95.9250   150.6819   106.5000     0.0000     0.0000  1335.8750
    1702.0     0.1789    31.3233     0.0129  2316.1902   187.2941     0.0000    94.8485     0.0000    95.7250   150.7062   104.4000     0.0000     0.0000  1341.1250
    1702.5     0.1792    31.2810     0.0086  2211.1577   187.2941     0.0000    89.2750     0.0000    90.1000   150.7305    78.6000     0.0000     0.0000  1346.1250
    1703.0     0.1796    31.2252    -0.0086  2315.8022   187.2941     0.0000    82.9088     0.0000    83.6750   150.7548    86.1000     0.0000     0.0000  1334.1250
    1703.5     0.1794    31.2503    -0.0100  2163.7192   187.2941     0.0000    87.7144     0.0000    88.5250   150.7791    84.0000     0.0000     0.0000  1353.1250
    1704.0     0.1820    30.8870    -0.0043  2152.0715   187.2941     0.0000    86.6492     0.0000    87.4500   150.8034    93.3000     0.0000     0.0000  1350.3751
    1704.5     0.1850    30.4633    -0.0043  2200.0928   187.2941     0.0000    91.2319     0.0000    92.0750   150.8277    85.2000     0.0000     0.0000  1328.3750
    1705.0     0.1895    29.8529    -0.0129  2233.5095   187.2941     0.0000    90.5631     0.0000    91.4000   150.8520   100.8000     0.0000     0.0000  1341.0000
    1705.5     0.1956    29.0321    -0.0013  2299.1230   187.2941     0.0000    96.7063     0.0000    97.6000   150.8763    90.9000     0.0000     0.0000  1349.6250
    1706.0     0.2020    28.2045     0.0116  2147.1992   187.2941     0.0000    94.0310     0.0000    94.9000   150.9006   103.8000     0.0000     0.0000  1352.2500
    1706.5     0.2095    27.2627    -0.0043  2262.1328   187.2941     0.0000   100.5954     0.0000   101.5250   150.9249    89.4000     0.0000     0.0000  1343.0001
    1707.0     0.2175    26.2880    -0.0028  2265.0630   187.2941     0.0000   101.3137     0.0000   102.2500   150.9492   111.0000     0.0000     0.0000  1340.7500
    1707.5     0.2236    25.5738    -0.0071  2209.0247   187.2941     0.0000   109.7854     0.0000   110.8000   150.9735   102.0000     0.0000     0.0000  1342.1112
    1708.0     0.2238    25.5518    -0.0013  2226.7122   187.2941     0.0000   107.8037     0.0000   108.8000   150.9978   115.8000     0.0000     0.0000  1352.6250
    1708.5     0.2184    26.1855     0.0071  2174.0813   187.2941     0.0000   105.5743     0.0000   106.5500   151.0221   105.0000     0.0000     0.0000  1354.5000
    1709.0     0.2173    26.3174     0.0086  2310.6208   187.2941     0.0000   100.6697     0.0000   101.6000   151.0464   100.2000     0.0000     0.0000  1359.3750
    1709.5     0.2325    24.5663     0.0013  2365.1729   187.2941     0.0000    96.1118     0.0000    97.0000   151.0707   100.8000     0.0000     0.0000  1346.8750
    1710.0     0.2645    21.2481    -0.0058  2204.5632   187.2941     0.0000    99.4559     0.0000   100.3750   151.0950    91.2000     0.0000     0.0000  1345.0000
    1710.5     0.3019    17.9349    -0.0013  2281.8501   187.2941     0.0000    98.3412     0.0000    99.2500   151.1193   111.3000     0.0000     0.0000  1342.3750
    1711.0     0.3360    15.3636    -0.0013  2133.1570   187.2941     0.0000   101.3137     0.0000   102.2500   151.1436    96.6000     0.0000     0.0000  1342.2500
    1711.5     0.3574    13.9465     0.0013  2292.3718   187.2941     0.0000    99.3073     0.0000   100.2250   151.1679   100.2000     0.0000     0.0000  1360.6251
    1712.0     0.3580    13.9084    -0.0043  2272.5444   187.2941     0.0000   105.5496     0.0000   106.5250   151.1922   102.6000     0.0000     0.0000  1355.3750
    1712.5     0.3516    14.3134     0.0028  2262.6931   187.2941     0.0000   103.7661     0.0000   104.7250   151.2165   118.2000     0.0000     0.0000  1354.5000
    1713.0     0.3403    15.0649    -0.0028  2155.6121   187.2941     0.0000   100.6449     0.0000   101.5750   151.2408    94.8000     0.0000     0.0000  1357.7500
    1713.5     0.3267    16.0245     0.0013  2269.2820   187.2941     0.0000   100.5458     0.0000   101.4750   151.2651    93.3000     0.0000     0.0000  1358.3750
    1714.0     0.3178    16.6896     0.0013  2382.5505   187.2941     0.0000   102.4532     0.0000   103.4000   151.2894   115.8000     0.0000     0.0000  1346.6250
    1714.5     0.3032    17.8271    -0.0116  2357.0381   187.2941     0.0000   111.5937     0.0000   112.6250   151.3136    99.3000     0.0000     0.0000  1372.8751
    1715.0     0.2851    19.3548     0.0058  2271.7527   187.2941     0.0000   106.6395     0.0000   107.6250   151.3379   124.2000     0.0000     0.0000  1364.6250
    1715.5     0.2687    20.8503     0.0000  2292.7241   187.2941     0.0000   103.0725     0.0000   104.0250   151.3622   100.8000     0.0000     0.0000  1350.7500
    1716.0     0.2514    22.5445     0.0043  2186.2390   187.2941     0.0000    94.6008     0.0000    95.4750   151.3865    86.7000     0.0000     0.0000  1350.7500
    1716.5     0.2336    24.4385    -0.0028  2402.0928   187.2941     0.0000    93.2136     0.0000    94.0750   151.4108    97.5000     0.0000     0.0000  1350.3751
    1717.0     0.2208    25.9001    -0.0028  2243.5930   187.2941     0.0000    98.1182     0.0000    99.0250   151.4352    96.6000     0.0000     0.0000  1343.7500
    1717.5     0.2159    26.4869    -0.0013  2246.3940   187.2941     0.0000   103.0229     0.0000   103.9750   151.4594   104.4000     0.0000     0.0000  1341.3750
    1718.0     0.2133    26.7947    -0.0013  2267.5300   187.2941     0.0000   113.3277     0.0000   114.3750   151.4837   112.8000     0.0000     0.0000  1344.5000
    1718.5     0.2096    27.2564    -0.0087  2223.4124   187.2941     0.0000   122.0223     0.0000   123.1500   151.5080   127.8000     0.0000     0.0000  1330.5000
    1719.0     0.2037    27.9868    -0.0043  2317.5908   187.2941     0.0000   125.3664     0.0000   126.5250   151.5323   132.6000     0.0000     0.0000  1351.7500
    1719.5     0.1898    29.8060    -0.0028  2370.6729   187.2941     0.0000   119.0250     0.0000   120.1250   151.5566   118.5000     0.0000     0.0000  1339.6251
    1720.0     0.1817    30.9325    -0.0058  2404.8931   187.2941     0.0000   109.6616     0.0000   110.6750   151.5809   108.6000     0.0000     0.0000  1342.5001
    1720.5     0.2003    28.4215    -0.0028  2325.1897   187.2941     0.0000    96.3100     0.0000    97.2000   151.6052   103.8000     0.0000     0.0000  1345.0001
    1721.0     0.2344    24.3583     0.0013  2388.0874   187.2941     0.0000    93.4365     0.0000    94.3000   151.6295    80.4000     0.0000     0.0000  1355.5000
    1721.5     0.2671    20.9969    -0.0071  2273.0044   187.2941     0.0000    87.6401     0.0000    88.4500   151.6538    99.6000     0.0000     0.0000  1360.1250
    1722.0     0.3040    17.7620     0.0013  2294.8928   187.2941     0.0000    86.8474     0.0000    87.6500   151.6781    83.7000     0.0000     0.0000  1358.0000
    1722.5     0.3387    15.1746     0.6234  2294.3552   187.2941     0.0000    81.0510     0.0000    81.8000   151.7024    78.0000     0.0000     0.0000  1344.7500
    1723.0     0.3558    14.0474    -0.1351  2243.3345   187.2941     0.0000    85.9556     0.0000    86.7500   151.7267    83.1000     0.0000     0.0000  1354.0000
    1723.5     0.3553    14.0755     0.0187  2307.6760   187.2941     0.0000    86.5502     0.0000    87.3500   151.7510    99.3000     0.0000     0.0000  1371.7500
    1724.0     0.3601    13.7763    -0.0101  2248.8606   187.2941     0.0000    91.9007     0.0000    92.7500   151.7753    79.8000     0.0000     0.0000  1381.7501
    1724.5     0.3787    12.6594    -0.0087  2189.7964   187.2941     0.0000    93.0154     0.0000    93.8750   151.7996    98.1000     0.0000     0.0000  1373.7500
    1725.0     0.3807    12.5479     0.0145  2169.6060   187.2941     0.0000   105.6982     0.0000   106.6750   151.8239   102.3000     0.0000     0.0000  1335.3750
